timestamp_utc,sample_index,race_time_seconds,game_state,is_racing,is_paused,level_id,level_name,car_id,car_name,player_steer,player_throttle,player_brake,position_x,position_y,position_z,forward_x,forward_y,forward_z,right_x,right_y,right_z,up_x,up_y,up_z,velocity_x,velocity_y,velocity_z,angular_velocity_x,angular_velocity_y,angular_velocity_z,vehicle_applied_throttle,vehicle_applied_brake,vehicle_applied_handbrake,vehicle_control_candidate_1dfc,vehicle_applied_steer,vehicle_frame_delta_ms,vehicle_frame_delta_seconds,speed_magnitude,planar_speed_magnitude,yaw_radians,yaw_degrees,pitch_radians,pitch_degrees,roll_radians,roll_degrees,yaw_rate,quat_x,quat_y,quat_z,quat_w,camera_position_x,camera_position_y,camera_position_z,camera_forward_x,camera_forward_y,camera_forward_z,camera_fov,camera_mode_index,camera_family,camera_tracker_vtable,camera_tracker_slot_a_vtable,camera_tracker_slot_b_vtable,camera_output_active_profile_ptr,camera_output_active_profile_vtable,camera_output_source_node_ptr,camera_output_target_node_ptr,camera_goal_view_active_profile_ptr,camera_goal_view_active_profile_vtable,camera_goal_view_active_clip_ptr,camera_goal_view_active_clip_vtable,camera_goal_view_source_node_ptr,camera_goal_view_target_node_ptr,camera_goal_view_runtime_seconds,camera_goal_view_dirty_flag,player_camera_list_count,player_camera_active_profile_index,player_camera_list_0_ptr,player_camera_list_0_vtable,player_camera_list_1_ptr,player_camera_list_1_vtable,player_camera_list_2_ptr,player_camera_list_2_vtable,player_camera_list_3_ptr,player_camera_list_3_vtable,player_camera_list_4_ptr,player_camera_list_4_vtable,player_camera_list_5_ptr,player_camera_list_5_vtable,wheel_0_contact_flag,wheel_0_contact_ptr,wheel_0_contact_surface_44_candidate,wheel_0_contact_surface_48_candidate,wheel_0_contact_surface_4c_candidate,wheel_0_contact_surface_50_candidate,wheel_0_contact_surface_54_candidate,wheel_0_suspension_length_candidate,wheel_0_tire_force_multiplier_candidate,wheel_0_load_or_spin_candidate,wheel_0_rotation_or_phase_candidate,wheel_0_vertical_load_candidate,wheel_1_contact_flag,wheel_1_contact_ptr,wheel_1_contact_surface_44_candidate,wheel_1_contact_surface_48_candidate,wheel_1_contact_surface_4c_candidate,wheel_1_contact_surface_50_candidate,wheel_1_contact_surface_54_candidate,wheel_1_suspension_length_candidate,wheel_1_tire_force_multiplier_candidate,wheel_1_load_or_spin_candidate,wheel_1_rotation_or_phase_candidate,wheel_1_vertical_load_candidate,wheel_2_contact_flag,wheel_2_contact_ptr,wheel_2_contact_surface_44_candidate,wheel_2_contact_surface_48_candidate,wheel_2_contact_surface_4c_candidate,wheel_2_contact_surface_50_candidate,wheel_2_contact_surface_54_candidate,wheel_2_suspension_length_candidate,wheel_2_tire_force_multiplier_candidate,wheel_2_load_or_spin_candidate,wheel_2_rotation_or_phase_candidate,wheel_2_vertical_load_candidate,wheel_3_contact_flag,wheel_3_contact_ptr,wheel_3_contact_surface_44_candidate,wheel_3_contact_surface_48_candidate,wheel_3_contact_surface_4c_candidate,wheel_3_contact_surface_50_candidate,wheel_3_contact_surface_54_candidate,wheel_3_suspension_length_candidate,wheel_3_tire_force_multiplier_candidate,wheel_3_load_or_spin_candidate,wheel_3_rotation_or_phase_candidate,wheel_3_vertical_load_candidate,vehicle_candidate_1de8,vehicle_candidate_1dec,vehicle_candidate_1df0,vehicle_candidate_1e08,vehicle_candidate_1e0c,vehicle_candidate_1e10,vehicle_candidate_1e14,vehicle_candidate_1e18,wheel_0_candidate_0320,wheel_0_candidate_0324,wheel_0_candidate_0328,wheel_0_candidate_0338,wheel_0_candidate_033c,wheel_0_candidate_0340,wheel_0_candidate_0344,wheel_0_candidate_036c,wheel_0_candidate_0370,wheel_0_candidate_0374,wheel_0_candidate_037c,wheel_0_candidate_0380,wheel_0_candidate_0384,wheel_0_candidate_038c,wheel_0_candidate_0390,wheel_0_candidate_0394,wheel_1_candidate_0320,wheel_1_candidate_0324,wheel_1_candidate_0328,wheel_1_candidate_0338,wheel_1_candidate_033c,wheel_1_candidate_0340,wheel_1_candidate_0344,wheel_1_candidate_036c,wheel_1_candidate_0370,wheel_1_candidate_0374,wheel_1_candidate_037c,wheel_1_candidate_0380,wheel_1_candidate_0384,wheel_1_candidate_038c,wheel_1_candidate_0390,wheel_1_candidate_0394,wheel_2_candidate_0320,wheel_2_candidate_0324,wheel_2_candidate_0328,wheel_2_candidate_0338,wheel_2_candidate_033c,wheel_2_candidate_0340,wheel_2_candidate_0344,wheel_2_candidate_036c,wheel_2_candidate_0370,wheel_2_candidate_0374,wheel_2_candidate_037c,wheel_2_candidate_0380,wheel_2_candidate_0384,wheel_2_candidate_038c,wheel_2_candidate_0390,wheel_2_candidate_0394,wheel_3_candidate_0320,wheel_3_candidate_0324,wheel_3_candidate_0328,wheel_3_candidate_0338,wheel_3_candidate_033c,wheel_3_candidate_0340,wheel_3_candidate_0344,wheel_3_candidate_036c,wheel_3_candidate_0370,wheel_3_candidate_0374,wheel_3_candidate_037c,wheel_3_candidate_0380,wheel_3_candidate_0384,wheel_3_candidate_038c,wheel_3_candidate_0390,wheel_3_candidate_0394
2026-04-28T12:50:05.0588716Z,1,-2.1099998000000002,Race,true,false,68,Garage Test Track,16,Bullet,0,0,0,-140.379166,1.32111096,190.70105,7.86598093E-07,-0.018165268,-0.999835253,-1.00000024,4.42017517E-06,-8.67034828E-07,4.43519548E-06,0.999835014,-0.018165268,0.000408020045,-0.00067327352,-0.00338692777,-0.000402025413,-0.000307874521,0.000302614615,0,1,0,0,0,10,0.0100000007,0.00347721973,0.00341141596,3.14159179,179.999939,0.0181662627,1.04085016,4.42090459E-06,0.000253299164,-0.000307874521,-0.00908300839,2.21393384E-06,0.999958813,4.13425255E-07,-140.379166,2.82510757,195.699692,-8.97888276E-06,-0.198775858,-0.980045021,1.74532926,1,goal_runtime,0x006742EC,0x006742EC,0x0067459C,0x07DD855C,0x00673FF8,0x2B657F30,0x2B657F30,0x07DD8C7C,0x00673FF8,0x07DDA95C,0x00673FF8,0x2B657F30,0x2B657F30,1.67999876,0,5,1,0x07DD842C,0x00673FF8,0x07DD855C,0x00673FF8,0x07DD86E0,0x00673FF8,0x07DD87D8,0x00673FF8,0x07DD88D0,0x00673FF8,,,1,0x2B659BDC,0,0.600000024,0,0,0,-0.0175350569,-4.70175401E-05,0.000435567868,0,0.00252753869,1,0x2B659BDC,0,0.600000024,0,0,0,0.0175439846,-1.12122043E-05,0.000435875234,0,0.0025064284,1,0x2B659BDC,0,0.600000024,0,0,0,0.0174504668,-9.10819472E-06,5.14038402E-06,0.000144601116,0.000322747335,1,0x2B659BDC,0,0.600000024,0,0,0,-0.0174485072,-2.72605484E-06,5.73007128E-06,6.28304529,0.000179422103,1,0,0,0.0100000007,100,0.015936831,0.00182384381,-0.148239687,2000,-0.00147925422,-0.00062377,1,1,0,4846.56348,0,24.2328167,-0.00252603786,0.979415119,9.79415131,0.000435567898,-1.86099351E-05,-0.00147925422,-0.00062377,2000,-0.00193628436,-0.00062377064,1,1,1.40129846E-45,4846.56348,0,24.2328167,-0.00250535016,0.979415119,9.79415131,0.000435875263,-4.47525963E-06,-0.00193628436,-0.00062377064,2000,-0.00192076119,0.000165070378,1,1,2.80259693E-45,3128.62354,1.10174306E-05,15.643117,-0.000322407985,0.936205506,9.36205482,5.14038402E-06,-2.82392593E-05,-0.00192076119,0.000165070378,2000,-0.00149474689,0.000165070887,1,1,4.20389539E-45,3128.62354,-1.10174306E-05,15.643117,-0.000179226321,0.936205506,9.36205482,5.73007128E-06,-1.52083658E-05,-0.00149474689,0.000165070887
2026-04-28T12:50:05.1340794Z,2,-2.0099999,Race,true,false,68,Garage Test Track,16,Bullet,0,0,0,-140.37915,1.32106411,190.700775,2.74047807E-06,-0.0182044189,-0.999834299,-1,4.3765267E-06,-2.82061774E-06,4.42714918E-06,0.999834299,-0.0182044189,0.000127698324,-0.000398554723,-0.00406523282,-0.000111660549,-0.000253473147,5.35429463E-05,0,1,0,0,0,20,0.0200000014,0.00408671889,0.00406723795,3.14158988,179.999832,0.0182054248,1.04309392,4.37725203E-06,0.000250798039,-0.000253473147,-0.00910258666,2.20101015E-06,0.999958575,1.39033159E-06,-140.37915,2.82507515,195.699417,-8.97885002E-06,-0.198778212,-0.980044544,1.74532926,1,goal_runtime,0x006742EC,0x006742EC,0x0067459C,0x07DD855C,0x00673FF8,0x2B657F30,0x2B657F30,0x07DD8C7C,0x00673FF8,0x07DDA95C,0x00673FF8,0x2B657F30,0x2B657F30,1.76999867,0,5,1,0x07DD842C,0x00673FF8,0x07DD855C,0x00673FF8,0x07DD86E0,0x00673FF8,0x07DD87D8,0x00673FF8,0x07DD88D0,0x00673FF8,,,1,0x2B659BDC,0,0.600000024,0,0,0,-0.0175354462,-0.000827996526,7.13904883E-05,0,0.00307547301,1,0x2B659BDC,0,0.600000024,0,0,0,0.0175442845,-0.000844622205,7.17083312E-05,0,0.00310587743,1,0x2B659BDC,0,0.600000024,0,0,0,0.0174504109,-0.000801111164,-7.8635363E-05,0.000183801341,0.00305197481,1,0x2B659BDC,0,0.600000024,0,0,0,-0.0174485389,-0.000756659021,-7.8103767E-05,6.28300619,0.00296754739,1,0,0,0.0100000007,100,0.00358465733,0.00336369383,-0.140825555,2000,-0.00270229205,-6.78789293E-05,1,1,0,4848.16602,0,24.2408295,-0.00296063698,0.979415119,9.79415131,7.13904883E-05,-0.000269333774,-0.00270229205,-6.78789293E-05,2000,-0.00272074761,-6.78789002E-05,1,1,1.40129846E-45,4848.16602,0,24.2408295,-0.00298753916,0.979415119,9.79415131,7.17083312E-05,-0.000272051751,-0.00272074761,-6.78789002E-05,2000,-0.00276089204,-3.60720296E-05,1,1,2.80259693E-45,3128.5625,-2.89645322E-05,15.6428118,0.00294369343,0.936205506,9.36205482,-7.8635363E-05,-0.000262594345,-0.00276089204,-3.60720296E-05,2000,-0.00266214623,-3.6072066E-05,1,1,4.20389539E-45,3128.5625,2.89645322E-05,15.6428118,0.00286822836,0.936205506,9.36205482,-7.8103767E-05,-0.000255080318,-0.00266214623,-3.6072066E-05
2026-04-28T12:50:05.2335675Z,3,-1.9099999000000001,Race,true,false,68,Garage Test Track,16,Bullet,0,0,0,-140.37915,1.32104492,190.700455,-3.68152996E-06,-0.0182177629,-0.999834299,-1.00000024,9.59621502E-06,3.50729033E-06,9.53072777E-06,0.999834061,-0.0182177629,-0.00014955792,-3.65363376E-05,-0.00382288499,0.00010408675,0.000298301427,-5.93109726E-05,0,1,0,0,0,20,0.0200000014,0.00382598373,0.00382580934,-3.14158893,-179.999771,0.0182187669,1.04385841,9.59780755E-06,0.00054991385,0.000298301427,-0.00910925865,4.78193397E-06,0.999958575,-1.79727954E-06,-140.37915,2.82506943,195.699081,-8.97884456E-06,-0.198781013,-0.980043948,1.74532926,1,goal_runtime,0x006742EC,0x006742EC,0x0067459C,0x07DD855C,0x00673FF8,0x2B657F30,0x2B657F30,0x07DD8C7C,0x00673FF8,0x07DDA95C,0x00673FF8,0x2B657F30,0x2B657F30,1.86999857,0,5,1,0x07DD842C,0x00673FF8,0x07DD855C,0x00673FF8,0x07DD86E0,0x00673FF8,0x07DD87D8,0x00673FF8,0x07DD88D0,0x00673FF8,,,1,0x2B659BDC,0,0.600000024,0,0,0,-0.0175303426,-0.0134756565,0.000310163887,0,0.0135999136,1,0x2B659BDC,0,0.600000024,0,0,0,0.0175496191,-0.0130583886,0.000310537405,0,0.0131863803,1,0x2B659BDC,0,0.600000024,0,0,0,0.0174516924,-0.0123023409,6.44535903E-05,0.000183367985,0.0123210065,1,0x2B659BDC,0,0.600000024,0,0,0,-0.0174473692,-0.013061733,6.49641588E-05,6.28300762,0.013080243,1,0,0,0.0100000007,100,0.00839517079,0.00376396836,0.0204080474,2000,-0.00500139268,0.000946852437,1,1,0,4846.99414,0,24.2349701,-0.00178746146,0.979415119,9.79415131,0.000310163887,-0.00119138206,-0.00500139268,0.000946852437,2000,-0.00431771623,0.000946852262,1,1,1.40129846E-45,4846.99414,0,24.2349701,-0.00178945088,0.979415119,9.79415131,0.000310537405,-0.00115460414,-0.00431771623,0.000946852262,2000,-0.00421560975,-0.000233168132,1,1,2.80259693E-45,3129.88477,7.39235766E-05,15.6494236,-0.000569476921,0.936205506,9.36205482,6.44535903E-05,-0.00108769536,-0.00421560975,-0.000233168132,2000,-0.00510354294,-0.000233167724,1,1,4.20389539E-45,3129.88477,-7.39236129E-05,15.6494236,-0.000574007398,0.936205506,9.36205482,6.49641588E-05,-0.00115483347,-0.00510354294,-0.000233167724
2026-04-28T12:50:05.3335787Z,4,-1.8099999,Race,true,false,68,Garage Test Track,16,Bullet,0,0,0,-140.37915,1.32105505,190.700195,-3.02600688E-06,-0.0182150602,-0.999834299,-1.00000024,9.33095907E-06,2.85651663E-06,9.27737892E-06,0.99983412,-0.0182150602,-0.000170227679,0.000197983594,-0.00101475033,-8.62091183E-05,-0.000135001537,-0.000139538533,0,1,0,0,0,20,0.0200000014,0.0010478039,0.00102892937,-3.14158964,-179.999817,0.0182160642,1.04370356,9.33250703E-06,0.00053471321,-0.000135001537,-0.0091079073,4.65227731E-06,0.999958575,-1.47069181E-06,-140.37915,2.82508898,195.698822,-8.97884183E-06,-0.198782951,-0.98004353,1.74532926,1,goal_runtime,0x006742EC,0x006742EC,0x0067459C,0x07DD855C,0x00673FF8,0x2B657F30,0x2B657F30,0x07DD8C7C,0x00673FF8,0x07DDA95C,0x00673FF8,0x2B657F30,0x2B657F30,1.96999848,0,5,1,0x07DD842C,0x00673FF8,0x07DD855C,0x00673FF8,0x07DD86E0,0x00673FF8,0x07DD87D8,0x00673FF8,0x07DD88D0,0x00673FF8,,,1,0x2B659BDC,0,0.600000024,0,0,0,-0.0175306089,-0.020629229,0.000391400477,0,0.0207632743,1,0x2B659BDC,0,0.600000024,0,0,0,0.0175492372,-0.0192375276,0.000391889975,0,0.01937964,1,0x2B659BDC,0,0.600000024,0,0,0,0.0174516663,-0.0190625675,-0.000248099386,0.000121862162,0.0191981047,1,0x2B659BDC,0,0.600000024,0,0,0,-0.0174473953,-0.0191012267,-0.000247493677,6.28306913,0.0192359705,1,0,0,0.0100000007,100,0.00219136337,0.00183081848,0.137227342,2000,-0.0026177715,0.000406709412,1,1,0,4846.22607,0,24.2311306,-0.00225589587,0.979415119,9.79415131,0.000391400506,-0.00182399561,-0.0026177715,0.000406709412,2000,-0.00248862035,0.0004067095,1,1,1.40129846E-45,4846.22607,0,24.2311306,-0.00225857785,0.979415119,9.79415131,0.000391890004,-0.00170103949,-0.00248862035,0.0004067095,2000,-0.00265563163,0.00018404724,1,1,2.80259693E-45,3128.80615,-0.000120417579,15.6440306,0.00219263136,0.936205506,9.36205482,-0.000248099386,-0.00168545684,-0.00265563163,0.00018404724,2000,-0.00245076884,0.000184047269,1,1,4.20389539E-45,3128.80615,0.000120417579,15.6440306,0.00218716916,0.936205506,9.36205482,-0.000247493677,-0.00168896362,-0.00245076884,0.000184047269
2026-04-28T12:50:05.4340829Z,5,-1.71,Race,true,false,68,Garage Test Track,16,Bullet,0,0,0,-140.37915,1.32107854,190.699966,1.09174482E-06,-0.0182024147,-0.999834299,-1,4.23972051E-06,-1.16911167E-06,4.26029874E-06,0.999834299,-0.0182024147,0.000301922584,0.000241182497,-0.00124601182,5.47924501E-05,-0.000205848599,0.00018507702,0,1,0,0,0,20,0.0200000014,0.00130455801,0.00128206972,3.14159155,179.999924,0.0182034206,1.04297912,4.2404231E-06,0.00024295834,-0.000205848599,-0.00910158455,2.12509281E-06,0.999958575,5.65237542E-07,-140.37915,2.82511592,195.698593,-8.97886639E-06,-0.198784247,-0.980043232,1.74532926,1,goal_runtime,0x006742EC,0x006742EC,0x0067459C,0x07DD855C,0x00673FF8,0x2B657F30,0x2B657F30,0x07DD8C7C,0x00673FF8,0x07DDA95C,0x00673FF8,0x2B657F30,0x2B657F30,2.0699985,0,5,1,0x07DD842C,0x00673FF8,0x07DD855C,0x00673FF8,0x07DD86E0,0x00673FF8,0x07DD87D8,0x00673FF8,0x07DD88D0,0x00673FF8,,,1,0x2B659BDC,0,0.600000024,0,0,0,-0.0175355822,0.000321790547,0.000104461229,0,0.00195700116,1,0x2B659BDC,0,0.600000024,0,0,0,0.0175440293,0.000307688781,0.000104995022,0,0.00191578711,1,0x2B659BDC,0,0.600000024,0,0,0,0.0174503941,0.000362717896,-0.000169214647,0.000105146741,0.00231988239,1,0x2B659BDC,0,0.600000024,0,0,0,-0.0174485557,0.000354397576,-0.0001686381,6.2830863,0.00229580398,1,0,0,0.0100000007,100,-0.000725897495,-0.000765632198,-0.0154766273,2000,0.000649697613,-0.000474863511,1,1,0,4845.81641,0,24.2290821,-0.00192953087,0.979415119,9.79415131,0.000104461229,0.000164499506,0.000649697613,-0.000474863511,2000,0.000605157926,-0.000474863104,1,1,1.40129846E-45,4845.81641,0,24.2290821,-0.00189005188,0.979415119,9.79415131,0.000104995022,0.000160678625,0.000605157926,-0.000474863104,2000,0.000479829498,-0.000398444216,1,1,2.80259693E-45,3126.89966,-9.04203989E-05,15.6344976,0.00229038927,0.936205506,9.36205482,-0.000169214647,0.000156415903,0.000479829498,-0.000398444216,2000,0.000775029184,-0.000398444798,1,1,4.20389539E-45,3126.89966,9.04202607E-05,15.6344976,0.00226732227,0.936205506,9.36205482,-0.0001686381,0.000154431546,0.000775029184,-0.000398444798
2026-04-28T12:50:05.5338702Z,6,-1.6100000000000001,Race,true,false,68,Garage Test Track,16,Bullet,0,0,0,-140.37915,1.32109976,190.699677,4.21172581E-06,-0.0181814414,-0.999834776,-1.00000012,5.13333589E-06,-4.30576938E-06,5.21077209E-06,0.999834716,-0.0181814414,5.25909627E-06,0.000165737525,-0.00404039212,0.000396747055,3.10891373E-05,7.0623679E-07,0,1,0,0,0,20,0.0200000014,0.00404379331,0.00404039538,3.14158845,179.999756,0.0181824416,1.04177713,5.13418445E-06,0.000294167083,3.10891373E-05,-0.009091096,2.58613386E-06,0.999958694,2.12946179E-06,-140.37915,2.82513714,195.698303,-8.97886639E-06,-0.198784247,-0.980043232,1.74532926,1,goal_runtime,0x006742EC,0x006742EC,0x0067459C,0x07DD855C,0x00673FF8,0x2B657F30,0x2B657F30,0x07DD8C7C,0x00673FF8,0x07DDA95C,0x00673FF8,0x2B657F30,0x2B657F30,2.16999841,0,5,1,0x07DD842C,0x00673FF8,0x07DD855C,0x00673FF8,0x07DD86E0,0x00673FF8,0x07DD87D8,0x00673FF8,0x07DD88D0,0x00673FF8,,,1,0x2B659BDC,0,0.600000024,0,0,0,-0.0175344571,-0.000870069955,-0.000213102147,0,0.00326031307,1,0x2B659BDC,0,0.600000024,0,0,0,0.0175448116,-0.00114455726,-0.000212352665,0,0.00370592973,1,0x2B659BDC,0,0.600000024,0,0,0,0.0174505804,-0.00111523073,0.000113102491,7.5032789E-05,0.00362388953,1,0x2B659BDC,0,0.600000024,0,0,0,-0.0174483843,-0.000725361111,0.000113590664,6.28311634,0.00295513496,1,0,0,0.0100000007,100,-0.00839322247,-0.00114769128,-0.136980563,2000,-0.00266677723,-0.000459247909,1,1,0,4843.23096,0,24.2161541,0.00314072357,0.979415119,9.79415131,-0.000213102147,-0.000266973453,-0.00266677723,-0.000459247909,2000,-0.00315185613,-0.00045925015,1,1,1.40129846E-45,4843.23096,0,24.2161541,0.00352312275,0.979415119,9.79415131,-0.000212352665,-0.000308974355,-0.00315185613,-0.00045925015,2000,-0.0032647599,0.000378237106,1,1,2.80259693E-45,3129.56348,-8.16320317E-05,15.6478167,-0.00344641251,0.936205506,9.36205482,0.000113102491,-0.000307873997,-0.0032647599,0.000378237106,2000,-0.00255383854,0.00037823926,1,1,4.20389539E-45,3129.56348,8.16320389E-05,15.6478167,-0.0028635154,0.936205506,9.36205482,0.000113590664,-0.000245555653,-0.00255383854,0.00037823926
2026-04-28T12:50:05.6335181Z,7,-1.5099999,Race,true,false,68,Garage Test Track,16,Bullet,0,0,0,-140.37915,1.32111049,190.699387,5.56102748E-07,-0.0181676894,-0.999835253,-1.00000036,1.19554952E-05,-7.73434124E-07,1.19675733E-05,0.999834955,-0.0181676894,-0.000381268823,5.43812421E-05,-0.00376127125,0.000218444373,9.73836432E-05,-0.000257696403,0,1,0,0,0,20,0.0200000014,0.00378093682,0.0037805459,3.14159203,179.999954,0.0181686841,1.0409888,1.19574688E-05,0.000685112434,9.73836432E-05,-0.00908421911,5.9810136E-06,0.999958813,3.32397917E-07,-140.37915,2.8251462,195.698013,-8.97889367E-06,-0.198784515,-0.980043232,1.74532926,1,goal_runtime,0x006742EC,0x006742EC,0x0067459C,0x07DD855C,0x00673FF8,0x2B657F30,0x2B657F30,0x07DD8C7C,0x00673FF8,0x07DDA95C,0x00673FF8,0x2B657F30,0x2B657F30,2.26999831,0,5,1,0x07DD842C,0x00673FF8,0x07DD855C,0x00673FF8,0x07DD86E0,0x00673FF8,0x07DD87D8,0x00673FF8,0x07DD88D0,0x00673FF8,,,1,0x2B659BDC,0,0.600000024,0,0,0,-0.0175276417,-0.0129170232,0.000161846343,0,0.0129566453,1,0x2B659BDC,0,0.600000024,0,0,0,0.017551519,-0.0128727295,0.000162595679,0,0.0129127121,1,0x2B659BDC,0,0.600000024,0,0,0,0.0174521618,-0.0123459958,0.000167063321,4.91827122E-05,0.0124394819,1,0x2B659BDC,0,0.600000024,0,0,0,-0.0174469315,-0.0123067554,0.000167604914,6.28314161,0.0124011012,1,0,0,0.0100000007,100,-0.0252412669,-0.000662246312,0.0142391874,2000,-0.00463301362,0.000947213441,1,1,0,4842.24707,0,24.211235,-0.000933767471,0.979415119,9.79415131,0.000161846343,-0.00114203198,-0.00463301362,0.000947213441,2000,-0.00453661522,0.000947211811,1,1,1.40129846E-45,4842.24707,0,24.211235,-0.000938066572,0.979415119,9.79415131,0.000162595679,-0.00113814638,-0.00453661522,0.000947211811,2000,-0.00452520605,0.000781725801,1,1,2.80259693E-45,3130.88672,8.26923952E-06,15.6544333,-0.0014757209,0.936205506,9.36205482,0.000167063321,-0.00109158468,-0.00452520605,0.000781725801,2000,-0.00464443117,0.000781727838,1,1,4.20389539E-45,3130.88672,-8.26917403E-06,15.6544333,-0.00148058427,0.936205506,9.36205482,0.000167604914,-0.00108805846,-0.00464443117,0.000781727838
2026-04-28T12:50:05.7339930Z,8,-1.4099999000000001,Race,true,false,68,Garage Test Track,16,Bullet,0,0,0,-140.37915,1.32111001,190.699127,-3.98121165E-06,-0.0181701165,-0.999835253,-1.00000036,7.44423869E-06,3.8465837E-06,7.37311711E-06,0.999834895,-0.0181701165,0.000193003536,-4.02498226E-05,-0.00103064801,-0.000260504545,-2.12966534E-05,0.000167889055,0,1,0,0,0,20,0.0200000014,0.00104933593,0.00104856363,-3.14158869,-179.999756,0.0181711111,1.04112792,7.44546787E-06,0.000426593848,-2.12966534E-05,-0.00908543263,3.70449152E-06,0.999958813,-1.95702933E-06,-140.37915,2.82514429,195.697754,-8.97889367E-06,-0.198784232,-0.980043292,1.74532926,1,goal_runtime,0x006742EC,0x006742EC,0x0067459C,0x07DD855C,0x00673FF8,0x2B657F30,0x2B657F30,0x07DD8C7C,0x00673FF8,0x07DDA95C,0x00673FF8,0x2B657F30,0x2B657F30,2.36999822,0,5,1,0x07DD842C,0x00673FF8,0x07DD855C,0x00673FF8,0x07DD86E0,0x00673FF8,0x07DD87D8,0x00673FF8,0x07DD88D0,0x00673FF8,,,1,0x2B659BDC,0,0.600000024,0,0,0,-0.0175321512,-0.020406032,0.000477244379,0,0.0206017829,1,0x2B659BDC,0,0.600000024,0,0,0,0.0175470058,-0.0194551125,0.000478244008,0,0.0196598284,1,0x2B659BDC,0,0.600000024,0,0,0,0.0174511056,-0.0188905001,-0.000147973449,2.42189089E-05,0.0189453345,1,0x2B659BDC,0,0.600000024,0,0,0,-0.0174478665,-0.0192139074,-0.000147564831,6.28316593,0.0192680173,1,0,0,0.0100000007,100,0.0165212266,-0.000576045073,0.137390584,2000,-0.00267478731,7.72776039E-05,1,1,0,4843.59131,0,24.2179565,-0.00275249896,0.979415119,9.79415131,0.000477244408,-0.00180422689,-0.00267478731,7.72776039E-05,2000,-0.00236312207,7.72792409E-05,1,1,1.40129846E-45,4843.59131,0,24.2179565,-0.00275798654,0.979415119,9.79415131,0.000478244037,-0.00172031578,-0.00236312207,7.72792409E-05,2000,-0.00249937293,-0.000461045332,1,1,2.80259693E-45,3129.44141,-9.81572157E-05,15.6472063,0.00130752334,0.936205506,9.36205482,-0.000147973449,-0.00167026208,-0.00249937293,-0.000461045332,2000,-0.00253855856,-0.000461046991,1,1,4.20389539E-45,3129.44141,9.81572157E-05,15.6472063,0.00130389014,0.936205506,9.36205482,-0.000147564831,-0.00169889745,-0.00253855856,-0.000461046991
2026-04-28T12:50:05.8335703Z,9,-1.3099999,Race,true,false,68,Garage Test Track,16,Bullet,0,0,0,-140.37915,1.3211025,190.698898,1.8040505E-06,-0.0181813259,-0.999834776,-1.00000012,6.25468829E-06,-1.91808613E-06,6.28852786E-06,0.999834716,-0.0181813259,0.000339701801,-9.27202709E-05,-0.00135725795,-0.000206012191,-0.00020845035,0.000239437606,0,1,0,0,0,20,0.0200000014,0.0014021924,0.00139912346,3.14159083,179.999893,0.0181823261,1.04177046,6.25572238E-06,0.000358426478,-0.00020845035,-0.00909103826,3.13593364E-06,0.999958694,9.30572583E-07,-140.37915,2.82513595,195.697525,-8.97886821E-06,-0.198783472,-0.980043471,1.74532926,1,goal_runtime,0x006742EC,0x006742EC,0x0067459C,0x07DD855C,0x00673FF8,0x2B657F30,0x2B657F30,0x07DD8C7C,0x00673FF8,0x07DDA95C,0x00673FF8,0x2B657F30,0x2B657F30,2.46999812,0,5,1,0x07DD842C,0x00673FF8,0x07DD855C,0x00673FF8,0x07DD86E0,0x00673FF8,0x07DD87D8,0x00673FF8,0x07DD88D0,0x00673FF8,,,1,0x2B659BDC,0,0.600000024,0,0,0,-0.0175333377,0.000386113446,0.00025388872,0,0.00236223475,1,0x2B659BDC,0,0.600000024,0,0,0,0.017545931,0.000373717194,0.000254947634,0,0.00233228994,1,0x2B659BDC,0,0.600000024,0,0,0,0.0174508654,0.00029792136,5.33044076E-05,6.28317165,0.00186685519,1,0x2B659BDC,0,0.600000024,0,0,0,-0.0174482185,0.000264560018,5.37615415E-05,1.92518437E-05,0.0017636735,1,0,0,0.0100000007,100,0.0220886972,-0.00082953769,-0.01585746,2000,0.000794424501,-0.000327387417,1,1,0,4845.66943,0,24.2283459,-0.00232946919,0.979415119,9.79415131,0.00025388872,0.000163520672,0.000794424501,-0.000327387417,2000,0.000390628527,-0.000327387475,1,1,1.40129846E-45,4845.66943,0,24.2283459,-0.00230118143,0.979415119,9.79415131,0.000254947634,0.000160302137,0.000390628527,-0.000327387475,2000,0.000141220109,0.00036981664,1,1,2.80259693E-45,3127.08203,-0.000180063944,15.6354094,-0.00184212194,0.936205506,9.36205482,5.33044076E-05,0.000159652845,0.000141220109,0.00036981664,2000,0.00104385905,0.000369816698,1,1,4.20389539E-45,3127.08203,0.000180064075,15.6354094,-0.00174297765,0.936205506,9.36205482,5.37615415E-05,0.000150067382,0.00104385905,0.000369816698
2026-04-28T12:50:05.9340722Z,10,-1.21,Race,true,false,68,Garage Test Track,16,Bullet,0,0,0,-140.37915,1.32109416,190.698608,4.78764196E-06,-0.0181844924,-0.999834776,-1.00000012,7.15084343E-06,-4.91849005E-06,7.23910171E-06,0.999834657,-0.0181844924,-0.000383101462,-8.00167691E-05,-0.00410228549,0.000192654232,-0.000182931035,-0.000323400425,0,1,0,0,0,20,0.0200000014,0.00412091194,0.00412013521,3.14158797,179.999725,0.0181854926,1.04195189,7.15202577E-06,0.000409780856,-0.000182931035,-0.00909262151,3.59763499E-06,0.999958694,2.42663327E-06,-140.37915,2.8251276,195.697235,-8.97886821E-06,-0.198783472,-0.980043471,1.74532926,1,goal_runtime,0x006742EC,0x006742EC,0x0067459C,0x07DD855C,0x00673FF8,0x2B657F30,0x2B657F30,0x07DD8C7C,0x00673FF8,0x07DDA95C,0x00673FF8,0x2B657F30,0x2B657F30,2.56999803,0,5,1,0x07DD842C,0x00673FF8,0x07DD855C,0x00673FF8,0x07DD86E0,0x00673FF8,0x07DD87D8,0x00673FF8,0x07DD88D0,0x00673FF8,,,1,0x2B659BDC,0,0.600000024,0,0,0,-0.017532561,-0.000907677226,-0.000236435386,0,0.00335283438,1,0x2B659BDC,0,0.600000024,0,0,0,0.017546827,-0.0011208154,-0.000235317551,0,0.00369439926,1,0x2B659BDC,0,0.600000024,0,0,0,0.0174510442,-0.000944705913,-6.91694368E-05,6.28316832,0.0032990668,1,0x2B659BDC,0,0.600000024,0,0,0,-0.017448036,-0.000795652799,-6.8778194E-05,2.2237522E-05,0.00303201936,1,0,0,0.0100000007,100,-0.0339160711,0.000187681129,-0.137233675,2000,-0.00271531916,-0.00035154089,1,1,0,4844.70361,0,24.2235184,0.00322614377,0.979415119,9.79415131,-0.000236435386,-0.000270835269,-0.00271531916,-0.00035154089,2000,-0.00308399904,-0.00035154316,1,1,1.40129846E-45,4844.70361,0,24.2235184,0.00351861375,0.979415119,9.79415131,-0.000235317551,-0.000303512614,-0.00308399904,-0.00035154316,2000,-0.00304273586,0.000284977927,1,1,2.80259693E-45,3129.32202,2.96189846E-05,15.6466093,0.00315942103,0.936205506,9.36205482,-6.91694368E-05,-0.000286479655,-0.00304273586,0.000284977927,2000,-0.00275655813,0.000284976762,1,1,4.20389539E-45,3129.32202,-2.96189846E-05,15.6466093,0.0029244232,0.936205506,9.36205482,-6.8778194E-05,-0.000262528571,-0.00275655813,0.000284976762
2026-04-28T12:50:06.0340312Z,11,-1.1100000000000001,Race,true,false,68,Garage Test Track,16,Bullet,0,0,0,-140.37915,1.32108927,190.698318,-4.08841015E-06,-0.0181840211,-0.999834776,-1.00000012,6.80181211E-06,3.96538189E-06,6.7285805E-06,0.999834657,-0.0181840211,-0.000194811102,-2.79538399E-05,-0.00378328143,0.000143733429,0.000327953516,-0.000137133087,0,1,0,0,0,20,0.0200000014,0.00378839695,0.0037882938,-3.14158845,-179.999756,0.0181850214,1.04192495,6.80293715E-06,0.000389779569,0.000327953516,-0.00909238588,3.38273799E-06,0.999958694,-2.01353123E-06,-140.37915,2.82512331,195.696945,-8.97886821E-06,-0.198783591,-0.980043471,1.74532926,1,goal_runtime,0x006742EC,0x006742EC,0x0067459C,0x07DD855C,0x00673FF8,0x2B657F30,0x2B657F30,0x07DD8C7C,0x00673FF8,0x07DDA95C,0x00673FF8,0x2B657F30,0x2B657F30,2.66999793,0,5,1,0x07DD842C,0x00673FF8,0x07DD855C,0x00673FF8,0x07DD86E0,0x00673FF8,0x07DD87D8,0x00673FF8,0x07DD88D0,0x00673FF8,,,1,0x2B659BDC,0,0.600000024,0,0,0,-0.0175329093,-0.0132232392,6.44616084E-05,0,0.0132344747,1,0x2B659BDC,0,0.600000024,0,0,0,0.0175464787,-0.0126518225,6.57248602E-05,0,0.0126632378,1,0x2B659BDC,0,0.600000024,0,0,0,0.0174510535,-0.0127040036,-0.000182813819,6.28312922,0.0128120063,1,0x2B659BDC,0,0.600000024,0,0,0,-0.0174480267,-0.0121540241,-0.000182460775,6.1238854E-05,0.012265929,1,0,0,0.0100000007,100,-0.00985880196,0.000998496544,0.0154206986,2000,-0.00500991661,0.000732155109,1,1,0,4844.02539,0,24.2201271,-0.000371751987,0.979415119,9.79415131,6.44616084E-05,-0.00116911787,-0.00500991661,0.000732155109,2000,-0.00416610064,0.000732147833,1,1,1.40129846E-45,4844.02539,0,24.2201271,-0.000379039644,0.979415119,9.79415131,6.57248602E-05,-0.00111860095,-0.00416610064,0.000732147833,2000,-0.00416656351,-0.000724748126,1,1,2.80259693E-45,3130.48828,0,15.652441,0.00161511323,0.936205506,9.36205482,-0.000182813819,-0.00112317258,-0.00416656351,-0.000724748126,2000,-0.00500951475,-0.000724748592,1,1,4.20389539E-45,3130.48828,0,15.652441,0.00161188457,0.936205506,9.36205482,-0.000182460775,-0.00107461447,-0.00500951475,-0.000724748592
2026-04-28T12:50:06.1334793Z,12,-1.0099999,Race,true,false,68,Garage Test Track,16,Bullet,0,0,0,-140.37915,1.32108843,190.698059,-1.19870072E-06,-0.0181872491,-0.999834776,-1.00000012,8.46201237E-06,1.04497292E-06,8.44160695E-06,0.999834597,-0.0181872491,0.000306967093,1.55881553E-05,-0.00101958483,-0.000222369184,8.79194922E-05,0.000260805478,0,1,0,0,0,20,0.0200000014,0.00106490613,0.00106479204,-3.14159155,-179.999924,0.0181882493,1.04210985,8.46341209E-06,0.000484917779,8.79194922E-05,-0.00909399986,4.22607945E-06,0.999958694,-5.60941601E-07,-140.37915,2.82512283,195.696686,-8.97886821E-06,-0.198783681,-0.980043471,1.74532926,1,goal_runtime,0x006742EC,0x006742EC,0x0067459C,0x07DD855C,0x00673FF8,0x2B657F30,0x2B657F30,0x07DD8C7C,0x00673FF8,0x07DDA95C,0x00673FF8,0x2B657F30,0x2B657F30,2.76999784,0,5,1,0x07DD842C,0x00673FF8,0x07DD855C,0x00673FF8,0x07DD86E0,0x00673FF8,0x07DD87D8,0x00673FF8,0x07DD88D0,0x00673FF8,,,1,0x2B659BDC,0,0.600000024,0,0,0,-0.0175312478,-0.020194862,0.000392270304,0,0.0203318764,1,0x2B659BDC,0,0.600000024,0,0,0,0.0175482556,-0.0198060963,0.000393605296,0,0.0199460853,1,0x2B659BDC,0,0.600000024,0,0,0,0.0174514018,-0.018803075,0.000186950929,6.28312349,0.0188851226,1,0x2B659BDC,0,0.600000024,0,0,0,-0.0174476784,-0.019435877,0.00018732957,6.71649395E-05,0.0195162892,1,0,0,0.0100000007,100,0.0340260193,0.000586736423,0.138327077,2000,-0.00262692873,7.77254754E-05,1,1,0,4844.74121,0,24.2237053,-0.00226173922,0.979415119,9.79415131,0.000392270333,-0.00178557984,-0.00262692873,7.77254754E-05,2000,-0.00242717681,7.77257374E-05,1,1,1.40129846E-45,4844.74121,0,24.2237053,-0.00226927362,0.979415119,9.79415131,0.000393605325,-0.00175132276,-0.00242717681,7.77257374E-05,2000,-0.0025403169,-0.00026726292,1,1,2.80259693E-45,3129.17236,-8.15315434E-05,15.6458616,-0.00165201502,0.936205506,9.36205482,0.000186950929,-0.00166257215,-0.0025403169,-0.00026726292,2000,-0.00251380121,-0.00026726324,1,1,4.20389539E-45,3129.17236,8.15315434E-05,15.6458616,-0.00165538525,0.936205506,9.36205482,0.00018732957,-0.00171848561,-0.00251380121,-0.00026726324
2026-04-28T12:50:06.2335539Z,13,-0.91000000000000003,Race,true,false,68,Garage Test Track,16,Bullet,0,0,0,-140.37915,1.32109058,190.69783,1.70262649E-06,-0.0181912109,-0.999834776,-1.00000024,4.93443576E-06,-1.79268648E-06,4.96623079E-06,0.999834538,-0.0181912109,0.00018102063,2.22952403E-05,-0.00133592007,-0.000114965049,-0.000369660265,0.000107188578,0,1,0,0,0,20,0.0200000014,0.00134831306,0.00134812866,3.14159083,179.999893,0.0181922093,1.0423367,4.93525249E-06,0.000282769121,-0.000369660265,-0.00909598079,2.47526896E-06,0.999958694,8.73864337E-07,-140.37915,2.82512474,195.696457,-8.97886821E-06,-0.198783606,-0.980043471,1.74532926,1,goal_runtime,0x006742EC,0x006742EC,0x0067459C,0x07DD855C,0x00673FF8,0x2B657F30,0x2B657F30,0x07DD8C7C,0x00673FF8,0x07DDA95C,0x00673FF8,0x2B657F30,0x2B657F30,2.86999774,0,5,1,0x07DD842C,0x00673FF8,0x07DD855C,0x00673FF8,0x07DD86E0,0x00673FF8,0x07DD87D8,0x00673FF8,0x07DD88D0,0x00673FF8,,,1,0x2B659BDC,0,0.600000024,0,0,0,-0.0175347738,0.000358496298,0.00019861717,0,0.00218435773,1,0x2B659BDC,0,0.600000024,0,0,0,0.0175447296,0.000342533254,0.00020019355,0,0.00214391248,1,0x2B659BDC,0,0.600000024,0,0,0,0.0174506158,0.000372903567,-0.000182209609,6.28309536,0.00239209272,1,0x2B659BDC,0,0.600000024,0,0,0,-0.0174483415,0.000364816369,-0.000181905547,9.50485555E-05,0.00236986438,1,0,0,0.0100000007,100,-0.000992196845,-0.000555392879,-0.0159693286,2000,0.000769367092,-0.000476832211,1,1,0,4845.97949,0,24.2298965,-0.00215375959,0.979415119,9.79415131,0.00019861717,0.000164192374,0.000769367092,-0.000476832211,2000,0.000409093336,-0.000476832676,1,1,1.40129846E-45,4845.97949,0,24.2298965,-0.00211542775,0.979415119,9.79415131,0.00020019355,0.000159839692,0.000409093336,-0.000476832676,2000,0.00038861885,0.00014501845,1,1,2.80259693E-45,3127.00903,-1.49107755E-05,15.6350451,0.0023617961,0.936205506,9.36205482,-0.000182209609,0.000155957838,0.00038861885,0.00014501845,2000,0.000789866084,0.000145018857,1,1,4.20389539E-45,3127.00903,1.49109055E-05,15.6350451,0.00234062108,0.936205506,9.36205482,-0.000181905547,0.000154003676,0.000789866084,0.000145018857
2026-04-28T12:50:06.3340154Z,14,-0.81000000000000005,Race,true,false,68,Garage Test Track,16,Bullet,0,0,0,-140.37915,1.32109332,190.697586,9.06655998E-07,-0.0181889161,-0.999834776,-1.00000024,4.07459356E-06,-9.80930736E-07,4.09176118E-06,0.999834597,-0.0181889161,0.000113175403,1.5760801E-05,-0.00312146614,0.000160801254,-0.000191035491,4.30855398E-05,0,1,0,0,0,20,0.0200000014,0.00312355673,0.00312351715,3.14159179,179.999939,0.0181899145,1.04220533,4.0752675E-06,0.000233495608,-0.000191035491,-0.0090948334,2.04167304E-06,0.999958694,4.71916167E-07,-140.37915,2.82512712,195.696213,-8.97886821E-06,-0.198783532,-0.980043471,1.74532926,1,goal_runtime,0x006742EC,0x006742EC,0x0067459C,0x07DD855C,0x00673FF8,0x2B657F30,0x2B657F30,0x07DD8C7C,0x00673FF8,0x07DDA95C,0x00673FF8,0x2B657F30,0x2B657F30,2.96999764,0,5,1,0x07DD842C,0x00673FF8,0x07DD855C,0x00673FF8,0x07DD86E0,0x00673FF8,0x07DD87D8,0x00673FF8,0x07DD88D0,0x00673FF8,,,1,0x2B659BDC,0,0.600000024,0,0,0,-0.0175356343,-0.000395610725,2.61611131E-05,0,0.00211892347,1,0x2B659BDC,0,0.600000024,0,0,0,0.0175438691,-0.000316719146,2.77510117E-05,0,0.00189684762,1,0x2B659BDC,0,0.600000024,0,0,0,0.0174503531,0.000428474974,-0.000242703551,4.95910645E-05,0.00277214264,1,0x2B659BDC,0,0.600000024,0,0,0,-0.017448727,-0.0026082953,-0.000242364098,6.28314066,0.00564825814,1,0,0,0.0100000007,100,-0.00895942189,-0.000404950115,-0.119445115,2000,-0.00181440765,-0.000156790295,1,1,0,4844.81396,0,24.2240696,-0.0020807914,0.979415119,9.79415131,2.61611131E-05,-0.000186779303,-0.00181440765,-0.000156790295,2000,-0.00162090152,-0.000156789887,1,1,1.40129846E-45,4844.81396,0,24.2240696,-0.00186945905,0.979415119,9.79415131,2.77510117E-05,-0.000167037331,-0.00162090152,-0.000156789887,2000,0.00141358573,-0.000491247571,1,1,2.80259693E-45,3128.57666,0.0021889233,15.6428833,0.00273764483,0.936205506,9.36205482,-0.000242703551,0.000154629815,0.00141358573,-0.000491247571,2000,-0.00484890863,-0.000491248036,1,1,4.20389539E-45,3128.57666,-0.0021889233,15.6428833,0.00500731217,0.936205506,9.36205482,-0.000242364098,-0.000461979071,-0.00484890863,-0.000491248036
2026-04-28T12:50:06.4331093Z,15,-0.70999990000000002,Race,true,false,68,Garage Test Track,16,Bullet,0,0,0,-140.37915,1.32109475,190.697372,1.16512638E-05,-0.0181897804,-0.999834776,-1.00000024,8.28977227E-06,-1.18040061E-05,8.50311244E-06,0.999834538,-0.0181897804,0.000298224069,6.18443778E-07,-0.00203093165,3.01841956E-05,-0.00035470954,0.000228541976,0,1,0,0,0,20,0.0200000014,0.00205271086,0.00205271062,3.14158106,179.999329,0.0181907788,1.04225481,8.29114379E-06,0.000475047535,-0.00035470954,-0.00909526553,4.19839444E-06,0.999958694,5.86405986E-06,-140.37915,2.82512808,195.695999,-8.97886821E-06,-0.198783427,-0.980043471,1.74532926,1,goal_runtime,0x006742EC,0x006742EC,0x0067459C,0x07DD855C,0x00673FF8,0x2B657F30,0x2B657F30,0x07DD8C7C,0x00673FF8,0x07DDA95C,0x00673FF8,0x2B657F30,0x2B657F30,3.06999755,0,5,1,0x07DD842C,0x00673FF8,0x07DD855C,0x00673FF8,0x07DD86E0,0x00673FF8,0x07DD87D8,0x00673FF8,0x07DD88D0,0x00673FF8,,,1,0x2B659BDC,0,0.600000024,0,0,0,-0.0175314192,-0.0246703606,-7.59952527E-05,0,0.0246887449,1,0x2B659BDC,0,0.600000024,0,0,0,0.017547965,-0.00196868856,-7.45423458E-05,0,0.00473064464,1,0x2B659BDC,0,0.600000024,0,0,0,0.0174513478,-0.00319497287,0.000634234224,6.28308392,0.00742157688,1,0x2B659BDC,0,0.600000024,0,0,0,-0.0174477287,-0.00220521772,0.000634803495,0.000106833475,0.00673516281,1,0,0,0.0100000007,100,0.0341614336,-0.000226853066,-0.0262781791,2000,-0.00148420187,-0.000701612968,1,1,0,4844.65723,0,24.2232857,0.000438208925,0.979415119,9.79415131,-7.59952527E-05,-0.00218149927,-0.00148420187,-0.000701612968,2000,-0.00236524525,-0.000701613841,1,1,1.40129846E-45,4844.65723,0,24.2232857,0.00429943902,0.979415119,9.79415131,-7.45423458E-05,-0.000416324823,-0.00236524525,-0.000701613841,2000,-0.00251760171,0.000819649664,1,1,2.80259693E-45,3128.81006,-0.000110244648,15.6440496,-0.00669513457,0.936205506,9.36205482,0.000634234282,-0.00043068215,-0.00251760171,0.000819649664,2000,-0.00133178791,0.000819650537,1,1,4.20389539E-45,3128.81006,0.000110244619,15.6440496,-0.00636095973,0.936205506,9.36205482,0.000634803553,-0.000327554473,-0.00133178791,0.000819650537
2026-04-28T12:50:06.5339886Z,16,-0.60999999999999999,Race,true,false,68,Garage Test Track,16,Bullet,0,0,0,-140.37915,1.32109416,190.697144,8.06184062E-07,-0.0181805007,-0.999834776,-1,9.15328746E-06,-9.72756197E-07,9.1694601E-06,0.999834716,-0.0181805007,0.000165931473,8.02101476E-06,-0.00230159028,5.19769274E-05,-0.000137812167,0.000145792219,0,1,0,0,0,20,0.0200000014,0.00230757776,0.00230756379,3.14159179,179.999939,0.018181501,1.04172325,9.15480086E-06,0.00052453141,-0.000137812167,-0.00909062568,4.58087607E-06,0.999958694,4.44753425E-07,-140.37915,2.82512712,195.69577,-8.97889367E-06,-0.198783949,-0.980043292,1.74532926,1,goal_runtime,0x006742EC,0x006742EC,0x0067459C,0x07DD855C,0x00673FF8,0x2B657F30,0x2B657F30,0x07DD8C7C,0x00673FF8,0x07DDA95C,0x00673FF8,0x2B657F30,0x2B657F30,3.16999745,0,5,1,0x07DD842C,0x00673FF8,0x07DD855C,0x00673FF8,0x07DD86E0,0x00673FF8,0x07DD87D8,0x00673FF8,0x07DD88D0,0x00673FF8,,,1,0x2B659BDC,0,0.600000024,0,0,0,-0.0175305586,-0.0184869245,0.000303617097,0,0.0185790751,1,0x2B659BDC,0,0.600000024,0,0,0,0.0175488293,-0.0173393134,0.00030480104,0,0.0174368564,1,0x2B659BDC,0,0.600000024,0,0,0,0.0174516179,-0.0179018006,7.4489406E-05,6.28308201,0.0179228354,1,0x2B659BDC,0,0.600000024,0,0,0,-0.017447466,-0.0165812634,7.51788248E-05,0.000108905464,0.0166025907,1,0,0,0.0100000007,100,0.0191943888,0.000676547817,0.110319771,2000,-0.00363000296,-0.000125614955,1,1,0,4843.6416,0,24.2182083,-0.00175106653,0.979415119,9.79415131,0.000303617097,-0.00163454737,-0.00363000296,-0.000125614955,2000,-0.00384103507,-0.000125615043,1,1,1.40129846E-45,4843.6416,0,24.2182083,-0.00175781816,0.979415119,9.79415131,0.00030480104,-0.00153315091,-0.00384103507,-0.000125615043,2000,-0.00436791871,0.000238810826,1,1,2.80259693E-45,3130.48804,-0.000380136975,15.6524401,-0.000657988305,0.936205506,9.36205482,7.4489406E-05,-0.00158284616,-0.00436791871,0.000238810826,2000,-0.00310310628,0.000238810928,1,1,4.20389539E-45,3130.48804,0.000380136917,15.6524401,-0.000664151856,0.936205506,9.36205482,7.51788248E-05,-0.00146605587,-0.00310310628,0.000238810928
2026-04-28T12:50:06.6335127Z,17,-0.50999989999999995,Race,true,false,68,Garage Test Track,16,Bullet,0,0,0,-140.37915,1.32109487,190.69693,4.61170293E-06,-0.0181808881,-0.999834776,-1.00000012,9.01437852E-06,-4.7763815E-06,9.09972732E-06,0.999834716,-0.0181808881,-0.000307467068,1.69188115E-05,0.000336005614,-0.000353840122,-8.95560879E-05,-0.000220445043,0,1,0,0,0,20,0.0200000014,0.000455765316,0.000455451169,3.14158797,179.999725,0.0181818884,1.04174542,9.01586827E-06,0.000516571163,-8.95560879E-05,-0.0090908194,4.52871336E-06,0.999958694,2.34711797E-06,-140.37915,2.8251276,195.695557,-8.97889458E-06,-0.198783889,-0.980043352,1.74532926,1,goal_runtime,0x006742EC,0x006742EC,0x0067459C,0x07DD855C,0x00673FF8,0x2B657F30,0x2B657F30,0x07DD8C7C,0x00673FF8,0x07DDA95C,0x00673FF8,0x2B657F30,0x2B657F30,3.26999736,0,5,1,0x07DD842C,0x00673FF8,0x07DD855C,0x00673FF8,0x07DD86E0,0x00673FF8,0x07DD87D8,0x00673FF8,0x07DD88D0,0x00673FF8,,,1,0x2B659BDC,0,0.600000024,0,0,0,-0.0175306965,-0.020723246,-0.000135220936,0,0.0207489617,1,0x2B659BDC,0,0.600000024,0,0,0,0.0175486915,-0.0208406299,-0.000134001282,0,0.0208661053,1,0x2B659BDC,0,0.600000024,0,0,0,0.01745148,-0.0206400007,0.000111276866,6.28307915,0.020674387,1,0x2B659BDC,0,0.600000024,0,0,0,-0.0174474847,-0.019093886,0.000111912639,0.000111765337,0.0191292521,1,0,0,0.0100000007,100,-0.00371287204,-3.98152188E-05,0.146206632,2000,-0.000888598559,0.00026559172,1,1,0,4844.66602,0,24.2233295,0.000779599417,0.979415119,9.79415131,-0.000135220936,-0.00183237833,-0.000888598559,0.00026559172,2000,-0.00126360578,0.000265589042,1,1,1.40129846E-45,4844.66602,0,24.2233295,0.000772549189,0.979415119,9.79415131,-0.000134001282,-0.00184274628,-0.00126360578,0.000265589042,2000,-0.00172863598,0.000913720811,1,1,2.80259693E-45,3128.70459,-0.000335584424,15.6435223,-0.000983437523,0.936205506,9.36205482,0.000111276866,-0.0018250139,-0.00172863598,0.000913720811,2000,-0.000423542428,0.000913720287,1,1,4.20389539E-45,3128.70459,0.000335584569,15.6435223,-0.00098902965,0.936205506,9.36205482,0.000111912639,-0.00168825488,-0.000423542428,0.000913720287
2026-04-28T12:50:06.7340163Z,18,-0.40999989999999997,Race,true,false,68,Garage Test Track,16,Bullet,0,0,0,-140.37915,1.32109642,190.696701,2.42792157E-06,-0.0181828812,-0.999834776,-1.00000012,8.69921132E-06,-2.58652608E-06,8.74480429E-06,0.999834657,-0.0181828812,-3.17352824E-05,2.43489262E-06,-0.00167723291,-8.46061812E-05,3.44798136E-05,1.8640947E-05,0,1,0,0,0,20,0.0200000014,0.00167753489,0.00167753315,3.14159012,179.999847,0.0181838814,1.04185963,8.70065014E-06,0.00049851049,3.44798136E-05,-0.00909181591,4.36118398E-06,0.999958694,1.25366364E-06,-140.37915,2.82512879,195.695328,-8.97886912E-06,-0.198783219,-0.98004353,1.74532926,1,goal_runtime,0x006742EC,0x006742EC,0x0067459C,0x07DD855C,0x00673FF8,0x2B657F30,0x2B657F30,0x07DD8C7C,0x00673FF8,0x07DDA95C,0x00673FF8,0x2B657F30,0x2B657F30,3.36999726,0,5,1,0x07DD842C,0x00673FF8,0x07DD855C,0x00673FF8,0x07DD86E0,0x00673FF8,0x07DD87D8,0x00673FF8,0x07DD88D0,0x00673FF8,,,1,0x2B659BDC,0,0.600000024,0,0,0,-0.0175310113,-3.52868165E-06,7.63099379E-05,0,0.000450267486,1,0x2B659BDC,0,0.600000024,0,0,0,0.0175483767,-4.97968131E-06,7.77840905E-05,0,0.000463597215,1,0x2B659BDC,0,0.600000024,0,0,0,0.0174514018,-1.79973867E-05,0.000211676219,6.28300762,0.00187163183,1,0x2B659BDC,0,0.600000024,0,0,0,-0.0174475592,-0.0210303683,0.000212150728,0.000182888471,0.0211251546,1,0,0,0.0100000007,100,0.0123223718,-0.00084413978,-0.110500254,2000,-0.000752911204,0.000485008757,1,1,0,4845.03809,0,24.2251892,-0.000450076739,0.979415119,9.79415131,7.63099379E-05,-7.8399371E-06,-0.000752911204,0.000485008757,2000,-0.000448170933,0.000485010387,1,1,1.40129846E-45,4845.03809,0,24.2251892,-0.000463296019,0.979415119,9.79415131,7.77840905E-05,-1.07477581E-05,-0.000448170933,0.000485010387,2000,-0.000448340288,-4.09020977E-05,1,1,2.80259693E-45,3128.01343,0,15.6400671,-0.00187073916,0.936205506,9.36205482,0.000211676219,-9.62002377E-06,-0.000448340288,-4.09020977E-05,2000,-0.000752764754,-4.09008171E-05,1,1,4.20389539E-45,3128.01343,0,15.6400671,-0.00187524874,0.936205506,9.36205482,0.000212150728,-0.00185950706,-0.000752764754,-4.09008171E-05
2026-04-28T12:50:06.8335118Z,19,-0.31,Race,true,false,68,Garage Test Track,16,Bullet,0,0,0,-140.37915,1.3210963,190.696472,-7.67363872E-06,-0.0181868933,-0.999834776,-1.00000012,3.04697414E-06,7.61948377E-06,2.90789558E-06,0.999834597,-0.0181868933,-0.000186324614,-1.69106024E-05,-0.00195927965,-3.48260401E-05,0.000680177414,-8.63101304E-05,0,1,0,0,0,20,0.0200000014,0.00196819194,0.00196811929,-3.14158487,-179.999542,0.0181878936,1.04208946,3.04747823E-06,0.00017460763,0.000680177414,-0.00909382198,1.48877893E-06,0.999958694,-3.82343842E-06,-140.37915,2.82512856,195.695099,-8.97886912E-06,-0.198783219,-0.98004353,1.74532926,1,goal_runtime,0x006742EC,0x006742EC,0x0067459C,0x07DD855C,0x00673FF8,0x2B657F30,0x2B657F30,0x07DD8C7C,0x00673FF8,0x07DDA95C,0x00673FF8,0x2B657F30,0x2B657F30,3.46999717,0,5,1,0x07DD842C,0x00673FF8,0x07DD855C,0x00673FF8,0x07DD86E0,0x00673FF8,0x07DD87D8,0x00673FF8,0x07DD88D0,0x00673FF8,,,1,0x2B659BDC,0,0.600000024,0,0,0,-0.0175366607,-0.000453671615,-4.71542589E-05,0,0.00227432628,1,0x2B659BDC,0,0.600000024,0,0,0,0.0175427236,-0.0229474287,-4.57863789E-05,0,0.0229618307,1,0x2B659BDC,0,0.600000024,0,0,0,0.0174501594,-0.00060753338,-0.000303023146,6.28308964,0.00337165967,1,0x2B659BDC,0,0.600000024,0,0,0,-0.0174488015,-0.000734335626,-0.000302525994,0.000101127109,0.00355102099,1,0,0,0.0100000007,100,-0.0212121066,-0.000432646426,-0.0507465526,2000,-0.00198217388,0.000376084732,1,1,0,4844.83691,0,24.224184,0.00222766818,0.979415119,9.79415131,-4.71542589E-05,-0.000199556918,-0.00198217388,0.000376084732,2000,-0.00103264116,0.000376085663,1,1,1.40129846E-45,4844.83691,0,24.224184,0.000264069648,0.979415119,9.79415131,-4.57863789E-05,-0.00202909205,-0.00103264116,0.000376085663,2000,-0.000843848102,-0.00126383151,1,1,2.80259693E-45,3128.44727,0.000136555886,15.6422358,0.00331502454,0.936205506,9.36205482,-0.000303023146,-0.000180264411,-0.000843848102,-0.00126383151,2000,-0.00217103469,-0.00126383244,1,1,4.20389539E-45,3128.44727,-0.000136555886,15.6422358,0.00347273331,0.936205506,9.36205482,-0.000302525994,-0.000206882833,-0.00217103469,-0.00126383244
2026-04-28T12:50:06.9335169Z,20,-0.20999989999999999,Race,true,false,68,Garage Test Track,16,Bullet,0,0,0,-140.379135,1.32109356,190.696259,7.85747579E-06,-0.0181823373,-0.999834776,-1.00000012,1.726204E-06,-7.89016667E-06,1.8693803E-06,0.999834716,-0.0181823373,-0.000319152401,-1.49349371E-05,-0.00365909655,0.000228070377,-4.6954312E-05,-0.000287820731,0,1,0,0,0,20,0.0200000014,0.00367301912,0.00367298862,3.14158487,179.999542,0.0181833375,1.04182839,1.72648936E-06,9.8920551E-05,-4.6954312E-05,-0.00909154397,8.98933195E-07,0.999958694,3.93707342E-06,-140.379135,2.82512569,195.694885,-8.97886912E-06,-0.198783174,-0.98004353,1.74532926,1,goal_runtime,0x006742EC,0x006742EC,0x0067459C,0x07DD855C,0x00673FF8,0x2B657F30,0x2B657F30,0x07DD8C7C,0x00673FF8,0x07DDA95C,0x00673FF8,0x2B657F30,0x2B657F30,3.56999707,0,5,1,0x07DD842C,0x00673FF8,0x07DD855C,0x00673FF8,0x07DD86E0,0x00673FF8,0x07DD87D8,0x00673FF8,0x07DD88D0,0x00673FF8,,,1,0x2B659BDC,0,0.600000024,0,0,0,-0.0175378639,-0.0128359888,-0.000582136679,0,0.0132737868,1,0x2B659BDC,0,0.600000024,0,0,0,0.0175414048,-0.0145015344,-0.000580807857,0,0.0148905134,1,0x2B659BDC,0,0.600000024,0,0,0,0.0174497943,-0.0133106168,6.33963646E-05,6.28307247,0.0133284964,1,0x2B659BDC,0,0.600000024,0,0,0,-0.0174492896,-0.0130415298,6.41543593E-05,0.000118409283,0.0130598107,1,0,0,0.0100000007,100,-0.0597402006,0.000859691063,0.0318452008,2000,-0.00438849907,-9.78757525E-05,1,1,0,4843.54004,0,24.2176991,0.00335689238,0.979415119,9.79415131,-0.000582136738,-0.0011350998,-0.00438849907,-9.78757525E-05,2000,-0.00482919393,-9.78764874E-05,1,1,1.40129846E-45,4843.54004,0,24.2176991,0.00335032726,0.979415119,9.79415131,-0.000580807915,-0.00128197088,-0.00482919393,-9.78764874E-05,2000,-0.00437816046,0.000663325016,1,1,2.80259693E-45,3130.87598,0.000325165485,15.6543798,-0.000560020446,0.936205506,9.36205482,6.33963646E-05,-0.00117685436,-0.00437816046,0.000663325016,2000,-0.00483950041,0.000663325714,1,1,4.20389539E-45,3130.87598,-0.000325165573,15.6543798,-0.000566710485,0.936205506,9.36205482,6.41543593E-05,-0.00115305453,-0.00483950041,0.000663325714
2026-04-28T12:50:07.0335763Z,21,-0.1099999,Race,true,false,68,Garage Test Track,16,Bullet,0,0,0,-140.379135,1.32109296,190.695999,6.46601757E-06,-0.0181801785,-0.999834776,-1,1.65055599E-06,-6.49709864E-06,1.76840172E-06,0.999834716,-0.0181801785,-2.40266509E-05,1.2116916E-05,-0.00111277809,-0.000167601043,0.000340538652,-3.83477127E-05,0,1,0,0,0,20,0.0200000014,0.00111310335,0.00111303746,3.1415863,179.999634,0.0181811787,1.04170477,1.65082884E-06,9.45855209E-05,0.000340538652,-0.00909046456,8.54774726E-07,0.999958694,3.24091297E-06,-140.379135,2.82512522,195.694626,-8.97889458E-06,-0.1987838,-0.980043352,1.74532926,1,goal_runtime,0x006742EC,0x006742EC,0x0067459C,0x07DD855C,0x00673FF8,0x2B657F30,0x2B657F30,0x07DD8C7C,0x00673FF8,0x07DDA95C,0x00673FF8,0x2B657F30,0x2B657F30,3.66999698,0,5,1,0x07DD842C,0x00673FF8,0x07DD855C,0x00673FF8,0x07DD86E0,0x00673FF8,0x07DD87D8,0x00673FF8,0x07DD88D0,0x00673FF8,,,1,0x2B659BDC,0,0.600000024,0,0,0,-0.0175379403,-0.0186544079,-0.00064733543,0,0.0190338735,1,0x2B659BDC,0,0.600000024,0,0,0,0.0175413284,-0.0206667203,-0.000645951543,0,0.0210110508,1,0x2B659BDC,0,0.600000024,0,0,0,0.0174498372,-0.0187733229,0.000261491718,6.28313208,0.0189245716,1,0x2B659BDC,0,0.600000024,0,0,0,-0.0174491275,-0.0188166369,0.000262285612,5.87559334E-05,0.0189684946,1,0,0,0.0100000007,100,-0.0130495289,0.000468545157,0.133340701,2000,-0.00267201569,-6.1788749E-05,1,1,0,4844.19043,0,24.2209511,0.00373238837,0.979415119,9.79415131,-0.000647335546,-0.0016495923,-0.00267201569,-6.1788749E-05,2000,-0.0025225759,-6.1788829E-05,1,1,1.40129846E-45,4844.19043,0,24.2209511,0.00372508657,0.979415119,9.79415131,-0.000645951659,-0.00182721543,-0.0025225759,-6.1788829E-05,2000,-0.00187870639,-0.000320017396,1,1,2.80259693E-45,3129.64893,0.000464497018,15.6482439,-0.00231040944,0.936205506,9.36205482,0.000261491718,-0.00165996235,-0.00187870639,-0.000320017396,2000,-0.00331589393,-0.000320017367,1,1,4.20389539E-45,3129.64893,-0.000464497018,15.6482439,-0.0023175471,0.936205506,9.36205482,0.000262285612,-0.00166370149,-0.00331589393,-0.000320017367
2026-04-28T12:50:07.1340381Z,22,-0.0099999000000000008,Race,true,false,68,Garage Test Track,16,Bullet,0,0,0,-140.379135,1.32109392,190.695801,3.910327E-06,-0.0181841925,-0.999834776,-1.00000012,9.40879545E-06,-4.08209326E-06,9.48146953E-06,0.999834657,-0.0181841925,0.000107484862,1.40066368E-05,-0.000106423518,-0.000300798158,-0.00039139521,7.96874883E-05,0,1,0,0,0,20,0.0200000014,0.000151905057,0.000151257933,3.14158869,179.999756,0.0181851927,1.04193473,9.41035159E-06,0.000539173372,-0.00039139521,-0.00909247156,4.72276133E-06,0.999958694,1.9981876E-06,-140.379135,2.82512593,195.694427,-8.97886912E-06,-0.198783174,-0.98004353,1.74532926,1,goal_runtime,0x006742EC,0x006742EC,0x0067459C,0x07DD855C,0x00673FF8,0x2B657F30,0x2B657F30,0x07DD8C7C,0x00673FF8,0x07DDA95C,0x00673FF8,0x2B657F30,0x2B657F30,3.76999688,0,5,1,0x07DD842C,0x00673FF8,0x07DD855C,0x00673FF8,0x07DD86E0,0x00673FF8,0x07DD87D8,0x00673FF8,0x07DD88D0,0x00673FF8,,,1,0x2B659BDC,0,0.600000024,0,0,0,-0.0175303016,-0.0205387138,0.00032582393,0,0.0206353813,1,0x2B659BDC,0,0.600000024,0,0,0,0.0175490864,-0.0204176418,0.000327098125,0,0.0205153618,1,0x2B659BDC,0,0.600000024,0,0,0,0.0174515154,-1.4793477E-05,0.000157082352,6.28312206,0.00139166007,1,0x2B659BDC,0,0.600000024,0,0,0,-0.0174474455,-0.0201258361,0.000157896982,6.84837796E-05,0.020184774,1,0,0,0.0100000007,100,0.021241406,-0.000292374229,0.0822183415,2000,-0.000680518162,-6.82559184E-05,1,1,0,4844.89941,0,24.2244968,-0.00187852059,0.979415119,9.79415131,0.00032582393,-0.00181600568,-0.000680518162,-6.82559184E-05,2000,-0.00109930045,-6.82562677E-05,1,1,1.40129846E-45,4844.89941,0,24.2244968,-0.00188578817,0.979415119,9.79415131,0.000327098125,-0.00180538371,-0.00109930045,-6.82562677E-05,2000,-0.000412310066,0.000655123731,1,1,2.80259693E-45,3128.3584,0.000495376822,15.6417913,-0.0013909305,0.936205506,9.36205482,0.000157082352,-1.0635069E-05,-0.000412310066,0.000655123731,2000,-0.00136748143,0.000655124197,1,1,4.20389539E-45,3128.3584,-0.000495376822,15.6417913,-0.00139557454,0.936205506,9.36205482,0.000157896982,-0.00177951844,-0.00136748143,0.000655124197
2026-04-28T12:50:07.2334735Z,23,0.089999999999999997,Race,true,false,68,Garage Test Track,16,Bullet,0,0,0,-140.379135,1.32109368,190.695663,8.6408096E-07,-0.0181897786,-0.999834776,-1.00000024,5.15062675E-06,-9.57928251E-07,5.16719865E-06,0.999834538,-0.0181897786,0.000427832769,-1.34944194E-05,-0.00320827402,0.000233723447,-0.000334884011,0.000321980071,0,0,0,0,0,20,0.0200000014,0.00323670288,0.0032366747,3.14159179,179.999939,0.0181907769,1.04225469,5.15147894E-06,0.000295157981,-0.000334884011,-0.0090952646,2.57956299E-06,0.999958694,4.55521104E-07,-140.379135,2.82512569,195.69429,-8.97886912E-06,-0.198783174,-0.98004353,1.74532926,1,goal_runtime,0x006742EC,0x006742EC,0x0067459C,0x07DD855C,0x00673FF8,0x2B657F30,0x2B657F30,0x07DD8C7C,0x00673FF8,0x07DDA95C,0x00673FF8,0x2B657F30,0x2B657F30,3.86999679,0,5,1,0x07DD842C,0x00673FF8,0x07DD855C,0x00673FF8,0x07DD86E0,0x00673FF8,0x07DD87D8,0x00673FF8,0x07DD88D0,0x00673FF8,,,1,0x2B659BDC,0,0.600000024,0,0,0,-0.0175345577,-4.96678404E-05,0.000441503129,0,0.00256357854,1,0x2B659BDC,0,0.600000024,0,0,0,0.0175449457,-1.12773942E-05,0.00044258486,0,0.00254609343,1,0x2B659BDC,0,0.600000024,0,0,0,0.0174505934,-9.61958995E-06,-1.33760477E-06,6.28309488,0.000330136623,1,0x2B659BDC,0,0.600000024,0,0,0,-0.0174483638,-3.00250031E-06,-2.59726221E-07,9.58359597E-05,0.000184406381,1,0,0,0.0100000007,100,0.0201936569,-0.000291223696,-0.162578046,2000,-0.00150220189,-0.000705478655,1,1,0,4844.79883,0,24.2239933,-0.00256199483,0.979415119,9.79415131,0.000441503158,-1.93827509E-05,-0.00150220189,-0.000705478655,2000,-0.00196537073,-0.00070547912,1,1,1.40129846E-45,4844.79883,0,24.2239933,-0.00254504685,0.979415119,9.79415131,0.000442584889,-4.43107137E-06,-0.00196537073,-0.00070547912,2000,-0.00195027248,9.38781668E-05,1,1,2.80259693E-45,3128.82812,1.07079859E-05,15.6441402,0.000329787348,0.936205506,9.36205482,-1.33760477E-06,-2.91566703E-05,-0.00195027248,9.38781668E-05,2000,-0.00151726918,9.38741941E-05,1,1,4.20389539E-45,3128.82812,-1.07079859E-05,15.6441402,0.000184229386,0.936205506,9.36205482,-2.59726221E-07,-1.62954566E-05,-0.00151726918,9.38741941E-05
2026-04-28T12:50:07.3339462Z,24,0.1899999,Race,true,false,68,Garage Test Track,16,Bullet,0,0,0,-140.37912,1.32109416,190.695374,-4.35164537E-07,-0.0181790777,-0.999834776,-1,4.819899E-06,3.47600661E-07,4.81278312E-06,0.999834776,-0.0181790777,-7.52813139E-05,6.7789606E-06,-0.00442304602,0.000339596911,0.000269530399,-3.9766499E-05,0,0,0,0,0,20,0.0200000014,0.00442369189,0.00442368677,-3.14159226,-179.999969,0.0181800779,1.04164171,4.82069572E-06,0.000276205508,0.000269530399,-0.00908991415,2.40827012E-06,0.999958694,-1.95699386E-07,-140.37912,2.82512617,195.694,-8.97889458E-06,-0.198783755,-0.980043352,1.74532926,1,goal_runtime,0x006742EC,0x006742EC,0x0067459C,0x07DD855C,0x00673FF8,0x2B657F30,0x2B657F30,0x07DD8C7C,0x00673FF8,0x07DDA95C,0x00673FF8,0x2B657F30,0x2B657F30,3.96999669,0,5,1,0x07DD842C,0x00673FF8,0x07DD855C,0x00673FF8,0x07DD86E0,0x00673FF8,0x07DD87D8,0x00673FF8,0x07DD88D0,0x00673FF8,,,1,0x2B659BDC,0,0.600000024,0,0,0,-0.0175347738,-0.0045742332,-6.07350012E-05,0,0.00720021268,1,0x2B659BDC,0,0.600000024,0,0,0,0.0175444987,-0.00519902539,-5.96525279E-05,0,0.00767558254,1,0x2B659BDC,0,0.600000024,0,0,0,0.017450504,-0.0048417924,2.13357562E-05,6.28313637,0.00740464358,1,0x2B659BDC,0,0.600000024,0,0,0,-0.0174484625,-0.00409107935,2.23404641E-05,5.42011112E-05,0.00680674985,1,0,0,0.0100000007,100,-0.00598582625,0.000422489538,-0.0896070749,2000,-0.00377815193,-0.000416327443,1,1,0,4843.58203,0,24.2179089,0.00555656664,0.979415119,9.79415131,-6.07350012E-05,-0.0006355613,-0.00377815193,-0.000416327443,2000,-0.00418557646,-0.000416330149,1,1,1.40129846E-45,4843.58203,0,24.2179089,0.00564220501,0.979415119,9.79415131,-5.96525279E-05,-0.000677634962,-0.00418557646,-0.000416330149,2000,-0.00422280235,0.000287047675,1,1,2.80259693E-45,3130.55762,-2.70145065E-05,15.6527882,-0.00559811294,0.936205506,9.36205482,2.13357562E-05,-0.000654165982,-0.00422280235,0.000287047675,2000,-0.00374089624,0.000287046656,1,1,4.20389539E-45,3130.55762,2.70145083E-05,15.6527882,-0.0054365457,0.936205506,9.36205482,2.23404641E-05,-0.000601285137,-0.00374089624,0.000287046656
2026-04-28T12:50:07.4340405Z,25,0.28999989999999998,Race,true,false,68,Garage Test Track,16,Bullet,0,0,0,-140.37912,1.32109582,190.695099,-4.5023221E-06,-0.018174218,-0.999834776,-0.99999994,7.96834593E-06,4.35822358E-06,7.8878229E-06,0.999834836,-0.018174218,5.13164741E-05,2.17208271E-05,-0.00248919078,-2.35788229E-05,0.000101266109,7.48760503E-05,0,0,0,0,0,20,0.0200000014,0.00248981453,0.00248971977,-3.14158821,-179.999741,0.0181752201,1.04136336,7.96966197E-06,0.000456627982,0.000101266109,-0.00908748433,3.96420592E-06,0.999958694,-2.21522782E-06,-140.37912,2.8251276,195.693726,-8.97889458E-06,-0.198783711,-0.980043352,1.74532926,1,goal_runtime,0x006742EC,0x006742EC,0x0067459C,0x07DD855C,0x00673FF8,0x2B657F30,0x2B657F30,0x07DD8C7C,0x00673FF8,0x07DDA95C,0x00673FF8,0x2B657F30,0x2B657F30,4.06999826,0,5,1,0x07DD842C,0x00673FF8,0x07DD855C,0x00673FF8,0x07DD86E0,0x00673FF8,0x07DD87D8,0x00673FF8,0x07DD88D0,0x00673FF8,,,1,0x2B659BDC,0,0.600000024,0,0,0,-0.0175316259,-0.0178966094,0.000485768192,0,0.0181236584,1,0x2B659BDC,0,0.600000024,0,0,0,0.0175476465,-0.016932508,0.000486970734,0,0.0171722472,1,0x2B659BDC,0,0.600000024,0,0,0,0.0174512696,-0.0159539543,-6.02604705E-05,6.2831316,0.0159704778,1,0x2B659BDC,0,0.600000024,0,0,0,-0.0174478181,-0.0173398256,-5.92813594E-05,5.91766366E-05,0.0173563343,1,0,0,0.0100000007,100,0.022553131,0.000462366414,0.102201201,2000,-0.00407767668,0.000512848201,1,1,0,4843.51123,0,24.217556,-0.00280184252,0.979415119,9.79415131,0.000485768222,-0.00158227421,-0.00407767668,0.000512848201,2000,-0.00357847637,0.000512849772,1,1,1.40129846E-45,4843.51123,0,24.217556,-0.00280836341,0.979415119,9.79415131,0.000486970763,-0.00149724318,-0.00357847637,0.000512849772,2000,-0.00357875251,-0.00034896555,1,1,2.80259693E-45,3130.37939,0,15.6518965,0.000532365579,0.936205506,9.36205482,-6.02604705E-05,-0.00141058583,-0.00357875251,-0.00034896555,2000,-0.00407743733,-0.000348967122,1,1,4.20389539E-45,3130.37939,0,15.6518965,0.000523712253,0.936205506,9.36205482,-5.92813594E-05,-0.00153315114,-0.00407743733,-0.000348967122
2026-04-28T12:50:07.5335795Z,26,0.38999990000000001,Race,true,false,68,Garage Test Track,16,Bullet,0,0,0,-140.37912,1.32109666,190.69487,-6.89470312E-07,-0.0181826111,-0.999834776,-1.00000012,8.94769801E-06,5.26864937E-07,8.93663855E-06,0.999834657,-0.0181826111,1.58326038E-05,6.66733376E-06,0.000407000334,-0.000436520233,-0.000241464659,-5.8332439E-06,0,0,0,0,0,20,0.0200000014,0.000407362735,0.000407308165,-3.14159203,-179.999954,0.0181836113,1.04184413,8.94917775E-06,0.000512750063,-0.000241464659,-0.00909168087,4.47126877E-06,0.999958694,-3.04096375E-07,-140.37912,2.82512832,195.693497,-8.97886912E-06,-0.198783085,-0.98004353,1.74532926,1,goal_runtime,0x006742EC,0x006742EC,0x0067459C,0x07DD855C,0x00673FF8,0x2B657F30,0x2B657F30,0x07DD8C7C,0x00673FF8,0x07DDA95C,0x00673FF8,0x2B657F30,0x2B657F30,4.17000055,0,5,1,0x07DD842C,0x00673FF8,0x07DD855C,0x00673FF8,0x07DD86E0,0x00673FF8,0x07DD87D8,0x00673FF8,0x07DD88D0,0x00673FF8,,,1,0x2B659BDC,0,0.600000024,0,0,0,-0.0175307635,-0.0214681961,0.00041690201,0,0.0216140896,1,0x2B659BDC,0,0.600000024,0,0,0,0.0175486244,-0.0203429312,0.000418102718,0,0.0204961188,1,0x2B659BDC,0,0.600000024,0,0,0,0.0174515303,-0.0202861726,-8.22325383E-05,6.2830739,0.0203098971,1,0x2B659BDC,0,0.600000024,0,0,0,-0.0174475498,-0.0197503045,-8.11742502E-05,0.00011677661,0.0197736546,1,0,0,0.0100000007,100,0.0132310167,-0.000354218093,0.148044199,2000,-0.000871618744,5.045949E-05,1,1,0,4844.89111,0,24.2244549,-0.00240364671,0.979415119,9.79415131,0.000416902039,-0.00189819303,-0.000871618744,5.045949E-05,2000,-0.00110330316,5.04605778E-05,1,1,1.40129846E-45,4844.89111,0,24.2244549,-0.00241039973,0.979415119,9.79415131,0.000418102747,-0.00179881253,-0.00110330316,5.04605778E-05,2000,-0.00124085869,0.00045075317,1,1,2.80259693E-45,3128.25391,-9.93141439E-05,15.6412687,0.000726817467,0.936205506,9.36205482,-8.22325383E-05,-0.00179371005,-0.00124085869,0.00045075317,2000,-0.000734138186,0.000450754364,1,1,4.20389539E-45,3128.25391,9.92479763E-05,15.6412687,0.000717467396,0.936205506,9.36205482,-8.11742502E-05,-0.00174632797,-0.000734138186,0.000450754364
