timestamp_utc,sample_index,race_time_seconds,game_state,is_racing,is_paused,level_id,level_name,car_id,car_name,player_steer,player_throttle,player_brake,position_x,position_y,position_z,forward_x,forward_y,forward_z,right_x,right_y,right_z,up_x,up_y,up_z,velocity_x,velocity_y,velocity_z,angular_velocity_x,angular_velocity_y,angular_velocity_z,vehicle_applied_throttle,vehicle_applied_brake,vehicle_applied_handbrake,vehicle_control_candidate_1dfc,vehicle_applied_steer,vehicle_frame_delta_ms,vehicle_frame_delta_seconds,speed_magnitude,planar_speed_magnitude,yaw_radians,yaw_degrees,pitch_radians,pitch_degrees,roll_radians,roll_degrees,yaw_rate,quat_x,quat_y,quat_z,quat_w,camera_position_x,camera_position_y,camera_position_z,camera_forward_x,camera_forward_y,camera_forward_z,camera_fov,camera_mode_index,camera_family,camera_tracker_vtable,camera_tracker_slot_a_vtable,camera_tracker_slot_b_vtable,camera_output_active_profile_ptr,camera_output_active_profile_vtable,camera_output_source_node_ptr,camera_output_target_node_ptr,camera_goal_view_active_profile_ptr,camera_goal_view_active_profile_vtable,camera_goal_view_active_clip_ptr,camera_goal_view_active_clip_vtable,camera_goal_view_source_node_ptr,camera_goal_view_target_node_ptr,camera_goal_view_runtime_seconds,camera_goal_view_dirty_flag,player_camera_list_count,player_camera_active_profile_index,player_camera_list_0_ptr,player_camera_list_0_vtable,player_camera_list_1_ptr,player_camera_list_1_vtable,player_camera_list_2_ptr,player_camera_list_2_vtable,player_camera_list_3_ptr,player_camera_list_3_vtable,player_camera_list_4_ptr,player_camera_list_4_vtable,player_camera_list_5_ptr,player_camera_list_5_vtable,wheel_0_contact_flag,wheel_0_contact_ptr,wheel_0_contact_surface_44_candidate,wheel_0_contact_surface_48_candidate,wheel_0_contact_surface_4c_candidate,wheel_0_contact_surface_50_candidate,wheel_0_contact_surface_54_candidate,wheel_0_suspension_length_candidate,wheel_0_tire_force_multiplier_candidate,wheel_0_load_or_spin_candidate,wheel_0_rotation_or_phase_candidate,wheel_0_vertical_load_candidate,wheel_1_contact_flag,wheel_1_contact_ptr,wheel_1_contact_surface_44_candidate,wheel_1_contact_surface_48_candidate,wheel_1_contact_surface_4c_candidate,wheel_1_contact_surface_50_candidate,wheel_1_contact_surface_54_candidate,wheel_1_suspension_length_candidate,wheel_1_tire_force_multiplier_candidate,wheel_1_load_or_spin_candidate,wheel_1_rotation_or_phase_candidate,wheel_1_vertical_load_candidate,wheel_2_contact_flag,wheel_2_contact_ptr,wheel_2_contact_surface_44_candidate,wheel_2_contact_surface_48_candidate,wheel_2_contact_surface_4c_candidate,wheel_2_contact_surface_50_candidate,wheel_2_contact_surface_54_candidate,wheel_2_suspension_length_candidate,wheel_2_tire_force_multiplier_candidate,wheel_2_load_or_spin_candidate,wheel_2_rotation_or_phase_candidate,wheel_2_vertical_load_candidate,wheel_3_contact_flag,wheel_3_contact_ptr,wheel_3_contact_surface_44_candidate,wheel_3_contact_surface_48_candidate,wheel_3_contact_surface_4c_candidate,wheel_3_contact_surface_50_candidate,wheel_3_contact_surface_54_candidate,wheel_3_suspension_length_candidate,wheel_3_tire_force_multiplier_candidate,wheel_3_load_or_spin_candidate,wheel_3_rotation_or_phase_candidate,wheel_3_vertical_load_candidate,vehicle_candidate_1de8,vehicle_candidate_1dec,vehicle_candidate_1df0,vehicle_candidate_1e08,vehicle_candidate_1e18,vehicle_candidate_1e1c,vehicle_candidate_1e20,vehicle_candidate_1e24,wheel_0_candidate_0320,wheel_0_candidate_0324,wheel_0_candidate_0328,wheel_0_candidate_0338,wheel_0_candidate_0344,wheel_0_candidate_036c,wheel_0_candidate_0370,wheel_0_candidate_0374,wheel_0_candidate_037c,wheel_0_candidate_0380,wheel_0_candidate_0384,wheel_0_candidate_038c,wheel_0_candidate_0390,wheel_0_candidate_0394,wheel_0_candidate_0398,wheel_0_candidate_039c,wheel_1_candidate_0320,wheel_1_candidate_0324,wheel_1_candidate_0328,wheel_1_candidate_0338,wheel_1_candidate_0344,wheel_1_candidate_036c,wheel_1_candidate_0370,wheel_1_candidate_0374,wheel_1_candidate_037c,wheel_1_candidate_0380,wheel_1_candidate_0384,wheel_1_candidate_038c,wheel_1_candidate_0390,wheel_1_candidate_0394,wheel_1_candidate_0398,wheel_1_candidate_039c,wheel_2_candidate_0320,wheel_2_candidate_0324,wheel_2_candidate_0328,wheel_2_candidate_0338,wheel_2_candidate_0344,wheel_2_candidate_036c,wheel_2_candidate_0370,wheel_2_candidate_0374,wheel_2_candidate_037c,wheel_2_candidate_0380,wheel_2_candidate_0384,wheel_2_candidate_038c,wheel_2_candidate_0390,wheel_2_candidate_0394,wheel_2_candidate_0398,wheel_2_candidate_039c,wheel_3_candidate_0320,wheel_3_candidate_0324,wheel_3_candidate_0328,wheel_3_candidate_0338,wheel_3_candidate_0344,wheel_3_candidate_036c,wheel_3_candidate_0370,wheel_3_candidate_0374,wheel_3_candidate_037c,wheel_3_candidate_0380,wheel_3_candidate_0384,wheel_3_candidate_038c,wheel_3_candidate_0390,wheel_3_candidate_0394,wheel_3_candidate_0398,wheel_3_candidate_039c,wheel_0_suspension_length_delta_per_sec,wheel_0_load_or_spin_delta_per_sec,wheel_0_vertical_load_delta_per_sec,wheel_1_suspension_length_delta_per_sec,wheel_1_load_or_spin_delta_per_sec,wheel_1_vertical_load_delta_per_sec,wheel_2_suspension_length_delta_per_sec,wheel_2_load_or_spin_delta_per_sec,wheel_2_vertical_load_delta_per_sec,wheel_3_suspension_length_delta_per_sec,wheel_3_load_or_spin_delta_per_sec,wheel_3_vertical_load_delta_per_sec
2026-04-28T17:22:42.6071607Z,1,-3,Race,true,false,68,Garage Test Track,16,Bullet,0,0,0,-140.379166,1.32116759,190.701157,-1.06966513E-06,-0.0181099046,-0.999836206,-1.00000024,3.02205035E-06,1.0151025E-06,3.00317151E-06,0.999836028,-0.0181099046,0.000200756665,-0.000713737565,-0.00170207582,-0.000697232608,0.000550888595,0.000205698991,0,1,0,0,0,20,0.0200000014,0.00185655232,0.0017138744,-3.14159155,-179.999924,0.0181108918,1.03767765,3.02254603E-06,0.000173179127,0.000550888595,-0.00905532297,1.5063672E-06,0.999959052,-5.21213224E-07,-140.379166,2.82515287,195.699799,-8.97893915E-06,-0.19877468,-0.980045199,1.74532926,1,goal_runtime,0x006742EC,0x006742EC,0x0067459C,0x07D5855C,0x00673FF8,0x2B70EA78,0x2B70EA78,0x07D58C7C,0x00673FF8,0x07D5A95C,0x00673FF8,0x2B70EA78,0x2B70EA78,1.59999883,0,5,1,0x07D5842C,0x00673FF8,0x07D5855C,0x00673FF8,0x07D586E0,0x00673FF8,0x07D587D8,0x00673FF8,0x07D588D0,0x00673FF8,,,1,0x2B710724,0,0.600000024,0,0,0,-0.0175361168,-3.70584212E-06,-0.00011406358,0,0.00065942842,1,0x2B710724,0,0.600000024,0,0,0,0.0175422467,-0.0214799549,-0.000113603572,0,0.0215016454,1,0x2B710724,0,0.600000024,0,0,0,0.0174501594,-0.000194255859,0.00019001482,0.00018738152,0.00200388837,1,0x2B710724,0,0.600000024,0,0,0,-0.017448971,-6.45672571E-06,0.000190378501,6.28300238,0.00168682856,1,0,0,0.0100000007,-0.0683669597,3.93810878E-05,-0.000678821525,-0.000334736542,2000,-0.000989149325,-4.63944998E-05,1,4842.9834,0,24.2149162,0.000659053971,0.979415119,9.79415131,-0.00011406358,-5.62288369E-06,-0.000989149325,-4.63944998E-05,0.000193757573,1,2000,-0.000718520838,-4.63954675E-05,1,4842.9834,0,24.2149162,0.000655284617,0.979415119,9.79415131,-0.000113603572,-0.00189929584,-0.000718520838,-4.63954675E-05,0.000140746051,1,2000,-0.000532644801,-0.000513967068,1,3129.40356,0.000134183079,15.6470175,-0.00199358677,0.936205506,9.36205482,0.00019001482,-9.69810644E-05,-0.000532644801,-0.000513967068,0.000134564238,1,2000,-0.00117504445,-0.000513968698,1,3129.40356,-0.000134183079,15.6470175,-0.00168603938,0.936205506,9.36205482,0.000190378501,-3.82949474E-06,-0.00117504445,-0.000513968698,0.000185185403,1,0,0,0,0,0,0,0,0,0,0,0,0
2026-04-28T17:22:42.6810689Z,2,-3,Race,true,false,68,Garage Test Track,16,Bullet,0,0,0,-140.379166,1.32111096,190.70105,7.86598093E-07,-0.018165268,-0.999835253,-1.00000024,4.42017517E-06,-8.67034828E-07,4.43519548E-06,0.999835014,-0.018165268,0.000408020045,-0.00067327352,-0.00338692777,-0.000402025413,-0.000307874521,0.000302614615,0,1,0,0,0,10,0.0100000007,0.00347721973,0.00341141596,3.14159179,179.999939,0.0181662627,1.04085016,4.42090459E-06,0.000253299164,-0.000307874521,-0.00908300839,2.21393384E-06,0.999958813,4.13425255E-07,-140.379166,2.82510757,195.699692,-8.97888276E-06,-0.198775858,-0.980045021,1.74532926,1,goal_runtime,0x006742EC,0x006742EC,0x0067459C,0x07D5855C,0x00673FF8,0x2B70EA78,0x2B70EA78,0x07D58C7C,0x00673FF8,0x07D5A95C,0x00673FF8,0x2B70EA78,0x2B70EA78,1.67999876,0,5,1,0x07D5842C,0x00673FF8,0x07D5855C,0x00673FF8,0x07D586E0,0x00673FF8,0x07D587D8,0x00673FF8,0x07D588D0,0x00673FF8,,,1,0x2B710724,0,0.600000024,0,0,0,-0.0175350569,-4.70175401E-05,0.000435567868,0,0.00252753869,1,0x2B710724,0,0.600000024,0,0,0,0.0175439846,-1.12122043E-05,0.000435875234,0,0.0025064284,1,0x2B710724,0,0.600000024,0,0,0,0.0174504668,-9.10819472E-06,5.14038402E-06,0.000144601116,0.000322747335,1,0x2B710724,0,0.600000024,0,0,0,-0.0174485072,-2.72605484E-06,5.73007128E-06,6.28304529,0.000179422103,1,0,0,0.0100000007,-0.148239687,0.000248651719,-0.000691511959,-0.0019045308,2000,-0.00147925422,-0.00062377,1,4846.56348,0,24.2328167,-0.00252603786,0.979415119,9.79415131,0.000435567898,-1.86099351E-05,-0.00147925422,-0.00062377,0.000289760821,1,2000,-0.00193628436,-0.00062377064,1,4846.56348,0,24.2328167,-0.00250535016,0.979415119,9.79415131,0.000435875263,-4.47525963E-06,-0.00193628436,-0.00062377064,0.00037928528,1,2000,-0.00192076119,0.000165070378,1,3128.62354,1.10174306E-05,15.643117,-0.000322407985,0.936205506,9.36205482,5.14038402E-06,-2.82392593E-05,-0.00192076119,0.000165070378,0.00036250538,1,2000,-0.00149474689,0.000165070887,1,3128.62354,-1.10174306E-05,15.643117,-0.000179226321,0.936205506,9.36205482,5.73007128E-06,-1.52083658E-05,-0.00149474689,0.000165070887,0.000277018145,1,0.000105984502,0.054963138,0.186811015,0.000173784778,0.0549478754,-1.89952171,3.07336413E-05,-0.0184874423,-0.168114096,4.63798606E-05,-0.0184648428,-0.150740638
2026-04-28T17:22:42.7803318Z,3,-3,Race,true,false,68,Garage Test Track,16,Bullet,0,0,0,-140.37915,1.32106054,190.700729,6.32631725E-08,-0.0182046946,-0.999834299,-1,4.86191129E-06,-1.51797948E-07,4.86386944E-06,0.999834299,-0.0182046946,-6.62823804E-05,-0.000357847777,-0.00457388302,-2.75503971E-05,0.000266748655,-4.85142373E-05,0,1,0,0,0,10,0.0100000007,0.00458833901,0.00457436312,3.1415925,179.999985,0.0182057004,1.04310977,4.86271711E-06,0.000278613152,0.000266748655,-0.00910272449,2.43154591E-06,0.999958575,5.37675078E-08,-140.37915,2.825073,195.699371,-8.97885002E-06,-0.198778525,-0.980044425,1.74532926,1,goal_runtime,0x006742EC,0x006742EC,0x0067459C,0x07D5855C,0x00673FF8,0x2B70EA78,0x2B70EA78,0x07D58C7C,0x00673FF8,0x07D5A95C,0x00673FF8,0x2B70EA78,0x2B70EA78,1.77999866,0,5,1,0x07D5842C,0x00673FF8,0x07D5855C,0x00673FF8,0x07D586E0,0x00673FF8,0x07D587D8,0x00673FF8,0x07D588D0,0x00673FF8,,,1,0x2B710724,0,0.600000024,0,0,0,-0.0175349601,-0.0046975743,-9.58513992E-05,0,0.007302735,1,0x2B710724,0,0.600000024,0,0,0,0.0175447706,-0.00535294553,-9.5531941E-05,0,0.00779422559,1,0x2B710724,0,0.600000024,0,0,0,0.0174505394,-0.00496404059,3.10895193E-05,0.000183801341,0.00749882031,1,0x2B710724,0,0.600000024,0,0,0,-0.0174484104,-0.0042098281,3.16159858E-05,6.28300619,0.0069062151,1,0,0,0.0100000007,-0.0508650169,0.000127698324,-0.000398554723,-0.00406523282,2000,-0.00382166123,-0.000426931219,1,4847.63867,0,24.2381935,0.0055873082,0.979415119,9.79415131,-9.58513992E-05,-0.000643532258,-0.00382166123,-0.000426931219,0.000748598657,1,2000,-0.00423861155,-0.000426929968,1,4847.63867,0,24.2381935,0.00566077791,0.979415119,9.79415131,-9.5531941E-05,-0.000687074906,-0.00423861155,-0.000426929968,0.000830272096,1,2000,-0.00427007023,0.000292897836,1,3129.49585,-2.2855691E-05,15.6474791,-0.0056163175,0.936205506,9.36205482,3.10895193E-05,-0.000662256498,-0.00427007023,0.000292897836,0.000793599756,1,2000,-0.00379017554,0.000292896613,1,3129.49585,2.2855691E-05,15.6474791,-0.00547111081,0.936205506,9.36205482,3.16159858E-05,-0.000609827344,-0.00379017554,0.000292896613,0.000715609523,1,9.68575387E-06,-0.0531419255,0.477519602,7.8603618E-05,-0.0531407148,0.528779685,7.26431563E-06,0.00259491336,0.7176072,9.68575387E-06,0.00258859131,0.672679245
2026-04-28T17:22:42.8810142Z,4,-3,Race,true,false,68,Garage Test Track,16,Bullet,0,0,0,-140.37915,1.32104492,190.700424,-4.58550267E-06,-0.0182184074,-0.999834299,-1.00000024,8.77231196E-06,4.42642022E-06,8.69021369E-06,0.999834061,-0.0182184074,6.06533758E-05,-2.06749314E-06,-0.00252179173,-6.4346852E-05,9.18675505E-05,8.23493319E-05,0,1,0,0,0,10,0.0100000007,0.00252252189,0.00252252095,-3.14158797,-179.999725,0.0182194114,1.04389536,8.77376806E-06,0.00050269987,9.18675505E-05,-0.00910958089,4.3658124E-06,0.999958575,-2.25307394E-06,-140.37915,2.82507086,195.699051,-8.97884456E-06,-0.198781297,-0.980043828,1.74532926,1,goal_runtime,0x006742EC,0x006742EC,0x0067459C,0x07D5855C,0x00673FF8,0x2B70EA78,0x2B70EA78,0x07D58C7C,0x00673FF8,0x07D5A95C,0x00673FF8,0x2B70EA78,0x2B70EA78,1.87999856,0,5,1,0x07D5842C,0x00673FF8,0x07D5855C,0x00673FF8,0x07D586E0,0x00673FF8,0x07D587D8,0x00673FF8,0x07D588D0,0x00673FF8,,,1,0x2B710724,0,0.600000024,0,0,0,-0.0175311659,-0.0180128999,0.000505608739,0,0.0182562284,1,0x2B710724,0,0.600000024,0,0,0,0.0175487958,-0.0170515999,0.000506060256,0,0.0173076838,1,0x2B710724,0,0.600000024,0,0,0,0.0174514651,-0.0161209181,-6.53389579E-05,0.000176300411,0.016138969,1,0x2B710724,0,0.600000024,0,0,0,-0.0174474772,-0.0173981376,-6.48299902E-05,6.28301477,0.0174161233,1,0,0,0.0100000007,0.13010931,-0.00014955792,-3.65363376E-05,-0.00382288499,2000,-0.00410094252,0.000500544673,1,4847.17432,0,24.2358704,-0.00291365478,0.979415119,9.79415131,0.000505608798,-0.00159255613,-0.00410094252,0.000500544673,0.000803305127,1,2000,-0.00361024798,0.000500546186,1,4847.17432,0,24.2358704,-0.00291579659,0.979415119,9.79415131,0.000506060314,-0.00150778913,-0.00361024798,0.000500546186,0.000707186351,1,2000,-0.00361051993,-0.000346587913,1,3129.42676,0,15.6471338,0.000577369297,0.936205506,9.36205482,-6.53389579E-05,-0.00142534659,-0.00361051993,-0.000346587913,0.000676037802,1,2000,-0.00410070689,-0.000346589542,1,3129.42676,0,15.6471338,0.000572865421,0.936205506,9.36205482,-6.48299902E-05,-0.00153830054,-0.00410070689,-0.000346589542,0.000767820922,1,0.000379420788,0.0601460077,1.09534931,0.000402517588,0.0601592138,0.951345742,9.25734566E-05,-0.00964284688,0.864014804,9.33185147E-05,-0.00964459684,1.0509907
2026-04-28T17:22:42.9809617Z,5,-3,Race,true,false,68,Garage Test Track,16,Bullet,0,0,0,-140.37915,1.32105708,190.700195,-6.70786562E-07,-0.0182177015,-0.999834299,-1.00000024,9.3566905E-06,5.0041217E-07,9.34602213E-06,0.999834061,-0.0182177015,1.03205393E-05,0.000206574434,0.000470663741,-0.000263978494,-0.000235490166,-2.57147758E-06,0,1,0,0,0,10,0.0100000007,0.000514104904,0.000470776868,-3.14159203,-179.999954,0.0182187054,1.04385483,9.35824301E-06,0.000536187785,-0.000235490166,-0.00910922792,4.67587188E-06,0.999958575,-2.92811819E-07,-140.37915,2.82509136,195.698822,-8.97884183E-06,-0.19878304,-0.98004353,1.74532926,1,goal_runtime,0x006742EC,0x006742EC,0x0067459C,0x07D5855C,0x00673FF8,0x2B70EA78,0x2B70EA78,0x07D58C7C,0x00673FF8,0x07D5A95C,0x00673FF8,0x2B70EA78,0x2B70EA78,1.97999847,0,5,1,0x07D5842C,0x00673FF8,0x07D5855C,0x00673FF8,0x07D586E0,0x00673FF8,0x07D587D8,0x00673FF8,0x07D588D0,0x00673FF8,,,1,0x2B710724,0,0.600000024,0,0,0,-0.017530581,-0.0215983894,0.000416212948,0,0.0217429884,1,0x2B710724,0,0.600000024,0,0,0,0.0175492615,-0.0204520393,0.000416666764,0,0.0206033923,1,0x2B710724,0,0.600000024,0,0,0,0.0174515732,-0.0204209611,-8.06101016E-05,0.000119605553,0.020444179,1,0x2B710724,0,0.600000024,0,0,0,-0.0174474884,-0.0198303349,-8.00179696E-05,6.28307152,0.0198533367,1,0,0,0.0100000007,0.148541406,-0.000170227679,0.000197983594,-0.00101475033,2000,-0.000876708131,6.36886325E-05,1,4846.66699,0,24.2333336,-0.00239862269,0.979415119,9.79415131,0.000416212977,-0.00190970511,-0.000876708131,6.36886325E-05,0.000171732259,1,2000,-0.00109859533,6.36876066E-05,1,4846.66699,0,24.2333336,-0.00240107835,0.979415119,9.79415131,0.000416666793,-0.00180845452,-0.00109859533,6.36876066E-05,0.000215196196,1,2000,-0.00128546369,0.000447072845,1,3127.70312,-0.00013488096,15.6385155,0.000712583016,0.936205506,9.36205482,-8.06101016E-05,-0.00180562935,-0.00128546369,0.000447072845,0.000205679258,1,2000,-0.000689823646,0.00044707398,1,3127.70312,0.00013488096,15.6385155,0.000707356376,0.936205506,9.36205482,-8.00179696E-05,-0.0017534066,-0.000689823646,0.00044707398,0.000164175741,1,5.8487054E-05,-0.0089395782,0.348675966,4.65661251E-05,-0.00893934816,0.32957083,1.0803341E-05,-0.00152711431,0.430520952,-1.11758698E-06,-0.00151879783,0.243721321
2026-04-28T17:22:43.0811994Z,6,-3,Race,true,false,68,Garage Test Track,16,Bullet,0,0,0,-140.37915,1.32108092,190.699936,3.25502333E-06,-0.0181996208,-0.999834776,-1.00000036,4.1350836E-06,-3.33083199E-06,4.19501839E-06,0.999834359,-0.0181996208,9.21638639E-05,0.000235386702,-0.00278462213,0.000279577303,-0.000216065004,1.04591954E-05,0,1,0,0,0,10,0.0100000007,0.00279607251,0.00278614694,3.1415894,179.999802,0.0182006191,1.04281855,4.13576845E-06,0.000236962063,-0.000216065004,-0.00910018664,2.08261145E-06,0.999958694,1.64653181E-06,-140.37915,2.82511854,195.698563,-8.97886639E-06,-0.198784292,-0.980043232,1.74532926,1,goal_runtime,0x006742EC,0x006742EC,0x0067459C,0x07D5855C,0x00673FF8,0x2B70EA78,0x2B70EA78,0x07D58C7C,0x00673FF8,0x07D5A95C,0x00673FF8,0x2B70EA78,0x2B70EA78,2.07999849,0,5,1,0x07D5842C,0x00673FF8,0x07D5855C,0x00673FF8,0x07D586E0,0x00673FF8,0x07D587D8,0x00673FF8,0x07D588D0,0x00673FF8,,,1,0x2B710724,0,0.600000024,0,0,0,-0.0175355691,-3.7645616E-06,-0.000126468265,0,0.000729723892,1,0x2B710724,0,0.600000024,0,0,0,0.0175439268,-1.333569E-06,-0.000125933453,0,0.000728826737,1,0x2B710724,0,0.600000024,0,0,0,0.017450409,-1.48455797E-06,-0.000170952742,0.000102626036,0.00151468941,1,0x2B710724,0,0.600000024,0,0,0,-0.0174486618,-8.58395833E-06,-0.000170398227,6.28308868,0.00150541135,1,0,0,0.0100000007,-0.153861016,0.000301922584,0.000241182497,-0.00124601182,2000,-0.00109387026,-0.000589466537,1,4844.90723,0,24.224535,0.00072938815,0.979415119,9.79415131,-0.000126468265,-5.16119098E-06,-0.00109387026,-0.000589466537,0.000214270636,1,2000,-0.00143263931,-0.000589465897,1,4844.90723,0,24.224535,0.000728442974,0.979415119,9.79415131,-0.000125933453,-1.8307087E-06,-0.00143263931,-0.000589465897,0.000280629756,1,2000,-0.00155414722,-4.8849397E-06,1,3128.21973,-8.77816856E-05,15.641098,0.00151403213,0.936205506,9.36205482,-0.000170952742,-9.8053215E-07,-0.00155414722,-4.8849397E-06,0.000268213887,1,2000,-0.000972339127,-4.88560045E-06,1,3128.21973,8.77816783E-05,15.641098,0.00150471018,0.936205506,9.36205482,-0.000170398227,-5.70463271E-06,-0.000972339127,-4.88560045E-06,0.000204848213,1,-0.000498816313,-0.0542681143,-2.10132623,-0.000533461513,-0.0542600192,-1.98745644,-0.000116415315,-0.0090342639,-1.89294875,-0.000117346637,-0.00903802551,-1.83479238
2026-04-28T17:22:43.1804543Z,7,-3,Race,true,false,68,Garage Test Track,16,Bullet,0,0,0,-140.37915,1.32110131,190.699631,-7.32879528E-07,-0.0181771554,-0.999834776,-1,5.90095942E-06,6.25720247E-07,5.8886103E-06,0.999834776,-0.0181771554,-0.000127818173,0.000158960451,-0.0044576237,0.000428437052,0.00049289997,-7.67231613E-05,0,1,0,0,0,10,0.0100000007,0.00446228823,0.00445945607,-3.14159203,-179.999954,0.0181781575,1.04153168,5.9019344E-06,0.000338155922,0.00049289997,-0.00908895303,2.94751408E-06,0.999958694,-3.39663984E-07,-140.37915,2.82513857,195.698257,-8.97889186E-06,-0.198784813,-0.980043054,1.74532926,1,goal_runtime,0x006742EC,0x006742EC,0x0067459C,0x07D5855C,0x00673FF8,0x2B70EA78,0x2B70EA78,0x07D58C7C,0x00673FF8,0x07D5A95C,0x00673FF8,0x2B70EA78,0x2B70EA78,2.1799984,0,5,1,0x07D5842C,0x00673FF8,0x07D5855C,0x00673FF8,0x07D586E0,0x00673FF8,0x07D587D8,0x00673FF8,0x07D588D0,0x00673FF8,,,1,0x2B710724,0,0.600000024,0,0,0,-0.0175336916,-0.00524771726,-0.000201332077,0,0.00775121665,1,0x2B710724,0,0.600000024,0,0,0,0.0175455809,-0.00583001738,-0.000200587849,0,0.00816552714,1,0x2B710724,0,0.600000024,0,0,0,0.0174507517,-0.00550148683,9.08068614E-05,7.5032789E-05,0.00791204162,1,0x2B710724,0,0.600000024,0,0,0,-0.0174483322,-0.00462526456,9.12923933E-05,6.28311634,0.00725857774,1,0,0,0.0100000007,-0.0417231545,5.25909627E-06,0.000165737525,-0.00404039212,2000,-0.00419072155,2.91746383E-05,1,4842.58203,0,24.2129097,0.00570010627,0.979415119,9.79415131,-0.000201332077,-0.000677309523,-0.00419072155,2.91746383E-05,0.000820891233,1,2000,-0.00413959567,2.91748966E-05,1,4842.58203,0,24.2129097,0.00571220228,0.979415119,9.79415131,-0.000200587849,-0.000714287336,-0.00413959567,2.91748966E-05,0.000810876547,1,2000,-0.00414300477,-5.91140524E-05,1,3130.45679,-2.43887871E-06,15.6522837,-0.00568164652,0.936205506,9.36205482,9.08068614E-05,-0.000695625087,-0.00414300477,-5.91140524E-05,0.000775107706,1,2000,-0.0041873157,-5.91138378E-05,1,3130.45679,2.43890008E-06,15.6522837,-0.00559018459,0.936205506,9.36205482,9.12923933E-05,-0.000637478137,-0.0041873157,-5.91138378E-05,0.000784670759,1,0.000187754616,-0.00748638064,0.702149212,0.000165402875,-0.00746543892,0.743669987,3.42726671E-05,0.0261759609,0.639735162,3.29688155E-05,0.0261690598,0.575316608
2026-04-28T17:22:43.2802502Z,8,-3,Race,true,false,68,Garage Test Track,16,Bullet,0,0,0,-140.37915,1.32111096,190.699356,-6.46344972E-07,-0.0181674715,-0.999835253,-1.00000024,1.12371708E-05,4.4226698E-07,1.1227281E-05,0.999834955,-0.0181674715,3.35067416E-05,4.61155978E-05,-0.00251724641,2.18503828E-05,0.000121509052,7.17965595E-05,0,1,0,0,0,10,0.0100000007,0.00251789181,0.00251746946,-3.14159203,-179.999954,0.0181684662,1.04097641,1.12390262E-05,0.000643948733,0.000121509052,-0.00908411015,5.61634442E-06,0.999958813,-2.72164186E-07,-140.37915,2.82514668,195.697983,-8.97889367E-06,-0.198784515,-0.980043232,1.74532926,1,goal_runtime,0x006742EC,0x006742EC,0x0067459C,0x07D5855C,0x00673FF8,0x2B70EA78,0x2B70EA78,0x07D58C7C,0x00673FF8,0x07D5A95C,0x00673FF8,0x2B70EA78,0x2B70EA78,2.2799983,0,5,1,0x07D5842C,0x00673FF8,0x07D5855C,0x00673FF8,0x07D586E0,0x00673FF8,0x07D587D8,0x00673FF8,0x07D588D0,0x00673FF8,,,1,0x2B710724,0,0.600000024,0,0,0,-0.0175283607,-0.0172436126,0.000385057792,0,0.0173946824,1,0x2B710724,0,0.600000024,0,0,0,0.0175508,-0.0170204733,0.000385822641,0,0.0171738565,1,0x2B710724,0,0.600000024,0,0,0,0.0174520388,-0.0163046271,0.000276948063,4.91827122E-05,0.0164951421,1,0x2B710724,0,0.600000024,0,0,0,-0.0174470544,-0.0164492447,0.000277476094,6.28314161,0.0166389607,1,0,0,0.0100000007,0.124402471,-0.000381268823,5.43812421E-05,-0.00376127125,2000,-0.00391018949,0.000570815639,1,4842.56104,0,24.2128048,-0.00222142506,0.979415119,9.79415131,0.000385057821,-0.00152456458,-0.00391018949,0.000570815639,0.000765939767,1,2000,-0.00374973682,0.000570814707,1,4842.56104,0,24.2128048,-0.00222563324,0.979415119,9.79415131,0.00038582267,-0.00150498329,-0.00374973682,0.000570814707,0.0007345099,1,2000,-0.00374340499,0.000294258614,1,3130.34619,4.63118249E-06,15.6517305,-0.00244657439,0.936205506,9.36205482,0.000276948063,-0.00144166115,-0.00374340499,0.000294258614,0.00070212147,1,2000,-0.00391653227,0.000294259837,1,3130.34619,-4.63124661E-06,15.6517305,-0.00245144684,0.936205506,9.36205482,0.000277476094,-0.00145432807,-0.00391653227,0.000294259837,0.000732133689,1,0.000533088984,0.0586389825,0.964346468,0.000521913113,0.0586410463,0.900832891,0.000128708765,0.0186141189,0.858309984,0.000127777443,0.0186183676,0.93803829
2026-04-28T17:22:43.3809416Z,9,-3,Race,true,false,68,Garage Test Track,16,Bullet,0,0,0,-140.37915,1.32110953,190.699127,-1.9381464E-06,-0.0181746744,-0.999834776,-0.99999994,6.12258464E-06,1.82717213E-06,6.0883649E-06,0.999834836,-0.0181746744,0.000182978954,-5.20318754E-05,0.000445933663,-0.00045598764,-0.000201837,0.000132100467,0,1,0,0,0,10,0.0100000007,0.000484814867,0.000482014671,-3.14159083,-179.999893,0.0181756765,1.04138947,6.12359599E-06,0.000350856193,-0.000201837,-0.0090877125,3.05286358E-06,0.999958694,-9.41368512E-07,-140.37915,2.82514381,195.697754,-8.97889367E-06,-0.198784202,-0.980043292,1.74532926,1,goal_runtime,0x006742EC,0x006742EC,0x0067459C,0x07D5855C,0x00673FF8,0x2B70EA78,0x2B70EA78,0x07D58C7C,0x00673FF8,0x07D5A95C,0x00673FF8,0x2B70EA78,0x2B70EA78,2.37999821,0,5,1,0x07D5842C,0x00673FF8,0x07D5855C,0x00673FF8,0x07D586E0,0x00673FF8,0x07D587D8,0x00673FF8,0x07D588D0,0x00673FF8,,,1,0x2B710724,0,0.600000024,0,0,0,-0.0175334699,-0.0214348994,0.000371494651,0,0.0215533487,1,0x2B710724,0,0.600000024,0,0,0,0.0175458025,-0.0205238126,0.00037248811,0,0.0206468962,1,0x2B710724,0,0.600000024,0,0,0,0.017450856,-0.0201424081,-0.000226193384,1.86739035E-05,0.0202520732,1,0x2B710724,0,0.600000024,0,0,0,-0.0174481124,-0.0199670605,-0.000225787488,6.28317165,0.0200771037,1,0,0,0.0100000007,0.147658154,0.000193003536,-4.02498226E-05,-0.00103064801,2000,-0.000931131886,-0.000269534445,1,4844.32715,0,24.2216358,-0.00214214181,0.979415119,9.79415131,0.00037149468,-0.00189525879,-0.000931131886,-0.000269534445,0.000182392949,1,2000,-0.000966313703,-0.000269534241,1,4844.32715,0,24.2216358,-0.00214774581,0.979415119,9.79415131,0.000372488139,-0.00181479519,-0.000966313703,-0.000269534241,0.000189284474,1,2000,-0.00118413719,-0.000209054735,1,3128.27686,-0.000157135466,15.6413841,0.00199925085,0.936205506,9.36205482,-0.000226193384,-0.0017809706,-0.00118413719,-0.000209054735,0.000180929943,1,2000,-0.000713305781,-0.000209055041,1,3128.27686,0.000157135466,15.6413841,0.00199561543,0.936205506,9.36205482,-0.000225787488,-0.00176552939,-0.000713305781,-0.000209055041,0.000174349378,1,-0.000510923506,-0.00135631405,0.415866613,-0.000499747635,-0.00133345299,0.347303957,-0.00011827796,-0.0503141396,0.375693083,-0.000105798237,-0.0503263511,0.343814284
2026-04-28T17:22:43.4814203Z,10,-3,Race,true,false,68,Garage Test Track,16,Bullet,0,0,0,-140.37915,1.32110155,190.698868,3.47038076E-06,-0.0181811433,-0.999834776,-1.00000012,4.35947823E-06,-3.55022803E-06,4.42330474E-06,0.999834716,-0.0181811433,0.000293139892,-9.64802384E-05,-0.00289108907,1.81774249E-05,-0.00016313266,0.000189426297,0,1,0,0,0,10,0.0100000007,0.00290751364,0.00290591246,3.14158916,179.999786,0.0181821436,1.04176009,4.360199E-06,0.000249820994,-0.00016313266,-0.00909094699,2.19578646E-06,0.999958694,1.75522473E-06,-140.37915,2.82513499,195.697495,-8.97889367E-06,-0.198784038,-0.980043292,1.74532926,1,goal_runtime,0x006742EC,0x006742EC,0x0067459C,0x07D5855C,0x00673FF8,0x2B70EA78,0x2B70EA78,0x07D58C7C,0x00673FF8,0x07D5A95C,0x00673FF8,0x2B70EA78,0x2B70EA78,2.47999811,0,5,1,0x07D5842C,0x00673FF8,0x07D5855C,0x00673FF8,0x07D586E0,0x00673FF8,0x07D587D8,0x00673FF8,0x07D588D0,0x00673FF8,,,1,0x2B710724,0,0.600000024,0,0,0,-0.017535232,-2.64313968E-07,2.63535185E-07,0,5.47253912E-05,1,0x2B710724,0,0.600000024,0,0,0,0.0175440367,-2.83838002E-08,1.30347325E-06,0,1.87636342E-05,1,0x2B710724,0,0.600000024,0,0,0,0.0174504016,-7.47342597E-08,3.25808323E-05,6.28316641,0.000287585106,1,0x2B710724,0,0.600000024,0,0,0,-0.0174486823,-1.74864238E-06,3.30428884E-05,2.43439536E-05,0.000300098356,1,0,0,0.0100000007,-0.153383106,0.000339701801,-9.27202709E-05,-0.00135725795,2000,-0.00112094369,-0.000647243462,1,4844.99072,0,24.2249527,-5.46727133E-05,0.979415119,9.79415131,2.63535185E-07,-4.83442091E-06,-0.00112094369,-0.000647243462,0.000219573863,1,2000,-0.00146402651,-0.000647245673,1,4844.99072,0,24.2249527,-1.86721245E-05,0.979415119,9.79415131,1.30347325E-06,-1.52011455E-06,-0.00146402651,-0.000647245673,0.000286777969,1,2000,-0.00167421962,-5.52760393E-05,1,3128.30591,-0.000151754197,15.6415291,-0.000287369883,0.936205506,9.36205482,3.25808323E-05,-2.60062961E-07,-0.00167421962,-5.52760393E-05,0.000274090387,1,2000,-0.000910726027,-5.52771817E-05,1,3128.30591,0.000151754211,15.6415291,-0.000299881765,0.936205506,9.36205482,3.30428884E-05,-5.831007E-06,-0.000910726027,-5.52771817E-05,0.000209917707,1,-0.000176206217,-0.0371231101,-2.14986229,-0.000176578746,-0.037118461,-2.06281304,-4.5448538E-05,0.025877418,-1.99644864,-5.69969379E-05,0.0258830357,-1.97770047
2026-04-28T17:22:43.5806322Z,11,-3,Race,true,false,68,Garage Test Track,16,Bullet,0,0,0,-140.37915,1.32109344,190.698563,1.16934098E-06,-0.0181821287,-0.999834776,-1.00000012,9.98473661E-06,-1.35110804E-06,1.00076522E-05,0.999834716,-0.0181821287,-0.000435400492,-7.08897496E-05,-0.00451784441,0.000236221327,0.00035655775,-0.000283246802,0,1,0,0,0,10,0.0100000007,0.00453933002,0.00453877635,3.14159155,179.999924,0.0181831289,1.04181647,9.98638734E-06,0.000572177814,0.00035655775,-0.00909143966,4.99830367E-06,0.999958694,6.30138288E-07,-140.37915,2.82512712,195.697189,-8.97886821E-06,-0.198783517,-0.980043471,1.74532926,1,goal_runtime,0x006742EC,0x006742EC,0x0067459C,0x07D5855C,0x00673FF8,0x2B70EA78,0x2B70EA78,0x07D58C7C,0x00673FF8,0x07D5A95C,0x00673FF8,0x2B70EA78,0x2B70EA78,2.57999802,0,5,1,0x07D5842C,0x00673FF8,0x07D5855C,0x00673FF8,0x07D586E0,0x00673FF8,0x07D587D8,0x00673FF8,0x07D588D0,0x00673FF8,,,1,0x2B710724,0,0.600000024,0,0,0,-0.017529726,-0.00500602135,-0.000126058687,0,0.00754539948,1,0x2B710724,0,0.600000024,0,0,0,0.0175496619,-0.00598168792,-0.000124922022,0,0.00824480597,1,0x2B710724,0,0.600000024,0,0,0,0.0174517352,-0.00541717233,0.000230480975,6.28317451,0.0079640951,1,0x2B710724,0,0.600000024,0,0,0,-0.0174473487,-0.00492712623,0.000230881065,1.61338121E-05,0.00760961138,1,0,0,0.0100000007,-0.041555889,-0.000383101462,-8.00167691E-05,-0.00410228549,2000,-0.0040126103,0.000281008717,1,4844.19434,0,24.2209721,0.00564139942,0.979415119,9.79415131,-0.000126058687,-0.000663729967,-0.0040126103,0.000281008717,0.000786002318,1,2000,-0.00431314623,0.000281006738,1,4844.19434,0,24.2209721,0.00566904526,0.979415119,9.79415131,-0.000124922022,-0.000725820486,-0.00431314623,0.000281006738,0.000844872207,1,2000,-0.00420984672,0.000800504815,1,3130.21558,7.43937562E-05,15.6510773,-0.005833223,0.936205506,9.36205482,0.000230480975,-0.000680492143,-0.00420984672,0.000800504815,0.0008075675,1,2000,-0.00411588699,0.000800506969,1,3130.21558,-7.43937708E-05,15.6510773,-0.00579487626,0.936205506,9.36205482,0.000230881065,-0.000647761568,-0.00411588699,0.000800506969,0.000751352112,1,0.000550597848,-0.012632221,0.749067366,0.000562518777,-0.0126225483,0.822604179,0.000133365378,0.0197900124,0.767650962,0.000133365378,0.0197838154,0.73095125
2026-04-28T17:22:43.6809179Z,12,-3,Race,true,false,68,Garage Test Track,16,Bullet,0,0,0,-140.37915,1.32108903,190.698288,-4.76907144E-06,-0.0181844253,-0.999834776,-1.00000012,8.3316736E-06,4.61832815E-06,8.24631388E-06,0.999834657,-0.0181844253,-0.000203873962,-1.9648498E-05,-0.00253115641,-4.03185695E-05,6.52622621E-05,-0.000152909415,0,1,0,0,0,10,0.0100000007,0.00253942958,0.00253935368,-3.14158797,-179.999725,0.0181854255,1.04194808,8.33305148E-06,0.000477448659,6.52622621E-05,-0.00909258798,4.14466786E-06,0.999958694,-2.34694676E-06,-140.37915,2.82512331,195.696915,-8.97886821E-06,-0.198783636,-0.980043471,1.74532926,1,goal_runtime,0x006742EC,0x006742EC,0x0067459C,0x07D5855C,0x00673FF8,0x2B70EA78,0x2B70EA78,0x07D58C7C,0x00673FF8,0x07D5A95C,0x00673FF8,0x2B70EA78,0x2B70EA78,2.67999792,0,5,1,0x07D5842C,0x00673FF8,0x07D5855C,0x00673FF8,0x07D586E0,0x00673FF8,0x07D587D8,0x00673FF8,0x07D588D0,0x00673FF8,,,1,0x2B710724,0,0.600000024,0,0,0,-0.0175313801,-0.0177574158,0.000300530868,0,0.0178506989,1,0x2B710724,0,0.600000024,0,0,0,0.0175480079,-0.0165886134,0.000301829132,0,0.0166877322,1,0x2B710724,0,0.600000024,0,0,0,0.0174513906,-0.0164831188,-0.00030533073,6.28312731,0.0167106129,1,0x2B710724,0,0.600000024,0,0,0,-0.0174476895,-0.0164726265,-0.00030492997,6.33845484E-05,0.0166995768,1,0,0,0.0100000007,0.125212491,-0.000194811102,-2.79538399E-05,-0.00378328143,2000,-0.00409821561,0.000603313209,1,4844.3252,0,24.2216263,-0.00173298968,0.979415119,9.79415131,0.000300530868,-0.00157003407,-0.00409821561,0.000603313209,0.000802770897,1,2000,-0.00355871068,0.000603310182,1,4844.3252,0,24.2216263,-0.00174040522,0.979415119,9.79415131,0.000301829132,-0.00146675669,-0.00355871068,0.000603310182,0.000697091047,1,2000,-0.00357315945,-0.00032802677,1,3130.01416,-1.02074036E-05,15.6500702,0.00269776513,0.936205506,9.36205482,-0.00030533073,-0.00145731948,-0.00357315945,-0.00032802677,0.000666392734,1,2000,-0.00408380432,-0.000328028633,1,3130.01416,1.02072745E-05,15.6500702,0.00269397045,0.936205506,9.36205482,-0.00030492997,-0.00145653018,-0.00408380432,-0.000328028633,0.000767305668,1,-0.000165402875,0.0426589549,1.03052986,-0.000165402875,0.0426751114,0.844292581,-3.44589316E-05,-0.053581167,0.87465173,-3.40864026E-05,-0.0535811037,0.908996463
2026-04-28T17:22:43.7810955Z,13,-3,Race,true,false,68,Garage Test Track,16,Bullet,0,0,0,-140.37915,1.32108855,190.698059,-1.09109544E-06,-0.0181913581,-0.999834776,-1.00000024,5.8319888E-06,9.85166594E-07,5.81310223E-06,0.999834538,-0.0181913581,0.000350082788,1.42663666E-05,0.000466030178,-0.000410634093,-5.97470489E-06,0.000262871239,0,1,0,0,0,10,0.0100000007,0.000583048561,0.000582873996,-3.14159155,-179.999924,0.0181923565,1.04234517,5.83295378E-06,0.000334203622,-5.97470489E-06,-0.00909605436,2.91139304E-06,0.999958694,-5.19086939E-07,-140.37915,2.82512307,195.696686,-8.97886821E-06,-0.198783681,-0.980043471,1.74532926,1,goal_runtime,0x006742EC,0x006742EC,0x0067459C,0x07D5855C,0x00673FF8,0x2B70EA78,0x2B70EA78,0x07D58C7C,0x00673FF8,0x07D5A95C,0x00673FF8,0x2B70EA78,0x2B70EA78,2.77999783,0,5,1,0x07D5842C,0x00673FF8,0x07D5855C,0x00673FF8,0x07D586E0,0x00673FF8,0x07D587D8,0x00673FF8,0x07D588D0,0x00673FF8,,,1,0x2B710724,0,0.600000024,0,0,0,-0.017533876,-0.0213240478,0.000278121413,0,0.0213958174,1,0x2B710724,0,0.600000024,0,0,0,0.0175456274,-0.0207764879,0.000279474771,0,0.020849999,1,0x2B710724,0,0.600000024,0,0,0,0.0174507983,-0.0199711956,-1.55621965E-05,6.28311491,0.0199821312,1,0x2B710724,0,0.600000024,0,0,0,-0.0174482781,-0.0202749074,-1.51888235E-05,7.56124864E-05,0.0202859975,1,0,0,0.0100000007,0.148561493,0.000306967093,1.55881553E-05,-0.00101958483,2000,-0.0010218235,-0.000291026168,1,4845.43848,0,24.2271919,-0.0016032533,0.979415119,9.79415131,0.000278121413,-0.00188548013,-0.0010218235,-0.000291026168,0.000200157883,1,2000,-0.000877479673,-0.000291026692,1,4845.43848,0,24.2271919,-0.00161103113,0.979415119,9.79415131,0.000279474771,-0.00183711399,-0.000877479673,-0.000291026692,0.000171883381,1,2000,-0.001104692,-0.000540704292,1,3128.07031,-0.000163836972,15.6403513,0.000137540861,0.936205506,9.36205482,-1.55621965E-05,-0.00176585745,-0.001104692,-0.000540704292,0.000164314974,1,2000,-0.00079462101,-0.000540705281,1,3128.07031,0.000163836972,15.6403513,0.000134329355,0.936205506,9.36205482,-1.51888235E-05,-0.00179271412,-0.00079462101,-0.000540705281,0.00019131451,1,-0.000249594421,-0.00224094535,0.354511827,-0.000238046036,-0.00223543588,0.416226655,-5.92321121E-05,0.0289768521,0.327151805,-5.88595831E-05,0.0289741121,0.358642042
2026-04-28T17:22:43.8809115Z,14,-3,Race,true,false,68,Garage Test Track,16,Bullet,0,0,0,-140.37915,1.32109082,190.6978,4.7702224E-06,-0.0181901064,-0.999834776,-1.00000024,4.37188964E-06,-4.85054989E-06,4.4593985E-06,0.999834538,-0.0181901064,0.00011701545,2.04493026E-05,-0.00286982395,0.000110436646,-0.000305633876,5.62268615E-05,0,1,0,0,0,10,0.0100000007,0.00287228124,0.0028722086,3.14158797,179.999725,0.0181911048,1.04227352,4.37261315E-06,0.000250532263,-0.000305633876,-0.00909542851,2.20791321E-06,0.999958694,2.40529243E-06,-140.37915,2.82512522,195.696426,-8.97886821E-06,-0.198783681,-0.980043471,1.74532926,1,goal_runtime,0x006742EC,0x006742EC,0x0067459C,0x07D5855C,0x00673FF8,0x2B70EA78,0x2B70EA78,0x07D58C7C,0x00673FF8,0x07D5A95C,0x00673FF8,0x2B70EA78,0x2B70EA78,2.87999773,0,5,1,0x07D5842C,0x00673FF8,0x07D5855C,0x00673FF8,0x07D586E0,0x00673FF8,0x07D587D8,0x00673FF8,0x07D588D0,0x00673FF8,,,1,0x2B710724,0,0.600000024,0,0,0,-0.0175353363,-1.66732423E-06,-4.68878716E-05,0,0.000278070016,1,0x2B710724,0,0.600000024,0,0,0,0.0175441671,-6.44659508E-08,-4.53307875E-05,0,0.000262237707,1,0x2B710724,0,0.600000024,0,0,0,0.0174504109,-1.09705105E-07,-2.3667686E-05,6.28309727,0.000209776787,1,0x2B710724,0,0.600000024,0,0,0,-0.0174485464,-1.17731224E-06,-2.3385961E-05,9.30985698E-05,0.000215483422,1,0,0,0.0100000007,-0.153390378,0.00018102063,2.22952403E-05,-0.00133592007,2000,-0.00099575019,-0.0006265837,1,4845.18213,0,24.2259102,0.000277947343,0.979415119,9.79415131,-4.68878716E-05,-5.99859777E-06,-0.00099575019,-0.0006265837,0.000195050568,1,2000,-0.00160383142,-0.000626582536,1,4845.18213,0,24.2259102,0.000262097514,0.979415119,9.79415131,-4.53307875E-05,-2.45961729E-07,-0.00160383142,-0.000626582536,0.000314163364,1,2000,-0.0016034951,0.000423194841,1,3128.28271,0,15.6414137,0.000209645397,0.936205506,9.36205482,-2.3667686E-05,-5.23288804E-07,-0.0016034951,0.000423194841,0.000300240208,1,2000,-0.000996043207,0.000423199206,1,3128.28271,0,15.6414137,0.000215364256,0.936205506,9.36205482,-2.3385961E-05,-5.46652791E-06,-0.000996043207,0.000423199206,0.000186500227,1,-0.000146031365,-0.0325009264,-2.11177444,-0.000146031365,-0.0324805528,-2.0587759,-3.87430155E-05,-0.000810548896,-1.97723532,-2.68220883E-05,-0.000819713692,-2.00705123
2026-04-28T17:22:43.9811070Z,15,-3,Race,true,false,68,Garage Test Track,16,Bullet,0,0,0,-140.37915,1.32109344,190.69754,2.3033499E-06,-0.0181863271,-0.999834776,-1.00000012,7.63681419E-06,-2.44263947E-06,7.67997335E-06,0.999834597,-0.0181863271,-0.000442537363,1.71712563E-05,-0.00387875224,0.000258873741,-0.000146099279,-0.000356043514,0,1,0,0,0,10,0.0100000007,0.00390395359,0.00390391587,3.14159036,179.999863,0.0181873273,1.04205704,7.63807748E-06,0.000437629584,-0.000146099279,-0.00909353886,3.82935514E-06,0.999958694,1.18654634E-06,-140.37915,2.82512736,195.696167,-8.97886821E-06,-0.198783562,-0.980043471,1.74532926,1,goal_runtime,0x006742EC,0x006742EC,0x0067459C,0x07D5855C,0x00673FF8,0x2B70EA78,0x2B70EA78,0x07D58C7C,0x00673FF8,0x07D5A95C,0x00673FF8,0x2B70EA78,0x2B70EA78,2.97999763,0,5,1,0x07D5842C,0x00673FF8,0x07D5855C,0x00673FF8,0x07D586E0,0x00673FF8,0x07D587D8,0x00673FF8,0x07D588D0,0x00673FF8,,,1,0x2B710724,0,0.600000024,0,0,0,-0.017532073,-0.00264450582,-0.000106822859,0,0.00548871513,1,0x2B710724,0,0.600000024,0,0,0,0.0175473113,-0.00276595377,-0.000105230123,0,0.00561222993,1,0x2B710724,0,0.600000024,0,0,0,0.0174512919,-1.113913E-05,-0.00016644728,7.91090715E-05,0.00147671846,1,0x2B710724,0,0.600000024,0,0,0,-0.0174477883,-0.0110693304,-0.000166132493,6.2831111,0.0112423552,1,0,0,0.0100000007,-0.0757286027,0.000113175403,1.5760801E-05,-0.00312146614,2000,-0.00301491632,-0.000339564111,1,4844.18457,0,24.2209225,0.00480701169,0.979415119,9.79415131,-0.000106822859,-0.000482009636,-0.00301491632,-0.000339564111,0.00059057097,1,2000,-0.00332917436,-0.000339563732,1,4844.18457,0,24.2209225,0.00488064112,0.979415119,9.79415131,-0.000105230123,-0.000493047293,-0.00332917436,-0.000339563732,0.000652128831,1,2000,-0.000755549408,0.000202947078,1,3129.55981,0.00185629108,15.6477985,0.00147608237,0.936205506,9.36205482,-0.00016644728,-7.54620032E-06,-0.000755549408,0.000202947078,0.000623325759,1,2000,-0.00558851939,0.000202946743,1,3129.55981,-0.00185629108,15.6477985,0.00193591288,0.936205506,9.36205482,-0.000166132493,-0.000985048944,-0.00558851939,0.000202946743,0.000564544694,1,0.000326335401,-0.00599349849,0.52106446,0.000314414472,-0.00598993292,0.534999192,8.81031083E-05,-0.0142779583,0.126694158,7.58096503E-05,-0.0142746521,1.10268712
2026-04-28T17:22:44.0811105Z,16,-3,Race,true,false,68,Garage Test Track,16,Bullet,0,0,0,-140.37915,1.32109475,190.697357,1.25913093E-05,-0.0181898288,-0.999834776,-1.00000024,5.27061047E-06,-1.26892801E-05,5.50055438E-06,0.999834538,-0.0181898288,0.000391402078,-5.71625492E-07,-0.00176149909,-4.76343666E-06,-8.84830661E-05,0.000301765016,0,1,0,0,0,10,0.0100000007,0.00180445972,0.00180445961,3.1415801,179.999268,0.0181908272,1.04225755,5.27148268E-06,0.000302033703,-8.84830661E-05,-0.00909528974,2.6929024E-06,0.999958694,6.32040837E-06,-140.37915,2.82512808,195.695984,-8.97886821E-06,-0.198783427,-0.980043471,1.74532926,1,goal_runtime,0x006742EC,0x006742EC,0x0067459C,0x07D5855C,0x00673FF8,0x2B70EA78,0x2B70EA78,0x07D58C7C,0x00673FF8,0x07D5A95C,0x00673FF8,0x2B70EA78,0x2B70EA78,3.07999754,0,5,1,0x07D5842C,0x00673FF8,0x07D5855C,0x00673FF8,0x07D586E0,0x00673FF8,0x07D587D8,0x00673FF8,0x07D588D0,0x00673FF8,,,1,0x2B710724,0,0.600000024,0,0,0,-0.0175344385,-0.0266016405,-0.000375651493,0,0.0267061666,1,0x2B710724,0,0.600000024,0,0,0,0.0175450649,-0.00490309997,-0.00037414828,0,0.00760900462,1,0x2B710724,0,0.600000024,0,0,0,0.0174505934,-0.00631439174,0.000724286481,6.28309488,0.00973505899,1,0x2B710724,0,0.600000024,0,0,0,-0.017448483,-0.00417074934,0.00072500261,9.58064047E-05,0.00849389564,1,0,0,0.0100000007,0.0269432534,0.000298224069,6.18443778E-07,-0.00203093165,2000,-0.0017486529,-0.000765274104,1,4844.60645,0,24.223032,0.00216572708,0.979415119,9.79415131,-0.000375651522,-0.00235239137,-0.0017486529,-0.000765274104,0.00034253145,1,2000,-0.00233224477,-0.000765272067,1,4844.60645,0,24.223032,0.00581443915,0.979415119,9.79415131,-0.000374148309,-0.000644653337,-0.00233224477,-0.000765272067,0.000456847221,1,2000,-0.00233192276,0.000242052964,1,3128.91431,0,15.6445713,-0.00740391994,0.936205506,9.36205482,0.000724286598,-0.00064890401,-0.00233192276,0.000242052964,0.000436631817,1,2000,-0.00174893509,0.000242050883,1,3128.91431,0,15.6445713,-0.00739526935,0.936205506,9.36205482,0.000725002727,-0.000491237093,-0.00174893509,0.000242050883,0.000327472575,1,-0.000236555919,-0.0268828627,2.12174487,-0.00022463499,-0.0268918145,0.199677452,-6.98491858E-05,0.0890733749,0.825834036,-6.94766568E-05,0.0891135037,-0.274845928
2026-04-28T17:22:44.1813453Z,17,-3,Race,true,false,68,Garage Test Track,16,Bullet,0,0,0,-140.37915,1.32109427,190.697144,1.88264335E-06,-0.0181822013,-0.999834776,-1.00000012,7.13445388E-06,-2.01269609E-06,7.1698696E-06,0.999834716,-0.0181822013,0.000252634636,9.13226722E-06,-0.000737031107,-0.000170036539,-0.000103940605,0.000201782124,0,1,0,0,0,10,0.0100000007,0.000779180671,0.00077912712,3.14159083,179.999893,0.0181832016,1.04182065,7.1356335E-06,0.000408841675,-0.000103940605,-0.00909147598,3.57622866E-06,0.999958694,9.73875103E-07,-140.37915,2.82512712,195.69577,-8.97886821E-06,-0.198783323,-0.980043471,1.74532926,1,goal_runtime,0x006742EC,0x006742EC,0x0067459C,0x07D5855C,0x00673FF8,0x2B70EA78,0x2B70EA78,0x07D58C7C,0x00673FF8,0x07D5A95C,0x00673FF8,0x2B70EA78,0x2B70EA78,3.17999744,0,5,1,0x07D5842C,0x00673FF8,0x07D5855C,0x00673FF8,0x07D586E0,0x00673FF8,0x07D587D8,0x00673FF8,0x07D588D0,0x00673FF8,,,1,0x2B710724,0,0.600000024,0,0,0,-0.0175325759,-0.0209239256,0.00016029409,0,0.0209555775,1,0x2B710724,0,0.600000024,0,0,0,0.0175468121,-0.0200282261,0.000161456366,0,0.0200603921,1,0x2B710724,0,0.600000024,0,0,0,0.0174511503,-0.020801248,8.41705405E-05,6.28308201,0.0208256282,1,0x2B710724,0,0.600000024,0,0,0,-0.0174479336,-0.0185818393,8.48658528E-05,0.000108905464,0.0186064243,1,0,0,0.0100000007,0.156455904,0.000165931473,8.02101476E-06,-0.00230159028,2000,-0.00220455369,-0.000365323009,1,4844.18164,0,24.2209072,-0.000924290973,0.979415119,9.79415131,0.00016029409,-0.00185011176,-0.00220455369,-0.000365323009,0.000431834662,1,2000,-0.00243133469,-0.000365322456,1,4844.18164,0,24.2209072,-0.000931020593,0.979415119,9.79415131,0.000161456366,-0.00177091442,-0.00243133469,-0.000365322456,0.000476257235,1,2000,-0.00274283788,2.60446359E-05,1,3129.53638,-0.000224784832,15.6476812,-0.000743738783,0.936205506,9.36205482,8.41705405E-05,-0.00183927186,-0.00274283788,2.60446359E-05,0.000455222384,1,2000,-0.00189303537,2.60439429E-05,1,3129.53638,0.000224784642,15.6476812,-0.000749876723,0.936205506,9.36205482,8.48658528E-05,-0.00164298026,-0.00189303537,2.60439429E-05,0.000412803609,1,0.0001862645,0.0535945557,-0.575058877,0.0001747161,0.0535604618,1.24513876,5.56930863E-05,-0.0640115887,1.10905683,5.49480283E-05,-0.0640136749,1.01125276
2026-04-28T17:22:44.2814450Z,18,-3,Race,true,false,68,Garage Test Track,16,Bullet,0,0,0,-140.37915,1.32109499,190.696915,3.05035337E-06,-0.0181817301,-0.999834776,-1.00000012,9.90831541E-06,-3.23103768E-06,9.96542258E-06,0.999834716,-0.0181817301,-0.000188517428,9.65858089E-06,-0.00145050639,-8.41307919E-05,0.00015445787,-8.93492761E-05,0,1,0,0,0,10,0.0100000007,0.00146273756,0.00146270555,3.14158964,179.999817,0.0181827303,1.0417937,9.90995341E-06,0.000567798503,0.00015445787,-0.00909124035,4.96863959E-06,0.999958694,1.57041268E-06,-140.37915,2.8251276,195.695541,-8.97886912E-06,-0.198783278,-0.98004353,1.74532926,1,goal_runtime,0x006742EC,0x006742EC,0x0067459C,0x07D5855C,0x00673FF8,0x2B70EA78,0x2B70EA78,0x07D58C7C,0x00673FF8,0x07D5A95C,0x00673FF8,0x2B70EA78,0x2B70EA78,3.27999735,0,5,1,0x07D5842C,0x00673FF8,0x07D5855C,0x00673FF8,0x07D586E0,0x00673FF8,0x07D587D8,0x00673FF8,0x07D588D0,0x00673FF8,,,1,0x2B710724,0,0.600000024,0,0,0,-0.0175298024,0.000291741831,-2.66810821E-05,0,0.00182053028,1,0x2B710724,0,0.600000024,0,0,0,0.0175495856,0.000299794599,-2.54668339E-05,0,0.00184519414,1,0x2B710724,0,0.600000024,0,0,0,0.0174516588,0.000537010201,0.000310223259,6.28307343,0.00330038345,1,0x2B710724,0,0.600000024,0,0,0,-0.0174474251,0.000468219165,0.000310847536,0.00011745275,0.00321119139,1,0,0,0.0100000007,-0.178651184,-0.000307467068,1.69188115E-05,0.000336005614,2000,0.000520796748,0.000277009851,1,4845.37207,0,24.22686,0.00179626688,0.979415119,9.79415131,-2.66810821E-05,0.000160314958,0.000520796748,0.000277009851,0.000102015249,1,2000,0.000373753574,0.000277008599,1,4845.37207,0,24.22686,0.00181983307,0.979415119,9.79415131,-2.54668339E-05,0.000162546567,0.000373753574,0.000277008599,7.32119879E-05,1,2000,0.000174361368,0.000531335128,1,3127.62354,-0.000143883924,15.6381178,-0.00325506786,0.936205506,9.36205482,0.000310223259,0.00016277637,0.000174361368,0.000531335128,6.99969969E-05,1,2000,0.000720199547,0.000531335303,1,3127.62354,0.000143883924,15.6381178,-0.0031755669,0.936205506,9.36205482,0.000310847536,0.000145867249,0.000720199547,0.000531335303,9.75015864E-05,1,0.000277347834,-0.0186975151,-1.91350448,0.000277347834,-0.0186923184,-1.82151973,5.08502089E-05,0.0226052701,-1.75252438,5.08502089E-05,0.022598166,-1.53952324
2026-04-28T17:22:44.3811925Z,19,-3,Race,true,false,68,Garage Test Track,16,Bullet,0,0,0,-140.37915,1.32109642,190.696671,1.08331335E-06,-0.0181817338,-0.999834776,-1.00000012,5.53058544E-06,-1.18406467E-06,5.55119914E-06,0.999834716,-0.0181817338,0.000369099842,-5.14058911E-07,-0.00308084954,0.000114666538,0.000140175165,0.000316704361,0,1,0,0,0,10,0.0100000007,0.00310288067,0.00310288067,3.14159155,179.999924,0.018182734,1.04179382,5.53149948E-06,0.000316931546,0.000140175165,-0.00909124222,2.77056051E-06,0.999958694,5.66867925E-07,-140.37915,2.82512879,195.695297,-8.97886912E-06,-0.198783219,-0.98004353,1.74532926,1,goal_runtime,0x006742EC,0x006742EC,0x0067459C,0x07D5855C,0x00673FF8,0x2B70EA78,0x2B70EA78,0x07D58C7C,0x00673FF8,0x07D5A95C,0x00673FF8,0x2B70EA78,0x2B70EA78,3.37999725,0,5,1,0x07D5842C,0x00673FF8,0x07D5855C,0x00673FF8,0x07D586E0,0x00673FF8,0x07D587D8,0x00673FF8,0x07D588D0,0x00673FF8,,,1,0x2B710724,0,0.600000024,0,0,0,-0.0175340604,-0.000350587768,0.000101439509,0,0.00203587697,1,0x2B710724,0,0.600000024,0,0,0,0.0175452083,-0.000340588507,0.000102914863,0,0.00200869609,1,0x2B710724,0,0.600000024,0,0,0,0.0174508579,-0.00241591269,0.000198959649,6.28292894,0.005379037,1,0x2B710724,0,0.600000024,0,0,0,-0.017448226,0.000387836277,0.000199429531,0.000261547975,0.00249404088,1,0,0,0.0100000007,-0.140361652,-3.17352824E-05,2.43489262E-06,-0.00167723291,2000,-0.00167898496,6.42930245E-05,1,4844.61377,0,24.2230682,-0.00200454937,0.979415119,9.79415131,0.000101439509,-0.000172280983,-0.00167898496,6.42930245E-05,0.000328884664,1,2000,-0.00162226311,6.4293461E-05,1,4844.61377,0,24.2230682,-0.00197869842,0.979415119,9.79415131,0.000102914863,-0.000169632956,-0.00162226311,6.4293461E-05,0.00031777384,1,2000,-0.00469669979,-3.36244084E-05,1,3128.75439,-0.0022176411,15.6437712,-0.00480341166,0.936205506,9.36205482,0.000198959649,-0.00044932618,-0.00469669979,-3.36244084E-05,0.000303760258,1,2000,0.00139544741,-3.36243284E-05,1,3128.75439,0.0022176411,15.6437712,-0.00246262457,0.936205506,9.36205482,0.000199429531,0.000155571513,0.00139544741,-3.36243284E-05,0.000314369943,1,-0.000425800652,0.0128120584,0.0215346683,-0.000437721581,0.012838169,0.0163501929,-8.00937341E-05,-0.0111263599,0.207865342,-8.00937341E-05,-0.0111417994,-0.0717150494
2026-04-28T17:22:44.4810101Z,20,-3,Race,true,false,68,Garage Test Track,16,Bullet,0,0,0,-140.37915,1.32109606,190.696457,-1.19230317E-05,-0.0181870721,-0.999834776,-1.00000012,5.06613924E-06,1.18328499E-05,4.85009605E-06,0.999834597,-0.0181870721,-0.000321177416,-1.90780629E-05,-0.00205149525,-1.78090959E-05,0.000421125937,-0.000201815317,0,1,0,0,0,10,0.0100000007,0.00207657204,0.0020764845,-3.14158082,-179.999313,0.0181880724,1.04209971,5.06697734E-06,0.000290316413,0.000421125937,-0.00909391139,2.47916114E-06,0.999958694,-5.9392155E-06,-140.37915,2.82512808,195.695084,-8.97886912E-06,-0.198783174,-0.98004353,1.74532926,1,goal_runtime,0x006742EC,0x006742EC,0x0067459C,0x07D5855C,0x00673FF8,0x2B70EA78,0x2B70EA78,0x07D58C7C,0x00673FF8,0x07D5A95C,0x00673FF8,0x2B70EA78,0x2B70EA78,3.47999716,0,5,1,0x07D5842C,0x00673FF8,0x07D5855C,0x00673FF8,0x07D586E0,0x00673FF8,0x07D587D8,0x00673FF8,0x07D588D0,0x00673FF8,,,1,0x2B710724,0,0.600000024,0,0,0,-0.0175346434,-0.00239951559,0.000333223812,0,0.00539302872,1,0x2B710724,0,0.600000024,0,0,0,0.0175447408,-0.0244816747,0.000334650802,0,0.024571972,1,0x2B710724,0,0.600000024,0,0,0,0.0174506288,-0.00206739106,-0.000662401202,6.28308964,0.00680235168,1,0x2B710724,0,0.600000024,0,0,0,-0.0174484514,-0.00346109224,-0.000661703758,0.000101127109,0.00773189031,1,0,0,0.0100000007,-0.00922155939,-0.000186324614,-1.69106024E-05,-0.00195927965,2000,-0.00250766147,0.000971278583,1,4844.6709,0,24.2233543,-0.00482733734,0.979415119,9.79415131,0.000333223812,-0.000445112062,-0.00250766147,0.000971278583,0.000491208339,1,2000,-0.001388915,0.000971276546,1,4844.6709,0,24.2233543,-0.00192934705,0.979415119,9.79415131,0.000334650802,-0.00216484838,-0.001388915,0.000971276546,0.000272064906,1,2000,-0.00132246898,-0.000960331468,1,3128.76514,4.83694093E-05,15.6438255,0.00647756597,0.936205506,9.36205482,-0.000662401319,-0.000304051238,-0.00132246898,-0.000960331468,0.000260176283,1,2000,-0.00257418188,-0.000960329606,1,3128.76514,-4.83694093E-05,15.6438255,0.0069102617,0.936205506,9.36205482,-0.000661703874,-0.000447830593,-0.00257418188,-0.000960329606,0.000469436985,1,-5.83007895E-05,0.0231784284,0.335715145,-4.67523896E-05,0.0231735911,2.25632739,-2.29105335E-05,-0.0861360803,0.142331451,-2.25380045E-05,-0.0861133188,0.523784935
2026-04-28T17:22:44.5803639Z,21,-3,Race,true,false,68,Garage Test Track,16,Bullet,0,0,0,-140.379135,1.32109344,190.696228,6.04174284E-06,-0.0181820728,-0.999834776,-1.00000012,4.00677709E-06,-6.11560563E-06,4.11730889E-06,0.999834716,-0.0181820728,-0.000295083679,-9.39980418E-06,-0.00232459907,2.64252685E-05,0.000177367343,-0.000227943034,0,1,0,0,0,10,0.0100000007,0.00234327209,0.00234325323,3.14158654,179.999634,0.018183073,1.04181325,4.00743966E-06,0.000229609373,0.000177367343,-0.00909141172,2.0311054E-06,0.999958694,3.03946263E-06,-140.379135,2.82512546,195.694855,-8.97886912E-06,-0.198783174,-0.98004353,1.74532926,1,goal_runtime,0x006742EC,0x006742EC,0x0067459C,0x07D5855C,0x00673FF8,0x2B70EA78,0x2B70EA78,0x07D58C7C,0x00673FF8,0x07D5A95C,0x00673FF8,0x2B70EA78,0x2B70EA78,3.57999706,0,5,1,0x07D5842C,0x00673FF8,0x07D5855C,0x00673FF8,0x07D586E0,0x00673FF8,0x07D587D8,0x00673FF8,0x07D588D0,0x00673FF8,,,1,0x2B710724,0,0.600000024,0,0,0,-0.017535584,-0.0169223305,-0.000441385055,0,0.0171210803,1,0x2B710724,0,0.600000024,0,0,0,0.0175436847,-0.018669717,-0.000440042815,0,0.018850999,1,0x2B710724,0,0.600000024,0,0,0,0.0174504071,-0.0167253558,0.000246947166,6.28308535,0.0168752298,1,0x2B710724,0,0.600000024,0,0,0,-0.0174485594,-0.0175174084,0.00024770858,0.00010568343,0.017662352,1,0,0,0.0100000007,0.133449733,-0.000319152401,-1.49349371E-05,-0.00365909655,2000,-0.00369233731,0.000357378885,1,4843.78125,0,24.2189064,0.00254534371,0.979415119,9.79415131,-0.000441385084,-0.00149632245,-0.00369233731,0.000357378885,0.000723266276,1,2000,-0.00376929692,0.000357378594,1,4843.78125,0,24.2189064,0.00253786612,0.979415119,9.79415131,-0.000440042844,-0.00165066822,-0.00376929692,0.000357378594,0.000738341361,1,2000,-0.00323018106,0.000490722014,1,3130.31836,0.000388847431,15.6515913,-0.00218157331,0.936205506,9.36205482,0.000246947166,-0.00147885038,-0.00323018106,0.000490722014,0.000705759623,1,2000,-0.00423144875,0.000490722246,1,3130.31836,-0.000388847402,15.6515913,-0.00218842644,0.936205506,9.36205482,0.00024770858,-0.00154880655,-0.00423144875,0.000490722246,0.00069136417,1,-9.40635728E-05,-0.0774608776,1.17280507,-0.000105611973,-0.0774693564,-0.572097242,-2.21654755E-05,0.0909348279,1.00728774,-1.0803341E-05,0.090941228,0.993046105
2026-04-28T17:22:44.6806026Z,22,-3,Race,true,false,68,Garage Test Track,16,Bullet,0,0,0,-140.379135,1.32109308,190.695999,2.42856072E-06,-0.0181837939,-0.999834776,-1.00000012,3.30382477E-06,-2.48904848E-06,3.34853871E-06,0.999834657,-0.0181837939,-0.000207947087,9.98758878E-06,0.000354350719,-0.000361370883,0.000400605495,-0.000165245787,0,1,0,0,0,10,0.0100000007,0.000410981971,0.000410860579,3.14159012,179.999847,0.0181847941,1.04191184,3.30437115E-06,0.000189326514,0.000400605495,-0.00909227226,1.66315954E-06,0.999958694,1.22945312E-06,-140.379135,2.82512522,195.694626,-8.97886912E-06,-0.198783174,-0.98004353,1.74532926,1,goal_runtime,0x006742EC,0x006742EC,0x0067459C,0x07D5855C,0x00673FF8,0x2B70EA78,0x2B70EA78,0x07D58C7C,0x00673FF8,0x07D5A95C,0x00673FF8,0x2B70EA78,0x2B70EA78,3.67999697,0,5,1,0x07D5842C,0x00673FF8,0x07D5855C,0x00673FF8,0x07D586E0,0x00673FF8,0x07D587D8,0x00673FF8,0x07D588D0,0x00673FF8,,,1,0x2B710724,0,0.600000024,0,0,0,-0.0175364073,-0.0201369803,-0.000484256219,0,0.0203403626,1,0x2B710724,0,0.600000024,0,0,0,0.0175429806,-0.0215280931,-0.000482996722,0,0.0217193253,1,0x2B710724,0,0.600000024,0,0,0,0.0174502973,-0.0189411677,5.4890028E-05,6.28314018,0.0189570505,1,0x2B710724,0,0.600000024,0,0,0,-0.0174487866,-0.0208894387,5.56512387E-05,5.0629209E-05,0.0209063403,1,0,0,0.0100000007,0.146712869,-2.40266509E-05,1.2116916E-05,-0.00111277809,2000,-0.00134008541,0.000415506074,1,4844.87793,0,24.22439,0.00279175909,0.979415119,9.79415131,-0.000484256248,-0.00178062578,-0.00134008541,0.000415506074,0.00026250002,1,2000,-0.000780017464,0.000415507646,1,4844.87793,0,24.22439,0.0027847446,0.979415119,9.79415131,-0.000482996751,-0.00190347189,-0.000780017464,0.000415507646,0.0001527922,1,2000,-0.000159373507,-0.000551574107,1,3128.56079,0.000447907776,15.6428032,-0.000485051918,0.936205506,9.36205482,5.4890028E-05,-0.00167476176,-0.000159373507,-0.000551574107,0.000146109145,1,2000,-0.00196077302,-0.000551570498,1,3128.56079,-0.000447907631,15.6428032,-0.000491814921,0.936205506,9.36205482,5.56512387E-05,-0.00184706145,-0.00196077302,-0.000551570498,0.000250869489,1,-8.23289083E-05,-0.00428711623,0.321928203,-7.04079794E-05,-0.00429539056,0.286832631,-1.09896055E-05,-0.0192057118,0.208182067,-2.2724269E-05,-0.0192057323,0.324398816
2026-04-28T17:22:44.7807987Z,23,-3,Race,true,false,68,Garage Test Track,16,Bullet,0,0,0,-140.379135,1.32109404,190.695786,2.94578808E-06,-0.0181859266,-0.999834776,-1.00000012,5.95738675E-06,-3.05463368E-06,6.01195279E-06,0.999834597,-0.0181859266,0.000421400619,7.88292436E-06,-0.000878242019,-0.000173313194,0.000102695885,0.000344967673,0,1,0,0,0,10,0.0100000007,0.000974140479,0.000974108581,3.14158964,179.999817,0.0181869268,1.04203415,5.95837218E-06,0.000341389561,0.000102695885,-0.00909333862,2.99245858E-06,0.999958694,1.5001674E-06,-140.379135,2.82512617,195.694412,-8.97886912E-06,-0.198783174,-0.98004353,1.74532926,1,goal_runtime,0x006742EC,0x006742EC,0x0067459C,0x07D5855C,0x00673FF8,0x2B70EA78,0x2B70EA78,0x07D58C7C,0x00673FF8,0x07D5A95C,0x00673FF8,0x2B70EA78,0x2B70EA78,3.77999687,0,5,1,0x07D5842C,0x00673FF8,0x07D5855C,0x00673FF8,0x07D586E0,0x00673FF8,0x07D587D8,0x00673FF8,0x07D588D0,0x00673FF8,,,1,0x2B710724,0,0.600000024,0,0,0,-0.0175337512,0.000307390146,0.000103031925,0,0.00191361213,1,0x2B710724,0,0.600000024,0,0,0,0.017545633,-0.0207870156,0.000104302671,0,0.0208067764,1,0x2B710724,0,0.600000024,0,0,0,0.0174508058,-0.000134527756,0.000360351114,6.28312731,0.00321609806,1,0x2B710724,0,0.600000024,0,0,0,-0.0174481552,0.000576891645,0.000361166865,6.33918971E-05,0.00366335222,1,0,0,0.0100000007,-0.0771818459,0.000107484862,1.40066368E-05,-0.000106423518,2000,0.000310029951,-0.000568618998,1,4845.38086,0,24.2269039,-0.0018879266,0.979415119,9.79415131,0.000103031925,0.000160702722,0.000310029951,-0.000568618998,6.0729606E-05,1,2000,-0.00033374445,-0.000568622199,1,4845.38086,0,24.2269039,-0.000601296022,0.979415119,9.79415131,0.000104302671,-0.00183801213,-0.00033374445,-0.000568622199,6.53748793E-05,1,2000,-0.000333386415,0.000542884984,1,3127.71338,0,15.638567,-0.00321197067,0.936205506,9.36205482,0.000360351143,-4.1846557E-05,-0.000333386415,0.000542884984,6.24236418E-05,1,2000,0.000309722644,0.00054288219,1,3127.71338,0,15.638567,-0.0036160911,0.936205506,9.36205482,0.000361166894,0.000157542367,0.000309722644,0.00054288219,5.79928128E-05,1,0.000265613169,0.0587288141,-1.84267485,0.00026524064,0.0587299354,-0.09125489,5.08502089E-05,0.0305461064,-1.57409525,6.31436633E-05,0.0305515602,-1.72429872
2026-04-28T17:22:44.8806200Z,24,-3,Race,true,false,68,Garage Test Track,16,Bullet,0,0,0,-140.37912,1.32109356,190.695618,3.63306208E-06,-0.0181859992,-0.999834776,-1.00000012,-9.29849705E-07,-3.61674984E-06,-8.63921684E-07,0.999834597,-0.0181859992,0.000862246903,-9.10687868E-06,-0.00433153892,0.000377830846,-0.000265749986,0.000607744383,0,1,0,0,0,10,0.0100000007,0.00441653514,0.00441652583,3.14158893,179.999771,0.0181869995,1.0420382,-9.30003523E-07,-5.32852755E-05,-0.000265749986,-0.00909337495,-4.48461378E-07,0.999958694,1.8125279E-06,-140.37912,2.82512569,195.694244,-8.97886912E-06,-0.198783174,-0.98004353,1.74532926,1,goal_runtime,0x006742EC,0x006742EC,0x0067459C,0x07D5855C,0x00673FF8,0x2B70EA78,0x2B70EA78,0x07D58C7C,0x00673FF8,0x07D5A95C,0x00673FF8,0x2B70EA78,0x2B70EA78,3.87999678,0,5,1,0x07D5842C,0x00673FF8,0x07D5855C,0x00673FF8,0x07D586E0,0x00673FF8,0x07D587D8,0x00673FF8,0x07D588D0,0x00673FF8,,,1,0x2B710724,0,0.600000024,0,0,0,-0.0175406374,-0.00112522475,8.77369312E-05,0,0.00358708343,1,0x2B710724,0,0.600000024,0,0,0,0.017538866,-0.00141961151,8.87595525E-05,0,0.00402510678,1,0x2B710724,0,0.600000024,0,0,0,0.0174492821,-0.00143397355,1.69360228E-05,6.28310013,0.0040303818,1,0x2B710724,0,0.600000024,0,0,0,-0.0174497981,-0.0010463174,1.80138413E-05,9.04456974E-05,0.00344346208,1,0,0,0.0100000007,-0.11232648,0.000427832769,-1.34944194E-05,-0.00320827402,2000,-0.0030062506,-0.00090219517,1,4844.06445,0,24.2203217,-0.00340451417,0.979415119,9.79415131,8.77369312E-05,-0.000313813798,-0.0030062506,-0.00090219517,0.000588873518,1,2000,-0.00355733884,-0.000902194239,1,4844.06445,0,24.2203217,-0.00376460841,0.979415119,9.79415131,8.87595525E-05,-0.000352840696,-0.00355733884,-0.000902194239,0.000696822361,1,2000,-0.00349056674,4.8823993E-05,1,3129.9375,4.79445989E-05,15.6496868,-0.00376490201,0.936205506,9.36205482,1.69360228E-05,-0.000355935772,-0.00349056674,4.8823993E-05,0.000666022999,1,2000,-0.00307298498,4.88229052E-05,1,3129.9375,-4.79446098E-05,15.6496868,-0.00327911181,0.936205506,9.36205482,1.80138413E-05,-0.000303985435,-0.00307298498,4.88229052E-05,0.000562943693,1,-0.000688619853,-0.00152949931,0.167347118,-0.000676698925,-0.00155431184,-1.67816675,-0.000152364359,-0.0343415067,0.0814283639,-0.000164285288,-0.0343152992,-0.021989014
