timestamp_utc,sample_index,race_time_seconds,game_state,is_racing,is_paused,level_id,level_name,car_id,car_name,player_steer,player_throttle,player_brake,position_x,position_y,position_z,forward_x,forward_y,forward_z,right_x,right_y,right_z,up_x,up_y,up_z,velocity_x,velocity_y,velocity_z,angular_velocity_x,angular_velocity_y,angular_velocity_z,vehicle_applied_throttle,vehicle_applied_brake,vehicle_applied_handbrake,vehicle_control_candidate_1dfc,vehicle_applied_steer,vehicle_frame_delta_ms,vehicle_frame_delta_seconds,speed_magnitude,planar_speed_magnitude,orig_speed_forward,orig_engine_rpm_candidate,orig_gear_candidate,orig_clutch_candidate,orig_gear_applied_confirmed,orig_gear_requested_confirmed,orig_gear_shift_state_confirmed,orig_gear_shift_state_candidate_sync_flag,orig_gear_shift_state_candidate_mode_flag,orig_num_gears_confirmed,orig_engine_rpm_like_confirmed,orig_driven_speed_scale_confirmed,orig_auto_shift_speed_threshold_confirmed,yaw_radians,yaw_degrees,pitch_radians,pitch_degrees,roll_radians,roll_degrees,yaw_rate,quat_x,quat_y,quat_z,quat_w,camera_position_x,camera_position_y,camera_position_z,camera_forward_x,camera_forward_y,camera_forward_z,camera_fov,camera_mode_index,camera_family,camera_tracker_vtable,camera_tracker_slot_a_vtable,camera_tracker_slot_b_vtable,camera_output_active_profile_ptr,camera_output_active_profile_vtable,camera_output_source_node_ptr,camera_output_target_node_ptr,camera_goal_view_active_profile_ptr,camera_goal_view_active_profile_vtable,camera_goal_view_active_clip_ptr,camera_goal_view_active_clip_vtable,camera_goal_view_source_node_ptr,camera_goal_view_target_node_ptr,camera_goal_view_runtime_seconds,camera_goal_view_dirty_flag,player_camera_list_count,player_camera_active_profile_index,player_camera_list_0_ptr,player_camera_list_0_vtable,player_camera_list_1_ptr,player_camera_list_1_vtable,player_camera_list_2_ptr,player_camera_list_2_vtable,player_camera_list_3_ptr,player_camera_list_3_vtable,player_camera_list_4_ptr,player_camera_list_4_vtable,player_camera_list_5_ptr,player_camera_list_5_vtable,wheel_0_contact_flag,wheel_0_contact_ptr,wheel_0_contact_surface_44_candidate,wheel_0_contact_surface_48_candidate,wheel_0_contact_surface_4c_candidate,wheel_0_contact_surface_50_candidate,wheel_0_contact_surface_54_candidate,wheel_0_suspension_length_candidate,wheel_0_tire_force_multiplier_candidate,wheel_0_load_or_spin_candidate,wheel_0_rotation_or_phase_candidate,wheel_0_vertical_load_candidate,wheel_1_contact_flag,wheel_1_contact_ptr,wheel_1_contact_surface_44_candidate,wheel_1_contact_surface_48_candidate,wheel_1_contact_surface_4c_candidate,wheel_1_contact_surface_50_candidate,wheel_1_contact_surface_54_candidate,wheel_1_suspension_length_candidate,wheel_1_tire_force_multiplier_candidate,wheel_1_load_or_spin_candidate,wheel_1_rotation_or_phase_candidate,wheel_1_vertical_load_candidate,wheel_2_contact_flag,wheel_2_contact_ptr,wheel_2_contact_surface_44_candidate,wheel_2_contact_surface_48_candidate,wheel_2_contact_surface_4c_candidate,wheel_2_contact_surface_50_candidate,wheel_2_contact_surface_54_candidate,wheel_2_suspension_length_candidate,wheel_2_tire_force_multiplier_candidate,wheel_2_load_or_spin_candidate,wheel_2_rotation_or_phase_candidate,wheel_2_vertical_load_candidate,wheel_3_contact_flag,wheel_3_contact_ptr,wheel_3_contact_surface_44_candidate,wheel_3_contact_surface_48_candidate,wheel_3_contact_surface_4c_candidate,wheel_3_contact_surface_50_candidate,wheel_3_contact_surface_54_candidate,wheel_3_suspension_length_candidate,wheel_3_tire_force_multiplier_candidate,wheel_3_load_or_spin_candidate,wheel_3_rotation_or_phase_candidate,wheel_3_vertical_load_candidate,vehicle_candidate_1de8,vehicle_candidate_1dec,vehicle_candidate_1df0,vehicle_candidate_1e08,vehicle_candidate_1e0c,vehicle_candidate_1e10,vehicle_candidate_1e14,vehicle_candidate_1e18,vehicle_candidate_1e1c,vehicle_candidate_1e20,vehicle_candidate_1e24,vehicle_candidate_1e28,wheel_0_candidate_0320,wheel_0_candidate_0324,wheel_0_candidate_0328,wheel_0_candidate_0338,wheel_0_candidate_0344,wheel_0_candidate_036c,wheel_0_candidate_0370,wheel_0_candidate_0374,wheel_0_candidate_037c,wheel_0_candidate_0380,wheel_0_candidate_0384,wheel_0_candidate_038c,wheel_0_candidate_0390,wheel_0_candidate_0394,wheel_0_candidate_0398,wheel_0_candidate_039c,wheel_1_candidate_0320,wheel_1_candidate_0324,wheel_1_candidate_0328,wheel_1_candidate_0338,wheel_1_candidate_0344,wheel_1_candidate_036c,wheel_1_candidate_0370,wheel_1_candidate_0374,wheel_1_candidate_037c,wheel_1_candidate_0380,wheel_1_candidate_0384,wheel_1_candidate_038c,wheel_1_candidate_0390,wheel_1_candidate_0394,wheel_1_candidate_0398,wheel_1_candidate_039c,wheel_2_candidate_0320,wheel_2_candidate_0324,wheel_2_candidate_0328,wheel_2_candidate_0338,wheel_2_candidate_0344,wheel_2_candidate_036c,wheel_2_candidate_0370,wheel_2_candidate_0374,wheel_2_candidate_037c,wheel_2_candidate_0380,wheel_2_candidate_0384,wheel_2_candidate_038c,wheel_2_candidate_0390,wheel_2_candidate_0394,wheel_2_candidate_0398,wheel_2_candidate_039c,wheel_3_candidate_0320,wheel_3_candidate_0324,wheel_3_candidate_0328,wheel_3_candidate_0338,wheel_3_candidate_0344,wheel_3_candidate_036c,wheel_3_candidate_0370,wheel_3_candidate_0374,wheel_3_candidate_037c,wheel_3_candidate_0380,wheel_3_candidate_0384,wheel_3_candidate_038c,wheel_3_candidate_0390,wheel_3_candidate_0394,wheel_3_candidate_0398,wheel_3_candidate_039c,wheel_0_suspension_length_delta_per_sec,wheel_0_load_or_spin_delta_per_sec,wheel_0_vertical_load_delta_per_sec,wheel_1_suspension_length_delta_per_sec,wheel_1_load_or_spin_delta_per_sec,wheel_1_vertical_load_delta_per_sec,wheel_2_suspension_length_delta_per_sec,wheel_2_load_or_spin_delta_per_sec,wheel_2_vertical_load_delta_per_sec,wheel_3_suspension_length_delta_per_sec,wheel_3_load_or_spin_delta_per_sec,wheel_3_vertical_load_delta_per_sec
2026-04-30T18:43:52.5852080Z,1,-2.0199999000000002,Race,true,false,68,Garage Test Track,16,Bullet,0,0,0,-140.379166,1.32113874,190.701096,-8.66408936E-06,-0.0181373637,-0.99983573,-1.00000024,7.89521073E-06,8.52229368E-06,7.73933971E-06,0.999835491,-0.0181373637,-0.000314145029,-0.000716886367,-0.0013712768,-0.000768319704,-0.000198409296,-0.000234672232,0,1,0,0,0,20,0.0200000014,0.00157892786,0.00140680035,0.00138405664,-0.00225009839,0.0439410768,0.0100000007,0,0,0,0.100000001,0.100000001,4,985.596436,0.340000004,0,-3.14158392,-179.999496,0.0181383546,1.03925109,7.89650949E-06,0.000452436652,-0.000198409296,-0.00906905439,3.90879813E-06,0.999958932,-4.2967722E-06,-140.379166,2.82512903,195.699738,-8.97891005E-06,-0.198775128,-0.98004508,1.74532926,1,goal_runtime,0x006742EC,0x006742EC,0x0067459C,0x07DD855C,0x00673FF8,0x2B6E29F8,0x2B6E29F8,0x07DD8C7C,0x00673FF8,0x07DDA95C,0x00673FF8,0x2B6E29F8,0x2B6E29F8,1.63999879,165,5,1,0x07DD842C,0x00673FF8,0x07DD855C,0x00673FF8,0x07DD86E0,0x00673FF8,0x07DD87D8,0x00673FF8,0x07DD88D0,0x00673FF8,,,1,0x2B6E46A4,0,0.600000024,0,0,0,-0.0175314732,-0.00841090549,0.000630492868,0,0.0101044755,1,0x2B6E46A4,0,0.600000024,0,0,0,0.0175472293,-0.0280871,0.000631073897,0,0.0283399504,1,0x2B6E46A4,0,0.600000024,0,0,0,0.0174513273,-0.00656867446,-0.000691123249,0.000156971393,0.00976845529,1,0x2B6E46A4,0,0.600000024,0,0,0,-0.0174477827,-0.00833584275,-0.000690419052,6.28303289,0.0107112965,1,0,0,0.0100000007,100,-0.00740187056,0.000359537051,0.0439410768,-0.000166107609,-0.000724077108,-0.00225009839,-0.00212090672,2000,-0.00177551503,0.000396247604,1,4844.74219,0,24.223711,-0.00559171569,0.979415119,9.79415131,0.000630492927,-0.000832760416,-0.00177551503,0.000396247604,0.000347793277,1,2000,-0.00172413944,0.000396247284,1,4844.74219,0,24.223711,-0.00363799743,0.979415119,9.79415131,0.000631073955,-0.00248388504,-0.00172413944,0.000396247284,0.000337729667,1,2000,-0.00214395788,0.000307927199,1,3129.31592,-0.00030280443,15.6465788,0.00722445641,0.936205506,9.36205482,-0.000691123365,-0.000672728173,-0.00214395788,0.000307927199,0.000322835083,1,2000,-0.00135570008,0.000307927578,1,3129.31592,0.00030280443,15.6465788,0.00671908772,0.936205506,9.36205482,-0.000690419169,-0.000778566697,-0.00135570008,0.000307927578,0.000332444732,1,0,0,0,0,0,0,0,0,0,0,0,0
2026-04-30T18:43:52.6598241Z,2,-1.9199999000000001,Race,true,false,68,Garage Test Track,16,Bullet,0,0,0,-140.37915,1.32109833,190.700958,5.50970026E-06,-0.0181698482,-0.999835253,-1.00000036,4.7174666E-07,-5.51918265E-06,5.71951489E-07,0.999834895,-0.0181698482,-0.00016974927,-0.000616616628,-0.004700955,-0.000217985944,-0.000220482441,-0.000193316286,0,1,0,0,0,10,0.0100000007,0.00474426057,0.00470401905,0.00471138349,-0.00451326091,-0.0187694076,0.0100000007,0,0,0,0.100000001,0.100000001,4,985.266602,0.340000004,0,3.14158726,179.99968,0.0181708429,1.04111254,4.71824563E-07,2.70335549E-05,-0.000220482441,-0.00908529852,2.6093528E-07,0.999958813,2.75733419E-06,-140.37915,2.82509804,195.6996,-8.97888094E-06,-0.198776484,-0.980044901,1.74532926,1,goal_runtime,0x006742EC,0x006742EC,0x0067459C,0x07DD855C,0x00673FF8,0x2B6E29F8,0x2B6E29F8,0x07DD8C7C,0x00673FF8,0x07DDA95C,0x00673FF8,0x2B6E29F8,0x2B6E29F8,1.69999874,165,5,1,0x07DD842C,0x00673FF8,0x07DD855C,0x00673FF8,0x07DD86E0,0x00673FF8,0x07DD87D8,0x00673FF8,0x07DD88D0,0x00673FF8,,,1,0x2B6E46A4,0,0.600000024,0,0,0,-0.0175391231,-0.00622857874,-0.000405323779,0,0.00856028963,1,0x2B6E46A4,0,0.600000024,0,0,0,0.0175401531,-0.00752874231,-0.000405047962,0,0.00938173849,1,0x2B6E46A4,0,0.600000024,0,0,0,0.0174496155,-0.006839348,-0.000210985512,0.000159936433,0.00889885984,1,0x2B6E46A4,0,0.600000024,0,0,0,-0.0174494758,-0.00594397914,-0.000210410435,6.28303003,0.00830862112,1,0,0,0.0100000007,100,-0.101243988,0.00316952914,-0.0187694076,0.000842690701,-0.000648311921,-0.00451326091,-0.101243995,2000,-0.00423646485,-0.00129999232,1,4846.00098,0,24.2300053,0.00586683862,0.979415119,9.79415131,-0.000405323808,-0.000727928942,-0.00423646485,-0.00129999232,0.000829851604,1,2000,-0.00463922042,-0.00129999116,1,4846.00098,0,24.2300053,0.00559092686,0.979415119,9.79415131,-0.000405047991,-0.000802838476,-0.00463922042,-0.00129999116,0.000908744638,1,2000,-0.00446563773,-0.000605647685,1,3130.34863,0.000125049948,15.6517429,0.00568720512,0.936205506,9.36205482,-0.000210985512,-0.000768898288,-0.00446563773,-0.000605647685,0.000868611445,1,2000,-0.00441002054,-0.000605648558,1,3130.34863,-0.000125049948,15.6517429,0.00580026023,0.936205506,9.36205482,-0.000210410435,-0.000715706381,-0.00441002054,-0.000605648558,0.000793276646,1,-0.000764988305,-0.103581652,-0.154418588,-0.000707618834,-0.103612177,-1.89582098,-0.000171177075,0.0480137691,-0.0869595408,-0.00016931443,0.0480008572,-0.240267515
2026-04-30T18:43:52.7598192Z,3,-1.8200000000000001,Race,true,false,68,Garage Test Track,16,Bullet,0,0,0,-140.37915,1.3210547,190.700653,-1.83670636E-06,-0.0182084423,-0.999834299,-1.00000012,6.49731101E-06,1.71868533E-06,6.46493936E-06,0.999834239,-0.0182084423,-0.000102722166,-0.000274325546,-0.00270320638,-0.000263170077,2.38670254E-05,-8.58492858E-05,0,1,0,0,0,10,0.0100000007,0.00271903118,0.0027051575,0.00270775356,-0.00391119765,0.120799117,0.0100000007,0,0,0,0.100000001,0.100000001,4,984.712524,0.340000004,-2.76486389E-10,-3.14159083,-179.999893,0.0182094462,1.04332435,6.4983883E-06,0.000372330192,2.38670254E-05,-0.00910459831,3.24069674E-06,0.999958575,-8.88884756E-07,-140.37915,2.82507014,195.699295,-8.9788482E-06,-0.198779121,-0.980044305,1.74532926,1,goal_runtime,0x006742EC,0x006742EC,0x0067459C,0x07DD855C,0x00673FF8,0x2B6E29F8,0x2B6E29F8,0x07DD8C7C,0x00673FF8,0x07DDA95C,0x00673FF8,0x2B6E29F8,0x2B6E29F8,1.79999864,165,5,1,0x07DD842C,0x00673FF8,0x07DD855C,0x00673FF8,0x07DD86E0,0x00673FF8,0x07DD87D8,0x00673FF8,0x07DD88D0,0x00673FF8,,,1,0x2B6E46A4,0,0.600000024,0,0,0,-0.0175334439,-0.0170125086,0.000171836713,0,0.0170496125,1,0x2B6E46A4,0,0.600000024,0,0,0,0.017546406,-0.0167219043,0.000172162865,0,0.0167594347,1,0x2B6E46A4,0,0.600000024,0,0,0,0.0174509808,-0.0160794184,-0.000169773746,0.000180763527,0.0161569826,1,0x2B6E46A4,0,0.600000024,0,0,0,-0.0174480844,-0.0161696505,-0.000169228821,6.28300953,0.0162465312,1,0,0,0.0100000007,100,-0.000394396891,0.00408696895,0.120799117,-9.87781968E-05,-0.000315195241,-0.00391119765,-0.00039439692,2000,-0.00401033973,0.000304881716,1,4847.73242,0,24.2386608,-0.000990044442,0.979415119,9.79415131,0.000171836713,-0.00150418153,-0.00401033973,0.000304881716,0.000785557553,1,2000,-0.00374204316,0.000304882007,1,4847.73242,0,24.2386608,-0.000991894631,0.979415119,9.79415131,0.000172162865,-0.00147851335,-0.00374204316,0.000304882007,0.000733002787,1,2000,-0.00377229066,-0.000158270632,1,3129.41797,-2.17122597E-05,15.64709,0.00150021911,0.936205506,9.36205482,-0.000169773746,-0.00142165809,-0.00377229066,-0.000158270632,0.000700691831,1,2000,-0.00398010947,-0.000158270879,1,3129.41797,2.17123852E-05,15.64709,0.00149534189,0.936205506,9.36205482,-0.000169228821,-0.00142969214,-0.00398010947,-0.000158270879,0.000750876206,1,0.000567920448,0.0577160455,0.848932207,0.000625289918,0.0577210747,0.737769544,0.000136531875,0.00412117643,0.725812256,0.000139139578,0.00411816128,0.793790936
2026-04-30T18:43:52.8598218Z,4,-1.72,Race,true,false,68,Garage Test Track,16,Bullet,0,0,0,-140.37915,1.32104564,190.700409,-7.83187886E-07,-0.0182251837,-0.999833822,-0.99999994,5.87847899E-06,6.76163779E-07,5.86517945E-06,0.999833882,-0.0182251837,0.000211176011,4.92406507E-05,0.000538311375,-0.000423367688,-0.00025567101,0.00014447709,0,1,0,0,0,10,0.0100000007,0.000580343942,0.000578251202,-0.000539119472,-0.000972117414,0.151042864,0.0100000007,0,0,0,0.100000001,0.100000001,4,984.142578,0.340000004,2.32830644E-10,-3.14159179,-179.999939,0.0182261951,1.04428399,5.87945578E-06,0.00033686799,-0.00025567101,-0.0091129709,2.93603648E-06,0.999958456,-3.64853065E-07,-140.37915,2.82507372,195.699036,-8.97884365E-06,-0.198781759,-0.980043769,1.74532926,1,goal_runtime,0x006742EC,0x006742EC,0x0067459C,0x07DD855C,0x00673FF8,0x2B6E29F8,0x2B6E29F8,0x07DD8C7C,0x00673FF8,0x07DDA95C,0x00673FF8,0x2B6E29F8,0x2B6E29F8,1.89999855,165,5,1,0x07DD842C,0x00673FF8,0x07DD855C,0x00673FF8,0x07DD86E0,0x00673FF8,0x07DD87D8,0x00673FF8,0x07DD88D0,0x00673FF8,,,1,0x2B6E46A4,0,0.600000024,0,0,0,-0.0175340567,-0.0217393581,0.000371199945,0,0.0218561627,1,0x2B6E46A4,0,0.600000024,0,0,0,0.0175458975,-0.0208298359,0.000371647067,0,0.0209507234,1,0x2B6E46A4,0,0.600000024,0,0,0,0.0174508337,-0.020401001,-0.00016400883,0.00015437165,0.020463299,1,0x2B6E46A4,0,0.600000024,0,0,0,-0.0174482204,-0.0202919878,-0.000163506367,6.28303671,0.0203541536,1,0,0,0.0100000007,100,0.00322411046,0.00229183445,0.151042864,0.000178934904,2.63223046E-05,-0.000972117414,0.0032241107,2000,-0.000794065883,-0.000357219105,1,4848.20605,0,24.2410297,-0.00213838206,0.979415119,9.79415131,0.000371199974,-0.0019221846,-0.000794065883,-0.000357219105,0.000155544039,1,2000,-0.000990184257,-0.000357219455,1,4848.20605,0,24.2410297,-0.0021408645,0.979415119,9.79415131,0.000371647096,-0.00184185163,-0.000990184257,-0.000357219455,0.00019396031,1,2000,-0.00138170144,-1.88159047E-05,1,3127.39941,-0.000282489054,15.6369963,0.00144992629,0.936205506,9.36205482,-0.00016400883,-0.00180385495,-0.00138170144,-1.88159047E-05,0.000185382829,1,2000,-0.000402534322,-1.88156373E-05,1,3127.39941,0.000282489171,15.6369963,0.00144547329,0.936205506,9.36205482,-0.000163506367,-0.00179424731,-0.000402534322,-1.88156373E-05,0.000148699488,1,-6.12810181E-05,0.0199363213,0.480654985,-5.08502089E-05,0.0199484192,0.419128835,-1.47148958E-05,0.000576491526,0.430631608,-1.35973087E-05,0.000572245277,0.410762221
2026-04-30T18:43:52.9598468Z,5,-1.6200000000000001,Race,true,false,68,Garage Test Track,16,Bullet,0,0,0,-140.37915,1.32106137,190.70015,3.08383642E-06,-0.0182148088,-0.999834299,-1.00000024,4.93365224E-06,-3.17422837E-06,4.99065209E-06,0.99983412,-0.0182148088,0.000319752115,0.000215924112,-0.00286199362,0.000261951995,-0.000163630655,0.000208572121,0,1,0,0,0,10,0.0100000007,0.00288788369,0.00287980027,0.0028575873,-0.00132995681,-0.153203666,0.0100000007,0,0,0,0.100000001,0.100000001,4,983.559998,0.340000004,1.8189894E-11,3.14158964,179.999817,0.0182158127,1.04368913,4.93447078E-06,0.00028272433,-0.000163630655,-0.00910778157,2.48117885E-06,0.999958575,1.564581E-06,-140.37915,2.82509661,195.698776,-8.97884092E-06,-0.198783234,-0.980043471,1.74532926,1,goal_runtime,0x006742EC,0x006742EC,0x0067459C,0x07DD855C,0x00673FF8,0x2B6E29F8,0x2B6E29F8,0x07DD8C7C,0x00673FF8,0x07DDA95C,0x00673FF8,0x2B6E29F8,0x2B6E29F8,1.99999845,165,5,1,0x07DD842C,0x00673FF8,0x07DD855C,0x00673FF8,0x07DD86E0,0x00673FF8,0x07DD87D8,0x00673FF8,0x07DD88D0,0x00673FF8,,,1,0x2B6E46A4,0,0.600000024,0,0,0,-0.0175350066,-1.65573363E-06,6.22987282E-05,0,0.000363942585,1,0x2B6E46A4,0,0.600000024,0,0,0,0.0175448395,-3.91439215E-07,6.27828995E-05,0,0.000361183862,1,0x2B6E46A4,0,0.600000024,0,0,0,0.0174506065,-5.9218371E-07,4.82596333E-05,0.000118376593,0.000426288141,1,0x2B6E46A4,0,0.600000024,0,0,0,-0.0174484551,-1.75660318E-06,4.88595251E-05,6.28307247,0.000435333117,1,0,0,0.0100000007,100,-0.00109313393,0.000637117715,-0.153203666,0.000330683455,0.000209552934,-0.00132995681,-0.00109313405,2000,-0.00117093581,-0.000631004979,1,4846.26611,0,24.2313309,-0.000363779283,0.979415119,9.79415131,6.22987282E-05,-4.55143163E-06,-0.00117093581,-0.000631004979,0.000229366458,1,2000,-0.00150611973,-0.00063100399,1,4846.26611,0,24.2313309,-0.00036104102,0.979415119,9.79415131,6.27828995E-05,-1.08419533E-06,-0.00150611973,-0.00063100399,0.000295023317,1,2000,-0.00154505624,-5.26627446E-05,1,3127.9126,-2.82198325E-05,15.6395626,-0.000426129089,0.936205506,9.36205482,4.82596333E-05,-1.38968028E-06,-0.00154505624,-5.26627446E-05,0.000281972723,1,2000,-0.00113197579,-5.2663825E-05,1,3127.9126,2.82198325E-05,15.6395626,-0.000435066642,0.936205506,9.36205482,4.88595251E-05,-4.03751665E-06,-0.00113197579,-5.2663825E-05,0.000219277703,1,-9.49948953E-05,-0.0308901202,-2.1492219,-0.000105798237,-0.0308864154,-2.05895376,-2.2724269E-05,0.0212268457,-2.00370097,-2.34693271E-05,0.0212365873,-1.99188185
2026-04-30T18:43:53.0593538Z,6,-1.5199999,Race,true,false,68,Garage Test Track,16,Bullet,0,0,0,-140.37915,1.32108557,190.699844,1.20440563E-06,-0.0181903765,-0.999834776,-1.00000024,1.02968179E-05,-1.39193889E-06,1.03204338E-05,0.999834538,-0.0181903765,-0.000438256073,0.000231696016,-0.00442895293,0.000481893338,0.000367346336,-0.000287912146,0,1,0,0,0,10,0.0100000007,0.00445660995,0.00445058336,0.00442400621,-0.0040004258,-0.0428527109,0.0100000007,0,0,0,0.100000001,0.100000001,4,982.932251,0.340000004,0,3.14159155,179.999924,0.0181913748,1.0422889,1.02985223E-05,0.000590061827,0.000367346336,-0.00909556355,5.15452575E-06,0.999958694,6.49112962E-07,-140.37915,2.82512331,195.698471,-8.97886639E-06,-0.198784351,-0.980043232,1.74532926,1,goal_runtime,0x006742EC,0x006742EC,0x0067459C,0x07DD855C,0x00673FF8,0x2B6E29F8,0x2B6E29F8,0x07DD8C7C,0x00673FF8,0x07DDA95C,0x00673FF8,0x2B6E29F8,0x2B6E29F8,2.09999847,165,5,1,0x07DD842C,0x00673FF8,0x07DD855C,0x00673FF8,0x07DD86E0,0x00673FF8,0x07DD87D8,0x00673FF8,0x07DD88D0,0x00673FF8,,,1,0x2B6E46A4,0,0.600000024,0,0,0,-0.0175294131,-0.00496336818,-0.000142049568,0,0.00751809031,1,0x2B6E46A4,0,0.600000024,0,0,0,0.0175500903,-0.00589050911,-0.000141467637,0,0.00818652567,1,0x2B6E46A4,0,0.600000024,0,0,0,0.0174518041,-0.00565433502,0.000228029734,0.000102424914,0.00812800042,1,0x2B6E46A4,0,0.600000024,0,0,0,-0.0174472723,-0.00457408978,0.000228576726,6.28308868,0.00733955577,1,0,0,0.0100000007,100,-0.00529484218,-8.68210846E-05,-0.0428527109,-0.000385307649,0.000232564227,-0.0040004258,-0.00529484265,2000,-0.00399700645,0.000295082311,1,4843.30371,0,24.2165184,0.0056426567,0.979415119,9.79415131,-0.000142049568,-0.000660465215,-0.00399700645,0.000295082311,0.000782945834,1,2000,-0.004282129,0.000295080361,1,4843.30371,0,24.2165184,0.0056800684,0.979415119,9.79415131,-0.000141467637,-0.00071984838,-0.004282129,0.000295080361,0.000838796492,1,2000,-0.0042888117,0.000787968456,1,3130.24707,-4.93257858E-06,15.6512346,-0.00583414314,0.936205506,9.36205482,0.000228029734,-0.000695954543,-0.0042888117,0.000787968456,0.000801761402,1,2000,-0.00399030279,0.00078797061,1,3130.24707,4.93259267E-06,15.6512346,-0.00573603017,0.936205506,9.36205482,0.000228576726,-0.000623469765,-0.00399030279,0.00078797061,0.000748429156,1,0.00055935228,-0.0204348285,0.715414703,0.000525079609,-0.0204250515,0.782534122,0.000119768076,0.0179770086,0.770171165,0.00011827796,0.0179717187,0.690422177
2026-04-30T18:43:53.1602985Z,7,-1.4199999000000001,Race,true,false,68,Garage Test Track,16,Bullet,0,0,0,-140.37915,1.32110429,190.69957,-4.42653345E-06,-0.0181731991,-0.999834776,-0.99999994,8.48555283E-06,4.27302984E-06,8.40649773E-06,0.999834836,-0.0181731991,-0.000184908669,0.000145603408,-0.00248213136,9.87726598E-05,5.53617247E-05,-0.000136458271,0,1,0,0,0,10,0.0100000007,0.00249326439,0.00248900941,0.00247907615,-0.00373435928,0.125222787,0.0100000007,0,0,0,0.100000001,0.100000001,4,982.305054,0.340000004,0,-3.14158821,-179.999741,0.0181742013,1.04130495,8.48695436E-06,0.000486266625,5.53617247E-05,-0.0090869749,4.22318726E-06,0.999958694,-2.17498064E-06,-140.37915,2.82514119,195.698196,-8.97889367E-06,-0.198784769,-0.980043232,1.74532926,1,goal_runtime,0x006742EC,0x006742EC,0x0067459C,0x07DD855C,0x00673FF8,0x2B6E29F8,0x2B6E29F8,0x07DD8C7C,0x00673FF8,0x07DDA95C,0x00673FF8,0x2B6E29F8,0x2B6E29F8,2.19999838,165,5,1,0x07DD842C,0x00673FF8,0x07DD855C,0x00673FF8,0x07DD86E0,0x00673FF8,0x07DD87D8,0x00673FF8,0x07DD88D0,0x00673FF8,,,1,0x2B6E46A4,0,0.600000024,0,0,0,-0.0175311081,-0.0177093372,0.000293202058,0,0.017798828,1,0x2B6E46A4,0,0.600000024,0,0,0,0.0175481644,-0.0166665632,0.00029395771,0,0.016760828,1,0x2B6E46A4,0,0.600000024,0,0,0,0.0174513105,-0.016205186,-0.000288960116,6.42801097E-05,0.0164130367,1,0x2B6E46A4,0,0.600000024,0,0,0,-0.0174476579,-0.0166880675,-0.000288422423,6.28312683,0.0168896634,1,0,0,0.0100000007,100,-0.000609618961,-0.000806203694,0.125222787,-0.000178812479,0.000153665445,-0.00373435928,-0.000609619019,2000,-0.00408195052,0.000561606314,1,4842.56934,0,24.2128468,-0.00169146445,0.979415119,9.79415131,0.000293202058,-0.00156578538,-0.00408195052,0.000561606314,0.000799584901,1,2000,-0.00357332709,0.000561603229,1,4842.56934,0,24.2128468,-0.00169574341,0.979415119,9.79415131,0.00029395771,-0.00147365616,-0.00357332709,0.000561603229,0.000699954166,1,2000,-0.00369290402,-0.000316431542,1,3130.35742,-8.605115E-05,15.6517868,0.00255290186,0.936205506,9.36205482,-0.000288960116,-0.00143274816,-0.00369290402,-0.000316431542,0.000669126341,1,2000,-0.00396240922,-0.000316433201,1,3130.35742,8.605115E-05,15.6517868,0.0025479265,0.936205506,9.36205482,-0.000288422423,-0.00147557084,-0.00396240922,-0.000316433201,0.000764263095,1,-0.000169500694,0.0435251594,1.02807367,-0.000192597494,0.0435425304,0.85743016,-4.93600928E-05,-0.0516989827,0.828503549,-3.8556751E-05,-0.051699914,0.955010712
2026-04-30T18:43:53.2597835Z,8,-1.3200000000000001,Race,true,false,68,Garage Test Track,16,Bullet,0,0,0,-140.37915,1.32111156,190.699341,-1.16764147E-06,-0.0181734115,-0.999834776,-0.99999994,5.86525357E-06,1.06122513E-06,5.84499912E-06,0.999834836,-0.0181734115,0.000356382719,1.92187417E-05,0.000461275893,-0.000396794872,-1.91354575E-05,0.000271218014,0,1,0,0,0,10,0.0100000007,0.000583226793,0.000582910026,-0.000461549353,-0.00101552764,0.147680342,0.0100000007,0,0,0,0.100000001,0.100000001,4,981.637024,0.340000004,2.61934474E-10,-3.14159155,-179.999924,0.0181744136,1.04131711,5.86622264E-06,0.000336109777,-1.91354575E-05,-0.00908708107,2.92768414E-06,0.999958694,-5.57239673E-07,-140.37915,2.82514668,195.697968,-8.97889367E-06,-0.198784396,-0.980043292,1.74532926,1,goal_runtime,0x006742EC,0x006742EC,0x0067459C,0x07DD855C,0x00673FF8,0x2B6E29F8,0x2B6E29F8,0x07DD8C7C,0x00673FF8,0x07DDA95C,0x00673FF8,0x2B6E29F8,0x2B6E29F8,2.29999828,165,5,1,0x07DD842C,0x00673FF8,0x07DD855C,0x00673FF8,0x07DD86E0,0x00673FF8,0x07DD87D8,0x00673FF8,0x07DD88D0,0x00673FF8,,,1,0x2B6E46A4,0,0.600000024,0,0,0,-0.0175337289,-0.0212721657,0.000296925602,0,0.0213525165,1,0x2B6E46A4,0,0.600000024,0,0,0,0.0175455436,-0.0206821356,0.00029773984,0,0.0207643677,1,0x2B6E46A4,0,0.600000024,0,0,0,0.0174508356,-0.0198836792,-2.23687675E-05,4.29650354E-05,0.0198950153,1,0x2B6E46A4,0,0.600000024,0,0,0,-0.0174482521,-0.0202219859,-2.18630303E-05,6.28314781,0.020233497,1,0,0,0.0100000007,100,0.00468522729,-0.00154725718,0.147680342,0.000309530442,3.46913148E-05,-0.00101552764,0.00468522776,2000,-0.00101991789,-0.000302840403,1,4843.88623,0,24.2194309,-0.00171231898,0.979415119,9.79415131,0.000296925602,-0.00188088662,-0.00101991789,-0.000302840403,0.000199784612,1,2000,-0.00088694779,-0.000302839588,1,4843.88623,0,24.2194309,-0.00171696127,0.979415119,9.79415131,0.00029773984,-0.00182877458,-0.00088694779,-0.000302839588,0.000173738037,1,2000,-0.000960807141,-0.000532882754,1,3128.3999,-5.32243721E-05,15.6419992,0.000197776506,0.936205506,9.36205482,-2.23687675E-05,-0.00175811304,-0.000960807141,-0.000532882754,0.000166086626,1,2000,-0.000946067623,-0.000532883801,1,3128.3999,5.32244994E-05,15.6419992,0.000193236163,0.936205506,9.36205482,-2.18630303E-05,-0.00178803201,-0.000946067623,-0.000532883801,0.000190958774,1,-0.000262074143,0.000372354378,0.355368823,-0.000262074143,0.000378212979,0.400353938,-4.74974477E-05,0.0266591329,0.348197818,-5.94183766E-05,0.0266559366,0.334383339
2026-04-30T18:43:53.3600140Z,9,-1.22,Race,true,false,68,Garage Test Track,16,Bullet,0,0,0,-140.37915,1.3211081,190.699081,4.60011415E-06,-0.0181761142,-0.999834776,-1,4.56834232E-06,-4.68392227E-06,4.65272342E-06,0.999834776,-0.0181761142,0.00011233674,-7.55835863E-05,-0.00288555422,3.80066995E-05,-0.000296326994,5.28806777E-05,0,1,0,0,0,10,0.0100000007,0.0028887291,0.00288774003,0.00288645178,-0.00135264872,-0.15329054,0.0100000007,0,0,0,0.100000001,0.100000001,4,980.939941,0.340000004,0,3.14158797,179.999725,0.0181771163,1.04147196,4.5690972E-06,0.000261789974,-0.000296326994,-0.00908843242,2.3053617E-06,0.999958694,2.32110506E-06,-140.37915,2.82514191,195.697708,-8.97889367E-06,-0.198784113,-0.980043292,1.74532926,1,goal_runtime,0x006742EC,0x006742EC,0x0067459C,0x07DD855C,0x00673FF8,0x2B6E29F8,0x2B6E29F8,0x07DD8C7C,0x00673FF8,0x07DDA95C,0x00673FF8,0x2B6E29F8,0x2B6E29F8,2.39999819,165,5,1,0x07DD842C,0x00673FF8,0x07DD855C,0x00673FF8,0x07DD86E0,0x00673FF8,0x07DD87D8,0x00673FF8,0x07DD88D0,0x00673FF8,,,1,0x2B6E46A4,0,0.600000024,0,0,0,-0.0175350253,-1.44444743E-06,-4.09622007E-05,0,0.000244896568,1,0x2B6E46A4,0,0.600000024,0,0,0,0.0175442472,-8.59361364E-08,-3.99503915E-05,0,0.000231178798,1,0x2B6E46A4,0,0.600000024,0,0,0,0.0174506102,-3.73900264E-07,-2.86423601E-05,1.13470378E-05,0.000254305865,1,0x2B6E46A4,0,0.600000024,0,0,0,-0.0174484756,-1.67063797E-06,-2.82349065E-05,6.28317928,0.000259635824,1,0,0,0.0100000007,100,-0.00636342401,-0.000849676784,-0.15329054,0.000175970985,-6.70868176E-05,-0.00135264872,-0.00636342447,2000,-0.00100394734,-0.000603116525,1,4844.4668,0,24.2223339,0.000244807889,0.979415119,9.79415131,-4.09622007E-05,-5.90022773E-06,-0.00100394734,-0.000603116525,0.00019665627,1,2000,-0.00158701907,-0.000603115419,1,4844.4668,0,24.2223339,0.000230983875,0.979415119,9.79415131,-3.99503915E-05,-3.720439E-07,-0.00158701907,-0.000603115419,0.00031087012,1,2000,-0.00174302177,0.000403489801,1,3128.4209,-0.000112760594,15.6421041,0.0002541102,0.936205506,9.36205482,-2.86423601E-05,-1.47140827E-06,-0.00174302177,0.000403489801,0.000297094928,1,2000,-0.00084790343,0.000403488608,1,3128.4209,0.000112760594,15.6421041,0.000259469525,0.936205506,9.36205482,-2.82349065E-05,-6.438534E-06,-0.00084790343,0.000403488608,0.000188032776,1,-0.000129640088,-0.0337887779,-2.11076188,-0.000129640088,-0.0337690189,-2.05331874,-2.25380045E-05,-0.000627359201,-1.96407092,-2.235174E-05,-0.000637187564,-1.99738598
2026-04-30T18:43:53.4592910Z,10,-1.1200000000000001,Race,true,false,68,Garage Test Track,16,Bullet,0,0,0,-140.37915,1.32109964,190.698776,1.49450261E-06,-0.0181770865,-0.999834776,-1,9.14621523E-06,-1.66102859E-06,9.17489706E-06,0.999834776,-0.0181770865,-0.000708042993,-8.96000929E-05,-0.0045244121,0.000223425261,6.87648135E-05,-0.000553373131,0,1,0,0,0,10,0.0100000007,0.00458035572,0.00457947934,0.0045252922,-0.00410424173,-0.0420170352,0.0100000007,0,0,0,0.100000001,0.100000001,4,980.226746,0.340000004,-2.91038305E-11,3.14159107,179.999893,0.0181780886,1.04152775,9.14772681E-06,0.00052412611,6.87648135E-05,-0.00908891857,4.58046725E-06,0.999958694,7.88915372E-07,-140.37915,2.82513309,195.697403,-8.97889367E-06,-0.198784038,-0.980043292,1.74532926,1,goal_runtime,0x006742EC,0x006742EC,0x0067459C,0x07DD855C,0x00673FF8,0x2B6E29F8,0x2B6E29F8,0x07DD8C7C,0x00673FF8,0x07DDA95C,0x00673FF8,0x2B6E29F8,0x2B6E29F8,2.49999809,165,5,1,0x07DD842C,0x00673FF8,0x07DD855C,0x00673FF8,0x07DD86E0,0x00673FF8,0x07DD87D8,0x00673FF8,0x07DD88D0,0x00673FF8,,,1,0x2B6E46A4,0,0.600000024,0,0,0,-0.0175304469,-0.00549159246,-0.000214486005,0,0.00793299638,1,0x2B6E46A4,0,0.600000024,0,0,0,0.0175488256,-0.00554910116,-0.00021345455,0,0.00797401089,1,0x2B6E46A4,0,0.600000024,0,0,0,0.0174514949,-0.00543395011,-0.000127261475,6.28316355,0.00788371265,1,0x2B6E46A4,0,0.600000024,0,0,0,-0.0174474716,-0.00465786504,-0.00012679465,2.73705082E-05,0.00730463909,1,0,0,0.0100000007,100,-0.0833134428,0.000563381007,-0.0420170352,0.000125091465,-9.52339033E-05,-0.00410424173,-0.0833134428,2000,-0.0042601889,-1.48852005E-05,1,4843.81836,0,24.2190914,0.00572032901,0.979415119,9.79415131,-0.000214486005,-0.000692536938,-0.0042601889,-1.48852005E-05,0.000834498787,1,2000,-0.00406283652,-1.48837535E-05,1,4843.81836,0,24.2190914,0.00572182145,0.979415119,9.79415131,-0.00021345455,-0.000696189061,-0.00406283652,-1.48837535E-05,0.000795840751,1,2000,-0.00415985566,-0.000355833152,1,3130.28955,-6.99049779E-05,15.6514473,0.00570716057,0.936205506,9.36205482,-0.000127261475,-0.000689559325,-0.00415985566,-0.000355833152,0.000760750088,1,2000,-0.00416318187,-0.000355832803,1,3130.28955,6.99049633E-05,15.6514473,0.00562293176,0.936205506,9.36205482,-0.00012679465,-0.000637925696,-0.00416318187,-0.000355832803,0.000797664747,1,0.000457838149,-0.0173523799,0.768809915,0.000457838149,-0.0173504148,0.774283111,8.84756373E-05,-0.00986191072,0.762940586,0.000100396566,-0.00985597353,0.704500258
2026-04-30T18:43:53.5598129Z,11,-1.0199999,Race,true,false,68,Garage Test Track,16,Bullet,0,0,0,-140.37915,1.32109237,190.698502,-3.89254365E-06,-0.018181622,-0.999834776,-1.00000012,9.09512801E-06,3.72779573E-06,9.02584634E-06,0.999834716,-0.018181622,0.000102440245,-5.32837948E-05,-0.00254652603,-6.69699875E-05,0.000179008333,0.000125697217,0,1,0,0,0,10,0.0100000007,0.00254914258,0.00254858565,0.00254707364,-0.00379759958,0.125107348,0.0100000007,0,0,0,0.100000001,0.100000001,4,979.488953,0.340000004,0,-3.14158869,-179.999756,0.0181826223,1.04178751,9.0966314E-06,0.000521198555,0.000179008333,-0.00909118634,4.53043094E-06,0.999958694,-1.90516357E-06,-140.37915,2.82512593,195.697128,-8.97886821E-06,-0.198783472,-0.980043471,1.74532926,1,goal_runtime,0x006742EC,0x006742EC,0x0067459C,0x07DD855C,0x00673FF8,0x2B6E29F8,0x2B6E29F8,0x07DD8C7C,0x00673FF8,0x07DDA95C,0x00673FF8,0x2B6E29F8,0x2B6E29F8,2.599998,165,5,1,0x07DD842C,0x00673FF8,0x07DD855C,0x00673FF8,0x07DD86E0,0x00673FF8,0x07DD87D8,0x00673FF8,0x07DD88D0,0x00673FF8,,,1,0x2B6E46A4,0,0.600000024,0,0,0,-0.0175306164,-0.0174576361,0.000433186971,0,0.0176442675,1,0x2B6E46A4,0,0.600000024,0,0,0,0.0175487716,-0.0169100631,0.00043440194,0,0.0171029437,1,0x2B6E46A4,0,0.600000024,0,0,0,0.0174515601,-0.0157519002,3.64767766E-05,6.28317595,0.015762737,1,0x2B6E46A4,0,0.600000024,0,0,0,-0.0174475238,-0.0171007775,3.68051114E-05,1.49048201E-05,0.0171122663,1,0,0,0.0100000007,100,0.0232103076,0.000754603709,0.125107348,-0.000129662847,-6.08298324E-05,-0.00379759958,0.0232103094,2000,-0.00410486711,0.000507366436,1,4844.2334,0,24.2211666,-0.00249808212,0.979415119,9.79415131,0.000433187,-0.00154348055,-0.00410486711,0.000507366436,0.000804073876,1,2000,-0.00356431562,0.000507362478,1,4844.2334,0,24.2211666,-0.00250480697,0.979415119,9.79415131,0.000434401969,-0.00149523432,-0.00356431562,0.000507362478,0.00069818896,1,2000,-0.00352282543,-0.0004258884,1,3130.04004,3.01410073E-05,15.6501999,-0.000322291133,0.936205506,9.36205482,3.64767766E-05,-0.00139272446,-0.00352282543,-0.0004258884,0.000667441753,1,2000,-0.00414639432,-0.000425889448,1,3130.04004,-3.01410219E-05,15.6501999,-0.000325078465,0.936205506,9.36205482,3.68051114E-05,-0.0015120036,-0.00414639432,-0.000425889448,0.000768551487,1,-1.6950069E-05,0.0647672936,0.971127033,-5.40167048E-06,0.0647856444,0.912893236,6.51925757E-06,0.0163738243,0.787902355,-5.21540596E-06,0.0163599756,0.98076272
2026-04-30T18:43:53.6598135Z,12,-0.92000000000000004,Race,true,false,68,Garage Test Track,16,Bullet,0,0,0,-140.37915,1.32108879,190.698273,-6.57028181E-07,-0.0181912426,-0.999834776,-1.00000024,9.01836484E-06,4.93054472E-07,9.00790383E-06,0.999834538,-0.0181912426,4.19154821E-05,-1.55321304E-05,0.000459011149,-0.0004339726,-0.000258679938,2.46007949E-05,0,1,0,0,0,10,0.0100000007,0.000461182615,0.000460920972,-0.000458652794,-0.0010227384,0.148174942,0.0100000007,0,0,0,0.100000001,0.100000001,4,978.695679,0.340000004,0,-3.14159203,-179.999954,0.018192241,1.04233861,9.01985732E-06,0.000516799744,-0.000258679938,-0.00909599662,4.50675316E-06,0.999958694,-2.87532544E-07,-140.37915,2.82512283,195.696899,-8.97886821E-06,-0.198783591,-0.980043471,1.74532926,1,goal_runtime,0x006742EC,0x006742EC,0x0067459C,0x07DD855C,0x00673FF8,0x2B6E29F8,0x2B6E29F8,0x07DD8C7C,0x00673FF8,0x07DDA95C,0x00673FF8,0x2B6E29F8,0x2B6E29F8,2.6999979,165,5,1,0x07DD842C,0x00673FF8,0x07DD855C,0x00673FF8,0x07DD86E0,0x00673FF8,0x07DD87D8,0x00673FF8,0x07DD88D0,0x00673FF8,,,1,0x2B6E46A4,0,0.600000024,0,0,0,-0.0175306909,-0.0215067342,0.00041746124,0,0.0216527376,1,0x2B6E46A4,0,0.600000024,0,0,0,0.0175488126,-0.0204982068,0.000418731302,0,0.020650791,1,0x2B6E46A4,0,0.600000024,0,0,0,0.01745148,-0.0203793012,-9.87691019E-05,6.28312492,0.0204087477,1,0x2B6E46A4,0,0.600000024,0,0,0,-0.0174474772,-0.0198983289,-9.83739737E-05,6.56672782E-05,0.019927714,1,0,0,0.0100000007,100,0.0158861931,-4.92404943E-05,0.148174942,-0.000116946467,-1.50397254E-05,-0.0010227384,0.015886195,2000,-0.000818672881,-2.49119821E-05,1,4845.55273,0,24.2277622,-0.00240647839,0.979415119,9.79415131,0.00041746127,-0.00190160167,-0.000818672881,-2.49119821E-05,0.000160364129,1,2000,-0.00107124844,-2.49106961E-05,1,4845.55273,0,24.2277622,-0.00241362746,0.979415119,9.79415131,0.000418731332,-0.00181254244,-0.00107124844,-2.49106961E-05,0.000209839403,1,2000,-0.00114872213,0.000411388435,1,3128.02734,-5.59840955E-05,15.6401367,0.000873040815,0.936205506,9.36205482,-9.87691019E-05,-0.00180194213,-0.00114872213,0.000411388435,0.00020055566,1,2000,-0.000741181197,0.000411389599,1,3128.02734,5.59839609E-05,15.6401367,0.000869533455,0.936205506,9.36205482,-9.83739737E-05,-0.00175941759,-0.000741181197,0.000411389599,0.000153311907,1,-7.45058014E-06,-0.00157257298,0.400846988,4.09781887E-06,-0.00156706362,0.354784697,-8.00937323E-06,-0.0135245873,0.46460104,4.65661242E-06,-0.0135179078,0.281544745
2026-04-30T18:43:53.7596643Z,13,-0.8199999,Race,true,false,68,Garage Test Track,16,Bullet,0,0,0,-140.37915,1.32108879,190.698013,2.98049076E-06,-0.0181916561,-0.999834776,-1.00000024,3.92609445E-06,-3.05241815E-06,3.98097336E-06,0.999834538,-0.0181916561,7.71901177E-05,7.74259661E-06,-0.00286623696,9.88680695E-05,-0.000213790845,8.68973802E-06,0,1,0,0,0,10,0.0100000007,0.00286728656,0.00286727608,0.00286562275,-0.0013316886,-0.153454825,0.0100000007,0,0,0,0.100000001,0.100000001,4,977.881348,0.340000004,2.91038305E-11,3.14158964,179.999817,0.0181926545,1.04236221,3.92674428E-06,0.000224985866,-0.000213790845,-0.00909620337,1.97684858E-06,0.999958694,1.50828953E-06,-140.37915,2.82512331,195.69664,-8.97886821E-06,-0.198783681,-0.980043471,1.74532926,1,goal_runtime,0x006742EC,0x006742EC,0x0067459C,0x07DD855C,0x00673FF8,0x2B6E29F8,0x2B6E29F8,0x07DD8C7C,0x00673FF8,0x07DDA95C,0x00673FF8,0x2B6E29F8,0x2B6E29F8,2.79999781,165,5,1,0x07DD842C,0x00673FF8,0x07DD855C,0x00673FF8,0x07DD86E0,0x00673FF8,0x07DD87D8,0x00673FF8,0x07DD88D0,0x00673FF8,,,1,0x2B6E46A4,0,0.600000024,0,0,0,-0.0175357834,-3.12475345E-06,-0.000113135771,0,0.00065288163,1,0x2B6E46A4,0,0.600000024,0,0,0,0.0175437201,-1.06739253E-06,-0.000111782239,0,0.0006468629,1,0x2B6E46A4,0,0.600000024,0,0,0,0.0174503215,-2.92317463E-06,-0.000181233743,6.2830987,0.00160587998,1,0x2B6E46A4,0,0.600000024,0,0,0,-0.0174486376,-1.07098431E-05,-0.000180881427,9.15578566E-05,0.00159837154,1,0,0,0.0100000007,100,-0.0213394165,-8.3715342E-05,-0.153454825,0.000290584285,8.5797501E-06,-0.0013316886,-0.0213394165,2000,-0.00113511318,-0.000559182139,1,4845.36133,0,24.2268066,0.000652619579,0.979415119,9.79415131,-0.000113135771,-4.78796164E-06,-0.00113511318,-0.000559182139,0.000222349423,1,2000,-0.00144742383,-0.000559181673,1,4845.36133,0,24.2268066,0.000646546541,0.979415119,9.79415131,-0.000111782239,-1.65091149E-06,-0.00144742383,-0.000559181673,0.000283525762,1,2000,-0.00173482357,-2.02776046E-05,1,3128.19043,-0.000207432662,15.6409521,0.00160522526,0.936205506,9.36205482,-0.000181233743,-1.82103406E-06,-0.00173482357,-2.02776046E-05,0.00027098495,1,2000,-0.000847692252,-2.02781284E-05,1,3128.19043,0.000207432633,15.6409521,0.0015976819,0.936205506,9.36205482,-0.000180881427,-6.70321378E-06,-0.000847692252,-2.02781284E-05,0.000212568193,1,-0.000509247126,-0.0530596972,-2.0999856,-0.000509247126,-0.0530513488,-2.00039268,-0.000115856521,-0.00824646372,-1.88028669,-0.000116042786,-0.00825074501,-1.83293414
2026-04-30T18:43:53.8598281Z,14,-0.71999999999999997,Race,true,false,68,Garage Test Track,16,Bullet,0,0,0,-140.37915,1.32109129,190.697708,-2.64993105E-07,-0.0181841888,-0.999834776,-1.00000012,5.1442621E-06,1.71477225E-07,5.14029307E-06,0.999834657,-0.0181841888,-0.000122488666,2.70963828E-05,-0.00449672807,0.000316489866,0.000479573442,-7.75320441E-05,0,1,0,0,0,10,0.0100000007,0.00449847756,0.00449839607,0.00449549221,-0.00407799054,-0.0418737493,0.0100000007,0,0,0,0.100000001,0.100000001,4,977.037354,0.340000004,-1.01863407E-10,-3.1415925,-179.999985,0.018185189,1.04193449,5.14511294E-06,0.000294793252,0.000479573442,-0.0090924697,2.57124498E-06,0.999958694,-1.09122084E-07,-140.37915,2.82512569,195.696335,-8.97886821E-06,-0.198783681,-0.980043471,1.74532926,1,goal_runtime,0x006742EC,0x006742EC,0x0067459C,0x07DD855C,0x00673FF8,0x2B6E29F8,0x2B6E29F8,0x07DD8C7C,0x00673FF8,0x07DDA95C,0x00673FF8,0x2B6E29F8,0x2B6E29F8,2.89999771,165,5,1,0x07DD842C,0x00673FF8,0x07DD855C,0x00673FF8,0x07DD86E0,0x00673FF8,0x07DD87D8,0x00673FF8,0x07DD88D0,0x00673FF8,,,1,0x2B6E46A4,0,0.600000024,0,0,0,-0.017534567,-0.00523396675,-0.000225935612,0,0.00775250047,1,0x2B6E46A4,0,0.600000024,0,0,0,0.0175448209,-0.00586094288,-0.000224359988,0,0.00819733087,1,0x2B6E46A4,0,0.600000024,0,0,0,0.0174505878,-0.00502393534,0.000105690538,6.28310585,0.00757029373,1,0x2B6E46A4,0,0.600000024,0,0,0,-0.0174483731,-0.00504752854,0.000105979765,8.46027688E-05,0.00758828269,1,0,0,0.0100000007,100,-0.0130477631,0.000535314379,-0.0418737493,7.9889669E-06,2.17432389E-05,-0.00407799054,-0.0130477641,2000,-0.00418283464,1.68543065E-05,1,4843.8457,0,24.2192287,0.00571451336,0.979415119,9.79415131,-0.000225935612,-0.00067542051,-0.00418283464,1.68543065E-05,0.000819346344,1,2000,-0.00414604135,1.68544793E-05,1,4843.8457,0,24.2192287,0.00572610507,0.979415119,9.79415131,-0.000224359988,-0.000715286937,-0.00414604135,1.68544793E-05,0.000812139187,1,2000,-0.00399788655,-4.66886413E-05,1,3130.23975,0.000106881926,15.6511984,-0.0056586517,0.936205506,9.36205482,0.000105690538,-0.000663922518,-0.00399788655,-4.66886413E-05,0.000776313129,1,2000,-0.00433099223,-4.66888159E-05,1,3130.23975,-0.000106881911,15.6511984,-0.0056617544,0.936205506,9.36205482,0.000105979765,-0.000665457395,-0.00433099223,-4.66888159E-05,0.000783195428,1,0.000121630721,-0.0112799834,0.709961832,0.000110082321,-0.0112577742,0.755046725,2.66358238E-05,0.0286924262,0.596441329,2.64495593E-05,0.0286861192,0.598991036
2026-04-30T18:43:53.9601763Z,15,-0.62,Race,true,false,68,Garage Test Track,16,Bullet,0,0,0,-140.37915,1.32109392,190.697464,7.39968027E-06,-0.0181828402,-0.999834776,-1.00000012,3.91697904E-06,-7.47213699E-06,4.05219635E-06,0.999834657,-0.0181828402,0.000349435693,2.50044504E-05,-0.00304673868,0.00011208556,-0.000171779524,0.000229670477,0,1,0,0,0,10,0.0100000007,0.00306681381,0.00306671183,0.00304578315,-0.00382972555,0.0782986805,0.0100000007,0,0,0,0.100000001,0.100000001,4,976.166016,0.340000004,0,3.14158535,179.999573,0.0181838404,1.04185724,3.9176266E-06,0.000224463452,-0.000171779524,-0.00909179542,1.99237616E-06,0.999958694,3.71810779E-06,-140.37915,2.8251276,195.696091,-8.97886821E-06,-0.198783517,-0.980043471,1.74532926,1,goal_runtime,0x006742EC,0x006742EC,0x0067459C,0x07DD855C,0x00673FF8,0x2B6E29F8,0x2B6E29F8,0x07DD8C7C,0x00673FF8,0x07DDA95C,0x00673FF8,0x2B6E29F8,0x2B6E29F8,2.99999762,165,5,1,0x07DD842C,0x00673FF8,0x07DD855C,0x00673FF8,0x07DD86E0,0x00673FF8,0x07DD87D8,0x00673FF8,0x07DD88D0,0x00673FF8,,,1,0x2B6E46A4,0,0.600000024,0,0,0,-0.0175357927,-0.0137231061,-0.000205194752,0,0.0137803983,1,0x2B6E46A4,0,0.600000024,0,0,0,0.0175435953,-0.0147163663,-0.000203589487,0,0.0147700775,1,0x2B6E46A4,0,0.600000024,0,0,0,0.0174503159,-0.00553373946,0.000246401818,1.86538418E-05,0.00806545373,1,0x2B6E46A4,0,0.600000024,0,0,0,-0.0174486488,-0.0201060269,0.000246753509,6.28317165,0.02023446,1,0,0,0.0100000007,100,0.0119573046,0.000351100753,0.0782986805,0.000229862635,2.14934425E-05,-0.00382972555,0.0119573055,2000,-0.00363188144,-0.000643233361,1,4843.75195,0,24.2187595,0.00118338037,0.979415119,9.79415131,-0.000205194752,-0.00121335092,-0.00363188144,-0.000643233361,0.000711423927,1,2000,-0.00417628419,-0.000643235049,1,4843.75195,0,24.2187595,0.00117415865,0.979415119,9.79415131,-0.000203589487,-0.00130113075,-0.00417628419,-0.000643235049,0.000818063214,1,2000,-0.00417598384,0.000296533428,1,3130.17383,0,15.6508684,-0.00586288795,0.936205506,9.36205482,0.000246401818,-0.000686398474,-0.00417598384,0.000296533428,0.000781915849,1,2000,-0.00363213965,0.000296535087,1,3130.17383,0,15.6508684,-0.00217998517,0.936205506,9.36205482,0.000246753509,-0.00177774043,-0.00363213965,0.000296535087,0.000680085854,1,-0.000122562036,0.00207408587,0.60278976,-0.000122562036,0.00207705004,0.657274604,-2.71946174E-05,0.0140711274,0.0495159961,-2.75671464E-05,0.0140773738,1.26461768
2026-04-30T18:43:54.0595738Z,16,-0.51999989999999996,Race,true,false,68,Garage Test Track,16,Bullet,0,0,0,-140.37915,1.32109475,190.697342,9.48641809E-06,-0.0181923825,-0.999834776,-1.00000024,4.53578537E-07,-9.49624064E-06,6.26262704E-07,0.999834478,-0.0181923825,0.000295790232,-5.7188372E-06,-0.000424648024,-0.000174065819,0.000198989161,0.000203443022,0,1,0,0,0,10,0.0100000007,0.000517542765,0.000517511158,0.000424684695,-0.0011744377,0.0749789551,0.0100000007,0,0,0,0.100000001,0.100000001,4,975.25824,0.340000004,1.16415322E-10,3.1415832,179.999451,0.0181933809,1.04240394,4.53653627E-07,2.59924363E-05,0.000198989161,-0.00909656659,2.69971451E-07,0.999958694,4.74586068E-06,-140.37915,2.82512808,195.695969,-8.97886821E-06,-0.198783427,-0.980043471,1.74532926,1,goal_runtime,0x006742EC,0x006742EC,0x0067459C,0x07DD855C,0x00673FF8,0x2B6E29F8,0x2B6E29F8,0x07DD8C7C,0x00673FF8,0x07DDA95C,0x00673FF8,0x2B6E29F8,0x2B6E29F8,3.09999752,165,5,1,0x07DD842C,0x00673FF8,0x07DD855C,0x00673FF8,0x07DD86E0,0x00673FF8,0x07DD87D8,0x00673FF8,0x07DD88D0,0x00673FF8,,,1,0x2B6E46A4,0,0.600000024,0,0,0,-0.0175392535,-0.0298412889,-0.000730303582,0,0.0301570892,1,0x2B6E46A4,0,0.600000024,0,0,0,0.0175402462,-0.0104718758,-0.000728825398,0,0.0113034565,1,0x2B6E46A4,0,0.600000024,0,0,0,0.0174495894,-0.00809024554,0.000350336079,6.28312874,0.00982297026,1,0x2B6E46A4,0,0.600000024,0,0,0,-0.0174493678,-0.00879209116,0.000351051975,6.19983548E-05,0.0102217989,1,0,0,0.0100000007,100,-0.00727236271,-0.000330642535,0.0749789551,0.000368513865,-2.41241173E-06,-0.0011744377,-0.00727236317,2000,-0.00124759553,-0.000322056614,1,4844.98193,0,24.2249088,0.00420962181,0.979415119,9.79415131,-0.000730303698,-0.00263912347,-0.00124759553,-0.000322056614,0.000244382798,1,2000,-0.00105027843,-0.000322056818,1,4844.98193,0,24.2249088,0.00424213801,0.979415119,9.79415131,-0.000728825515,-0.000926838431,-0.00105027843,-0.000322056818,0.000205731718,1,2000,-0.000413956761,-0.000663282,1,3128.35645,0.000459071802,15.6417818,-0.00556372199,0.936205506,9.36205482,0.000350336079,-0.000823962153,-0.000413956761,-0.000663282,0.000196675537,1,2000,-0.00188393053,-0.000663281884,1,3128.35645,-0.000459071802,15.6417818,-0.00520508224,0.936205506,9.36205482,0.000351051975,-0.000860508066,-0.00188393053,-0.000663281884,0.000233583429,1,-0.00034607944,-0.0525108799,1.63766897,-0.000334903569,-0.0525235869,-0.346662074,-7.26431535E-05,0.0103934249,0.175751641,-7.18980955E-05,0.0104298461,-1.001266
2026-04-30T18:43:54.1599169Z,17,-0.41999989999999998,Race,true,false,68,Garage Test Track,16,Bullet,0,0,0,-140.37915,1.32109427,190.697128,3.04554487E-06,-0.0181867089,-0.999834776,-1.00000012,6.24892118E-06,-3.15971465E-06,6.3053526E-06,0.999834597,-0.0181867089,-0.000101073187,-1.96213227E-06,-0.0010715496,-8.57297418E-05,-5.35194595E-05,-7.46002406E-05,0,1,0,0,0,10,0.0100000007,0.00107630761,0.00107630587,0.00107140793,0.000752052292,-0.182360172,0.0100000007,0,0,0,0.100000001,0.100000001,4,974.316528,0.340000004,5.82076609E-11,3.14158964,179.999817,0.0181877092,1.04207897,6.24995482E-06,0.000358096004,-5.35194595E-05,-0.00909372978,3.13869805E-06,0.999958694,1.551379E-06,-140.37915,2.82512712,195.695755,-8.97886821E-06,-0.198783323,-0.980043471,1.74532926,1,goal_runtime,0x006742EC,0x006742EC,0x0067459C,0x07DD855C,0x00673FF8,0x2B6E29F8,0x2B6E29F8,0x07DD8C7C,0x00673FF8,0x07DDA95C,0x00673FF8,0x2B6E29F8,0x2B6E29F8,3.19999743,165,5,1,0x07DD842C,0x00673FF8,0x07DD855C,0x00673FF8,0x07DD86E0,0x00673FF8,0x07DD87D8,0x00673FF8,0x07DD88D0,0x00673FF8,,,1,0x2B6E46A4,0,0.600000024,0,0,0,-0.0175334606,0.000330277486,-0.000139726049,0,0.0020188191,1,0x2B6E46A4,0,0.600000024,0,0,0,0.0175459236,0.000312828313,-0.000138573101,0,0.00196900801,1,0x2B6E46A4,0,0.600000024,0,0,0,0.0174508579,0.000299463456,-2.70990531E-05,6.28310394,0.00184902421,1,0x2B6E46A4,0,0.600000024,0,0,0,-0.0174482223,0.000250958547,-2.64010123E-05,8.72313904E-05,0.00169360638,1,0,0,0.0100000007,100,-0.0315618925,-0.000736091635,-0.182360172,0.00021454574,5.39878511E-06,0.000752052292,-0.0315618925,2000,0.000917168858,-0.000333940581,1,4845.62744,0,24.2281361,0.0019907176,0.979415119,9.79415131,-0.000139726049,0.000163671459,0.000917168858,-0.000333940581,0.000179657814,1,2000,0.000816476939,-0.000333941018,1,4845.62744,0,24.2281361,0.00194320013,0.979415119,9.79415131,-0.000138573101,0.000158939743,0.000816476939,-0.000333941018,0.000159933988,1,2000,0.00118300389,-0.000160362426,1,3127.36035,0.000264344097,15.6368017,0.00182387407,0.936205506,9.36205482,-2.70990531E-05,0.000162021446,0.00118300389,-0.000160362426,0.000152888533,1,2000,0.000550649478,-0.000160362979,1,3127.36035,-0.000264343951,15.6368017,0.0016741415,0.936205506,9.36205482,-2.64010123E-05,0.000148246472,0.000550649478,-0.000160362979,0.000171722597,1,0.000579282583,0.0590577498,-2.8138268,0.000567734183,0.0590252243,-0.933444798,0.00012684612,-0.0377435088,-0.797394514,0.000114552669,-0.037745297,-0.852819204
2026-04-30T18:43:54.2593251Z,18,-0.3199999,Race,true,false,68,Garage Test Track,16,Bullet,0,0,0,-140.37915,1.32109523,190.696838,-1.03818093E-06,-0.0181775782,-0.999834776,-1,4.3649593E-06,9.58995088E-07,4.34680578E-06,0.999834776,-0.0181775782,0.000530000369,9.63834282E-06,-0.00415957533,0.000284293259,0.000191488391,0.000434713234,0,1,0,0,0,10,0.0100000007,0.0041932161,0.00419320492,0.00415871246,-0.00296916137,-0.119041383,0.0100000007,0,0,0,0.100000001,0.100000001,4,973.332153,0.340000004,5.82076609E-11,-3.14159155,-179.999924,0.0181785785,1.04155576,4.36568052E-06,0.000250135054,0.000191488391,-0.00908916444,2.17803131E-06,0.999958694,-4.99314638E-07,-140.37915,2.82512784,195.695465,-8.97889458E-06,-0.198783845,-0.980043352,1.74532926,1,goal_runtime,0x006742EC,0x006742EC,0x0067459C,0x07DD855C,0x00673FF8,0x2B6E29F8,0x2B6E29F8,0x07DD8C7C,0x00673FF8,0x07DDA95C,0x00673FF8,0x2B6E29F8,0x2B6E29F8,3.29999733,165,5,1,0x07DD842C,0x00673FF8,0x07DD855C,0x00673FF8,0x07DD86E0,0x00673FF8,0x07DD87D8,0x00673FF8,0x07DD88D0,0x00673FF8,,,1,0x2B6E46A4,0,0.600000024,0,0,0,-0.0175352283,-0.00116182049,0.000180936084,0,0.00370290293,1,0x2B6E46A4,0,0.600000024,0,0,0,0.0175440442,-0.000932259194,0.000182175936,0,0.00333420909,1,0x2B6E46A4,0,0.600000024,0,0,0,0.0174505264,-0.000967962435,0.000102541555,6.28305912,0.00337262475,1,0x2B6E46A4,0,0.600000024,0,0,0,-0.0174485594,-0.000924753549,0.000103108687,0.000131475754,0.00330056204,1,0,0,0.0100000007,100,0.0456079878,0.00021823874,-0.119041383,7.39204552E-05,7.45595526E-06,-0.00296916137,0.0456079915,2000,-0.00319715147,0.000141803772,1,4843.92676,0,24.2196331,-0.00351432897,0.979415119,9.79415131,0.000180936084,-0.000313887111,-0.00319715147,0.000141803772,0.000626267749,1,2000,-0.00282340054,0.000141803728,1,4843.92676,0,24.2196331,-0.00319976103,0.979415119,9.79415131,0.000182175936,-0.000279722241,-0.00282340054,0.000141803728,0.000553056248,1,2000,-0.00304461853,-0.000503702788,1,3129.88428,-0.000159421281,15.6494207,-0.00322923553,0.936205506,9.36205482,0.000102541555,-0.000287127943,-0.00304461853,-0.000503702788,0.000528695178,1,2000,-0.00297595933,-0.000503702846,1,3129.88428,0.000159421281,15.6494207,-0.00316693285,0.936205506,9.36205482,0.000103108687,-0.000280297449,-0.00297595933,-0.000503702846,0.0005986045,1,-0.00017676501,0.0320662111,0.168408379,-0.000187940881,0.0320749022,0.136520103,-3.315508E-05,0.0129640605,0.152360037,-3.37138736E-05,0.0129509689,0.160695553
2026-04-30T18:43:54.3593125Z,19,-0.2199999,Race,true,false,68,Garage Test Track,16,Bullet,0,0,0,-140.37915,1.32109642,190.696579,-3.10984638E-06,-0.0181776714,-0.999834776,-1,5.89984347E-06,3.00309716E-06,5.84427971E-06,0.999834776,-0.0181776714,7.31831096E-05,3.94282233E-06,-0.00383462198,0.000192279767,8.41278525E-05,8.52131416E-05,0,1,0,0,0,10,0.0100000007,0.00383532234,0.00383532024,0.0038339165,-0.00386141753,0.00267955451,0.0100000007,0,0,0,0.100000001,0.100000001,4,972.307922,0.340000004,0,-3.14158964,-179.999817,0.0181786716,1.04156113,5.90081845E-06,0.000338091981,8.41278525E-05,-0.009089211,2.93615199E-06,0.999958694,-1.52829898E-06,-140.37915,2.82512856,195.695206,-8.97889458E-06,-0.198783755,-0.980043352,1.74532926,1,goal_runtime,0x006742EC,0x006742EC,0x0067459C,0x07DD855C,0x00673FF8,0x2B6E29F8,0x2B6E29F8,0x07DD8C7C,0x00673FF8,0x07DDA95C,0x00673FF8,0x2B6E29F8,0x2B6E29F8,3.39999723,165,5,1,0x07DD842C,0x00673FF8,0x07DD855C,0x00673FF8,0x07DD86E0,0x00673FF8,0x07DD87D8,0x00673FF8,0x07DD88D0,0x00673FF8,,,1,0x2B6E46A4,0,0.600000024,0,0,0,-0.0175336935,-0.00924453326,0.000228938137,0,0.0102729993,1,0x2B6E46A4,0,0.600000024,0,0,0,0.017545579,-0.00770571036,0.000230434438,0,0.00938699581,1,0x2B6E46A4,0,0.600000024,0,0,0,0.0174508691,-0.0161425117,-0.000183538854,6.28289604,0.0162315629,1,0x2B6E46A4,0,0.600000024,0,0,0,-0.0174482148,-0.00111331581,-0.000183051248,0.000294495607,0.00373819587,1,0,0,0.0100000007,100,0.0300757736,0.000335180695,0.00267955451,-0.000227574666,5.91015009E-07,-0.00386141753,0.0300757755,2000,-0.00420363201,0.000638520229,1,4843.62695,0,24.2181339,-0.00446989434,0.979415119,9.79415131,0.000228938137,-0.000900284038,-0.00420363201,0.000638520229,0.000823420181,1,2000,-0.0036535461,0.000638516154,1,4843.62695,0,24.2181339,-0.00535358302,0.979415119,9.79415131,0.000230434438,-0.000821250374,-0.0036535461,0.000638516154,0.000715667731,1,2000,-0.00477407128,-0.000311060896,1,3130.28442,-0.000808040961,15.6514215,0.00162151107,0.936205506,9.36205482,-0.000183538854,-0.00142723718,-0.00477407128,-0.000311060896,0.000684151251,1,2000,-0.00308314851,-0.000311061856,1,3130.28442,0.000808040961,15.6514215,0.0035669764,0.936205506,9.36205482,-0.000183051248,-0.000297942344,-0.00308314851,-0.000311061856,0.00078704342,1,0.000153481946,0.00480020512,0.657009542,0.000153481946,0.00482585002,0.605278611,3.42726671E-05,-0.028608039,1.2858938,3.44589316E-05,-0.0286159907,0.0437633805
2026-04-30T18:43:54.4593755Z,20,-0.11999990000000001,Race,true,false,68,Garage Test Track,16,Bullet,0,0,0,-140.37915,1.32109559,190.696426,-1.07387359E-05,-0.0181890428,-0.999834776,-1.00000024,9.56860094E-06,1.05664394E-05,9.374824E-06,0.999834538,-0.0181890428,-0.000311070326,-2.16366498E-05,-0.00110783405,-0.000138789313,-0.000196041961,-0.000208888247,0,1,0,0,0,10,0.0100000007,0.00115088187,0.00115067849,0.0011080479,-0.00173598225,0.0628148168,0.0100000007,0,0,0,0.100000001,0.100000001,4,971.235229,0.340000004,1.16415322E-10,-3.14158201,-179.999374,0.0181900412,1.04221249,9.57018437E-06,0.000548331125,-0.000196041961,-0.00909489673,4.73605178E-06,0.999958694,-5.32651393E-06,-140.37915,2.8251276,195.695053,-8.97886912E-06,-0.198783174,-0.98004353,1.74532926,1,goal_runtime,0x006742EC,0x006742EC,0x0067459C,0x07DD855C,0x00673FF8,0x2B6E29F8,0x2B6E29F8,0x07DD8C7C,0x00673FF8,0x07DDA95C,0x00673FF8,0x2B6E29F8,0x2B6E29F8,3.49999714,165,5,1,0x07DD842C,0x00673FF8,0x07DD855C,0x00673FF8,0x07DD86E0,0x00673FF8,0x07DD87D8,0x00673FF8,0x07DD88D0,0x00673FF8,,,1,0x2B6E46A4,0,0.600000024,0,0,0,-0.0175301414,-0.00927434023,0.000866690301,0,0.010877057,1,0x2B6E46A4,0,0.600000024,0,0,0,0.0175492428,-0.0281908028,0.000868284784,0,0.0286502894,1,0x2B6E46A4,0,0.600000024,0,0,0,0.0174516719,-0.00637372583,-0.000672332826,6.28305149,0.00959376059,1,0x2B6E46A4,0,0.600000024,0,0,0,-0.0174474046,-0.00849793199,-0.000671417918,0.000139532392,0.0107399328,1,0,0,0.0100000007,100,0.00461480487,-0.000112993614,0.0628148168,-0.000357218378,-2.05067136E-05,-0.00173598225,0.00461480534,2000,-0.0017749028,0.000510421756,1,4844.84229,0,24.2242107,-0.00567378988,0.979415119,9.79415131,0.000866690534,-0.000853030593,-0.0017749028,0.000510421756,0.000347673369,1,2000,-0.00166038307,0.000510421698,1,4844.84229,0,24.2242107,-0.00500508631,0.979415119,9.79415131,0.000868285017,-0.00249317684,-0.00166038307,0.000510421698,0.000325240893,1,2000,-0.00215314515,0.000313148514,1,3128.68262,-0.000355394644,15.6434126,0.00716491835,0.936205506,9.36205482,-0.000672332942,-0.000664649822,-0.00215314515,0.000313148514,0.000310903997,1,2000,-0.00128214946,0.000313148776,1,3128.68262,0.000355394586,15.6434126,0.00655980268,0.936205506,9.36205482,-0.000671418034,-0.000791590544,-0.00128214946,0.000313148776,0.000332324387,1,0.000355206401,0.0637752116,0.0604057647,0.000366382272,0.0637850314,1.92632926,8.02799987E-05,-0.0488793924,-0.663780212,8.10250567E-05,-0.0488366671,0.700173676
2026-04-30T18:43:54.5598274Z,21,-0.019999900000000001,Race,true,false,68,Garage Test Track,16,Bullet,0,0,0,-140.379135,1.3210932,190.696213,-1.28954809E-07,-0.0181878135,-0.999834776,-1.00000024,5.30577518E-06,3.2459738E-08,5.30430725E-06,0.999834597,-0.0181878135,-5.7573674E-05,-8.72483633E-06,0.000708525884,-0.00038298947,0.000305117574,-1.90790906E-05,0,1,0,0,0,10,0.0100000007,0.000710914726,0.000710861175,-0.000708250154,-0.000773545296,0.148207098,0.0100000007,0,0,0,0.100000001,0.100000001,4,970.11731,0.340000004,0,-3.1415925,-179.999985,0.0181888137,1.04214215,5.30665284E-06,0.000304048794,0.000305117574,-0.00909428205,2.6526302E-06,0.999958694,-4.03553031E-08,-140.379135,2.82512522,195.694839,-8.97886912E-06,-0.198783159,-0.98004353,1.74532926,1,goal_runtime,0x006742EC,0x006742EC,0x0067459C,0x07DD855C,0x00673FF8,0x2B6E29F8,0x2B6E29F8,0x07DD8C7C,0x00673FF8,0x07DDA95C,0x00673FF8,0x2B6E29F8,0x2B6E29F8,3.59999704,165,5,1,0x07DD842C,0x00673FF8,0x07DD855C,0x00673FF8,0x07DD86E0,0x00673FF8,0x07DD87D8,0x00673FF8,0x07DD88D0,0x00673FF8,,,1,0x2B6E46A4,0,0.600000024,0,0,0,-0.0175344031,-0.0207346771,-3.55059456E-06,0,0.0207457449,1,0x2B6E46A4,0,0.600000024,0,0,0,0.0175451003,-0.0215939898,-2.26919656E-06,0,0.0216056984,1,0x2B6E46A4,0,0.600000024,0,0,0,0.0174506307,-0.0189510304,0.00014721934,6.28308868,0.0190053247,1,0x2B6E46A4,0,0.600000024,0,0,0,-0.0174483303,-0.0217314549,0.000147912098,0.000102516256,0.0217826273,1,0,0,0.0100000007,100,0.0115152653,-0.000180905161,0.148207098,-0.000172726344,-6.91578452E-06,-0.000773545296,0.0115152663,2000,-0.000967968896,0.000552260026,1,4845.11572,0,24.2255783,2.08939582E-05,0.979415119,9.79415131,-3.55059456E-06,-0.00183338206,-0.000967968896,0.000552260026,0.000189608691,1,2000,-0.000459027622,0.000552263053,1,4845.11572,0,24.2255783,1.20631321E-05,0.979415119,9.79415131,-2.26919656E-06,-0.00190938008,-0.000459027622,0.000552263053,8.99157239E-05,1,2000,-0.000351621507,-0.000326344685,1,3128.35107,7.76749293E-05,15.6417551,-0.00130118651,0.936205506,9.36205482,0.00014721934,-0.00167564501,-0.000351621507,-0.000326344685,8.6000844E-05,1,2000,-0.00107540865,-0.000326343026,1,3128.35107,-7.76749366E-05,15.6417551,-0.00130727841,0.936205506,9.36205482,0.000147912098,-0.00192152942,-0.00107540865,-0.000326343026,0.000181197858,1,-0.000426173181,-0.0870240852,0.986868739,-0.000414252252,-0.0870553926,-0.704459071,-0.000104121857,0.0819552094,0.941156328,-9.25734566E-05,0.0819329917,1.10426939
2026-04-30T18:43:54.6602938Z,22,0.079999899999999999,Race,true,false,68,Garage Test Track,16,Bullet,0,0,0,-140.379135,1.32109308,190.695969,1.72141006E-06,-0.0181858279,-0.999834776,-1.00000012,9.06824516E-06,-1.88663569E-06,9.10105609E-06,0.999834597,-0.0181858279,-0.000311542564,8.18859405E-07,-0.00176643045,-2.82916644E-05,-8.97653372E-05,-0.000238263368,0,0,0,0,0,10,0.0100000007,0.0017936934,0.00179369317,0.00176612311,-0.000808426412,-0.0958003998,0.0100000007,0,0,0,0.100000001,0.100000001,4,968.957031,0.340000004,0,3.14159083,179.999893,0.0181868281,1.04202843,9.06974492E-06,0.00051965809,-8.97653372E-05,-0.00909328926,4.54251312E-06,0.999958694,9.02048669E-07,-140.379135,2.82512522,195.694595,-8.97886912E-06,-0.198783174,-0.98004353,1.74532926,1,goal_runtime,0x006742EC,0x006742EC,0x0067459C,0x07DD855C,0x00673FF8,0x2B6E29F8,0x2B6E29F8,0x07DD8C7C,0x00673FF8,0x07DDA95C,0x00673FF8,0x2B6E29F8,0x2B6E29F8,3.69999695,165,5,1,0x07DD842C,0x00673FF8,0x07DD855C,0x00673FF8,0x07DD86E0,0x00673FF8,0x07DD87D8,0x00673FF8,0x07DD88D0,0x00673FF8,,,1,0x2B6E46A4,0,0.600000024,0,0,0,-0.0175306406,-2.7319627E-06,7.0623646E-05,0,0.000415275223,1,0x2B6E46A4,0,0.600000024,0,0,0,0.0175487436,-3.93917117E-06,7.19678937E-05,0,0.000426880782,1,0x2B6E46A4,0,0.600000024,0,0,0,0.0174515322,-6.25956716E-07,-2.6201451E-07,6.28304577,8.42356603E-05,1,0x2B6E46A4,0,0.600000024,0,0,0,-0.017447548,-0.0219609533,4.99130692E-07,0.000144920152,0.0219729673,1,0,0,0.0100000007,100,0.0125098648,-0.000301135908,-0.0958003998,-0.000436641218,3.8302187E-06,-0.000808426412,0.0125098657,2000,-0.000876871985,0.000709996792,1,4845.10352,0,24.2255173,-0.000415034039,0.979415119,9.79415131,7.0623646E-05,-6.58236058E-06,-0.000876871985,0.000709996792,0.000171764361,1,2000,-0.000629872491,0.000709998247,1,4845.10352,0,24.2255173,-0.000426707353,0.979415119,9.79415131,7.19678937E-05,-9.23115931E-06,-0.000629872491,0.000709998247,0.000123381338,1,2000,-0.000630009337,0.000284082926,1,3128.25879,0,15.6412935,8.41157162E-05,0.936205506,9.36205482,-2.6201451E-07,-7.4414088E-06,-0.000630009337,0.000284082926,0.000117963646,1,2000,-0.000876752019,0.000284083944,1,3128.25879,0,15.6412935,-0,0.936205506,9.36205482,4.99130692E-07,-0.00194183737,-0.000876752019,0.000284083944,0.000164164012,1,0.000376254291,0.00741742365,-2.03304696,0.000364333362,0.00742370868,-2.11788154,9.01520179E-05,-0.0147481356,-1.89210868,7.8231089E-05,-0.0147412959,0.0190339964
