timestamp_utc,sample_index,race_time_seconds,game_state,is_racing,is_paused,level_id,level_name,car_id,car_name,player_steer,player_throttle,player_brake,position_x,position_y,position_z,forward_x,forward_y,forward_z,right_x,right_y,right_z,up_x,up_y,up_z,velocity_x,velocity_y,velocity_z,angular_velocity_x,angular_velocity_y,angular_velocity_z,vehicle_applied_throttle,vehicle_applied_brake,vehicle_applied_handbrake,vehicle_control_candidate_1dfc,vehicle_applied_steer,vehicle_frame_delta_ms,vehicle_frame_delta_seconds,speed_magnitude,planar_speed_magnitude,yaw_radians,yaw_degrees,pitch_radians,pitch_degrees,roll_radians,roll_degrees,yaw_rate,quat_x,quat_y,quat_z,quat_w,camera_position_x,camera_position_y,camera_position_z,camera_forward_x,camera_forward_y,camera_forward_z,camera_fov,camera_mode_index,camera_family,camera_tracker_vtable,camera_tracker_slot_a_vtable,camera_tracker_slot_b_vtable,camera_output_active_profile_ptr,camera_output_active_profile_vtable,camera_output_source_node_ptr,camera_output_target_node_ptr,camera_goal_view_active_profile_ptr,camera_goal_view_active_profile_vtable,camera_goal_view_active_clip_ptr,camera_goal_view_active_clip_vtable,camera_goal_view_source_node_ptr,camera_goal_view_target_node_ptr,camera_goal_view_runtime_seconds,camera_goal_view_dirty_flag,player_camera_list_count,player_camera_active_profile_index,player_camera_list_0_ptr,player_camera_list_0_vtable,player_camera_list_1_ptr,player_camera_list_1_vtable,player_camera_list_2_ptr,player_camera_list_2_vtable,player_camera_list_3_ptr,player_camera_list_3_vtable,player_camera_list_4_ptr,player_camera_list_4_vtable,player_camera_list_5_ptr,player_camera_list_5_vtable,wheel_0_contact_flag,wheel_0_contact_ptr,wheel_0_contact_surface_44_candidate,wheel_0_contact_surface_48_candidate,wheel_0_contact_surface_4c_candidate,wheel_0_contact_surface_50_candidate,wheel_0_contact_surface_54_candidate,wheel_0_suspension_length_candidate,wheel_0_tire_force_multiplier_candidate,wheel_0_load_or_spin_candidate,wheel_0_rotation_or_phase_candidate,wheel_0_vertical_load_candidate,wheel_1_contact_flag,wheel_1_contact_ptr,wheel_1_contact_surface_44_candidate,wheel_1_contact_surface_48_candidate,wheel_1_contact_surface_4c_candidate,wheel_1_contact_surface_50_candidate,wheel_1_contact_surface_54_candidate,wheel_1_suspension_length_candidate,wheel_1_tire_force_multiplier_candidate,wheel_1_load_or_spin_candidate,wheel_1_rotation_or_phase_candidate,wheel_1_vertical_load_candidate,wheel_2_contact_flag,wheel_2_contact_ptr,wheel_2_contact_surface_44_candidate,wheel_2_contact_surface_48_candidate,wheel_2_contact_surface_4c_candidate,wheel_2_contact_surface_50_candidate,wheel_2_contact_surface_54_candidate,wheel_2_suspension_length_candidate,wheel_2_tire_force_multiplier_candidate,wheel_2_load_or_spin_candidate,wheel_2_rotation_or_phase_candidate,wheel_2_vertical_load_candidate,wheel_3_contact_flag,wheel_3_contact_ptr,wheel_3_contact_surface_44_candidate,wheel_3_contact_surface_48_candidate,wheel_3_contact_surface_4c_candidate,wheel_3_contact_surface_50_candidate,wheel_3_contact_surface_54_candidate,wheel_3_suspension_length_candidate,wheel_3_tire_force_multiplier_candidate,wheel_3_load_or_spin_candidate,wheel_3_rotation_or_phase_candidate,wheel_3_vertical_load_candidate,vehicle_candidate_1de8,vehicle_candidate_1dec,vehicle_candidate_1df0,vehicle_candidate_1e08,vehicle_candidate_1e18,vehicle_candidate_1e1c,vehicle_candidate_1e20,vehicle_candidate_1e24,wheel_0_candidate_0320,wheel_0_candidate_0324,wheel_0_candidate_0328,wheel_0_candidate_0338,wheel_0_candidate_0344,wheel_0_candidate_036c,wheel_0_candidate_0370,wheel_0_candidate_0374,wheel_0_candidate_037c,wheel_0_candidate_0380,wheel_0_candidate_0384,wheel_0_candidate_038c,wheel_0_candidate_0390,wheel_0_candidate_0394,wheel_0_candidate_0398,wheel_0_candidate_039c,wheel_1_candidate_0320,wheel_1_candidate_0324,wheel_1_candidate_0328,wheel_1_candidate_0338,wheel_1_candidate_0344,wheel_1_candidate_036c,wheel_1_candidate_0370,wheel_1_candidate_0374,wheel_1_candidate_037c,wheel_1_candidate_0380,wheel_1_candidate_0384,wheel_1_candidate_038c,wheel_1_candidate_0390,wheel_1_candidate_0394,wheel_1_candidate_0398,wheel_1_candidate_039c,wheel_2_candidate_0320,wheel_2_candidate_0324,wheel_2_candidate_0328,wheel_2_candidate_0338,wheel_2_candidate_0344,wheel_2_candidate_036c,wheel_2_candidate_0370,wheel_2_candidate_0374,wheel_2_candidate_037c,wheel_2_candidate_0380,wheel_2_candidate_0384,wheel_2_candidate_038c,wheel_2_candidate_0390,wheel_2_candidate_0394,wheel_2_candidate_0398,wheel_2_candidate_039c,wheel_3_candidate_0320,wheel_3_candidate_0324,wheel_3_candidate_0328,wheel_3_candidate_0338,wheel_3_candidate_0344,wheel_3_candidate_036c,wheel_3_candidate_0370,wheel_3_candidate_0374,wheel_3_candidate_037c,wheel_3_candidate_0380,wheel_3_candidate_0384,wheel_3_candidate_038c,wheel_3_candidate_0390,wheel_3_candidate_0394,wheel_3_candidate_0398,wheel_3_candidate_039c
2026-04-28T13:22:51.7570740Z,1,-2.23,Race,true,false,68,Garage Test Track,16,Bullet,0,0,0,-140.379166,1.32117474,190.701172,4.40381109E-06,-0.0181029309,-0.999836445,-1.00000036,5.08008225E-06,-4.49651225E-06,5.16064983E-06,0.999836147,-0.0181029309,0.000176369358,-0.000699625351,-0.00109654432,-0.000771574152,0.000164646946,0.000170006548,0,1,0,0,0,10,0.0100000007,0.00131262757,0.00111063744,3.14158821,179.999741,0.0181039143,1.03727782,5.08091489E-06,0.000291114964,0.000164646946,-0.00905183516,2.56028761E-06,0.999959111,2.22517178E-06,-140.379166,2.8251586,195.699814,-8.97893915E-06,-0.198774382,-0.980045199,1.74532926,1,goal_runtime,0x006742EC,0x006742EC,0x0067459C,0x07DB855C,0x00673FF8,0x2B837180,0x2B837180,0x07DB8C7C,0x00673FF8,0x07DBA95C,0x00673FF8,0x2B837180,0x2B837180,1.58999884,0,5,1,0x07DB842C,0x00673FF8,0x07DB855C,0x00673FF8,0x07DB86E0,0x00673FF8,0x07DB87D8,0x00673FF8,0x07DB88D0,0x00673FF8,,,1,0x2B838E2C,0,0.600000024,0,0,0,-0.0175340604,0.000300434651,-9.59283861E-05,0,0.00188596977,1,0x2B838E2C,0,0.600000024,0,0,0,0.0175441876,-0.0206857659,-9.54567658E-05,0,0.0207041092,1,0x2B838E2C,0,0.600000024,0,0,0,0.0174506698,-0.000160971555,0.000382564001,0.000181980038,0.00341782044,1,0x2B838E2C,0,0.600000024,0,0,0,-0.0174484625,0.000580499705,0.000382957689,6.28300762,0.00380632305,1,0,0,0.0100000007,-0.076180771,3.93810878E-05,-0.000678821525,-0.000334736542,2000,0.000299451698,-0.000534054881,1,4842.68701,0,24.2134342,0.00186103664,0.979415119,9.79415131,-9.59283861E-05,0.000159370713,0.000299451698,-0.000534054881,5.86575079E-05,1,2000,-0.000421922829,-0.000534050458,1,4842.68701,0,24.2134342,0.000550665776,0.979415119,9.79415131,-9.54567658E-05,-0.00182905153,-0.000421922829,-0.000534050458,8.26475298E-05,1,2000,-0.000421527831,0.000711557281,1,3129.12158,0,15.6456079,-0.0034125743,0.936205506,9.36205482,0.000382564031,-4.71177336E-05,-0.000421527831,0.000711557281,7.89273399E-05,1,2000,0.000299112173,0.000711559551,1,3129.12158,0,15.6456079,-0.00376020512,0.936205506,9.36205482,0.000382957718,0.000152572378,0.000299112173,0.000711559551,5.6006098E-05,1
2026-04-28T13:22:51.8322772Z,2,-2.1300001000000002,Race,true,false,68,Garage Test Track,16,Bullet,0,0,0,-140.379166,1.32112455,190.701096,-5.16476075E-06,-0.0181549881,-0.999835253,-1.00000012,9.53560811E-06,4.99246516E-06,9.44339808E-06,0.999835193,-0.0181549881,-2.75088096E-05,-0.00070196524,-0.000138068674,-0.000903645181,-7.96968307E-05,2.63137827E-05,0,1,0,0,0,20,0.0200000014,0.000715943344,0.000140782431,-3.1415875,-179.999695,0.0181559846,1.04026127,9.53717972E-06,0.000546440133,-7.96968307E-05,-0.00907786749,4.74494709E-06,0.999958813,-2.53941107E-06,-140.379166,2.82511806,195.699738,-8.97888276E-06,-0.198775202,-0.98004508,1.74532926,1,goal_runtime,0x006742EC,0x006742EC,0x0067459C,0x07DB855C,0x00673FF8,0x2B837180,0x2B837180,0x07DB8C7C,0x00673FF8,0x07DBA95C,0x00673FF8,0x2B837180,0x2B837180,1.65999877,0,5,1,0x07DB842C,0x00673FF8,0x07DB855C,0x00673FF8,0x07DB86E0,0x00673FF8,0x07DB87D8,0x00673FF8,0x07DB88D0,0x00673FF8,,,1,0x2B838E2C,0,0.600000024,0,0,0,-0.0175299458,-0.0106517961,0.000707574131,0,0.0114114285,1,0x2B838E2C,0,0.600000024,0,0,0,0.0175489839,-0.0301684123,0.000707947067,0,0.0304637291,1,0x2B838E2C,0,0.600000024,0,0,0,0.0174516514,-0.0104669761,-0.000115403411,0.000142205245,0.0109094176,1,0x2B838E2C,0,0.600000024,0,0,0,-0.0174474474,8.90287265E-05,-0.00011481301,6.28304768,0.00128243945,1,0,0,0.0100000007,0.0616604015,-0.000314145029,-0.000716886367,-0.0013712768,2000,-0.000143636207,3.06130314E-05,1,4846.3291,0,24.2316456,-0.00407976471,0.979415119,9.79415131,0.000707574247,-0.000941408158,-0.000143636207,3.06130314E-05,2.81358971E-05,1,2000,-0.000592549972,3.06140391E-05,1,4846.3291,0,24.2316456,-0.00407940103,0.979415119,9.79415131,0.000707947183,-0.00266806036,-0.000592549972,3.06140391E-05,0.000116070492,1,2000,-0.00109435397,0.000806159864,1,3128.01636,-0.000362139603,15.6400814,0.00305839302,0.936205506,9.36205482,-0.000115403411,-0.000959863712,-0.00109435397,0.000806159864,0.000110903886,1,2000,0.000358200108,0.000806159049,1,3128.01636,0.000362139544,15.6400814,0.00127883744,0.936205506,9.36205482,-0.00011481301,6.94488335E-05,0.000358200108,0.000806159049,2.69343564E-05,1
2026-04-28T13:22:51.9319478Z,3,-2.0299999,Race,true,false,68,Garage Test Track,16,Bullet,0,0,0,-140.37915,1.32106805,190.700821,1.95146939E-07,-0.0182033014,-0.999834299,-1,4.91222545E-06,-2.84612838E-07,4.91659284E-06,0.999834299,-0.0182033014,4.90684433E-05,-0.000434562186,-0.00280978135,-0.000312492775,-1.12001981E-05,2.01383027E-05,0,1,0,0,0,20,0.0200000014,0.00284361094,0.00281020976,3.1415925,179.999985,0.0182043072,1.0430299,4.91303945E-06,0.00028149641,-1.12001981E-05,-0.00910202786,2.45730644E-06,0.999958575,1.19944914E-07,-140.37915,2.8250773,195.699463,-8.97885093E-06,-0.198777854,-0.980044603,1.74532926,1,goal_runtime,0x006742EC,0x006742EC,0x0067459C,0x07DB855C,0x00673FF8,0x2B837180,0x2B837180,0x07DB8C7C,0x00673FF8,0x07DBA95C,0x00673FF8,0x2B837180,0x2B837180,1.75999868,0,5,1,0x07DB842C,0x00673FF8,0x07DB855C,0x00673FF8,0x07DB86E0,0x00673FF8,0x07DB87D8,0x00673FF8,0x07DB88D0,0x00673FF8,,,1,0x2B838E2C,0,0.600000024,0,0,0,-0.0175349098,-2.65662243E-06,9.80731929E-05,0,0.000569277559,1,0x2B838E2C,0,0.600000024,0,0,0,0.0175448209,-3.1721595E-06,9.83919817E-05,0,0.000568876334,1,0x2B838E2C,0,0.600000024,0,0,0,0.0174505897,-2.38628786E-06,-6.52001399E-05,0.000184733275,0.000579646847,1,0x2B838E2C,0,0.600000024,0,0,0,-0.0174484793,-3.36049834E-06,-6.46674889E-05,6.28300524,0.000574708101,1,0,0,0.0100000007,-0.169167027,6.0661597E-07,-0.000490150356,0.000573559548,2000,-0.00110651681,-1.63624154E-05,1,4848.76465,0,24.2438221,-0.000569055206,0.979415119,9.79415131,9.80731929E-05,-4.66842812E-06,-0.00110651681,-1.63624154E-05,0.000216747867,1,2000,-0.00103210774,-1.63623699E-05,1,4848.76465,0,24.2438221,-0.00056857575,0.979415119,9.79415131,9.83919817E-05,-5.57904605E-06,-0.00103210774,-1.63623699E-05,0.000202172392,1,2000,-0.00106403581,-0.000144925376,1,3127.5542,-2.30007809E-05,15.6377707,0.000579308486,0.936205506,9.36205482,-6.52001399E-05,-4.11916608E-06,-0.00106403581,-0.000144925376,0.000193260712,1,2000,-0.00107459398,-0.000144925449,1,3127.5542,2.300079E-05,15.6377707,0.000574416015,0.936205506,9.36205482,-6.46674889E-05,-5.85018688E-06,-0.00107459398,-0.000144925449,0.000207178717,1
2026-04-28T13:22:52.0318066Z,4,-1.9299999000000001,Race,true,false,68,Garage Test Track,16,Bullet,0,0,0,-140.37915,1.32104528,190.7005,-6.86707551E-07,-0.0182188042,-0.999834299,-1.00000024,9.00281157E-06,5.2277386E-07,8.99179213E-06,0.999834001,-0.0182188042,-0.000402825302,-7.42250559E-05,-0.00459492439,0.000205632008,0.000415520655,-0.00025786052,0,1,0,0,0,20,0.0200000014,0.00461314525,0.00461254781,-3.14159203,-179.999954,0.0182198063,1.04391789,9.00430587E-06,0.000515908701,0.000415520655,-0.00910977926,4.49883737E-06,0.999958575,-3.02382887E-07,-140.37915,2.82506895,195.699127,-8.97884456E-06,-0.19878082,-0.980043948,1.74532926,1,goal_runtime,0x006742EC,0x006742EC,0x0067459C,0x07DB855C,0x00673FF8,0x2B837180,0x2B837180,0x07DB8C7C,0x00673FF8,0x07DBA95C,0x00673FF8,0x2B837180,0x2B837180,1.85999858,0,5,1,0x07DB842C,0x00673FF8,0x07DB855C,0x00673FF8,0x07DB86E0,0x00673FF8,0x07DB87D8,0x00673FF8,0x07DB88D0,0x00673FF8,,,1,0x2B838E2C,0,0.600000024,0,0,0,-0.0175309349,-0.00557749206,-6.05449604E-05,0,0.00794980396,1,0x2B838E2C,0,0.600000024,0,0,0,0.0175490268,-0.00606637076,-6.02030777E-05,0,0.00829063635,1,0x2B838E2C,0,0.600000024,0,0,0,0.0174514558,-0.00551564014,0.000151947592,0.000183367985,0.00795890484,1,0x2B838E2C,0,0.600000024,0,0,0,-0.017447602,-0.00526946038,0.000152486929,6.28300762,0.00778272469,1,0,0,0.0100000007,-0.0778785273,0.000196064429,-0.00014725505,-0.00303735374,2000,-0.00420146808,0.00029890443,1,4847.31689,0,24.2365837,0.00566022703,0.979415119,9.79415131,-6.05449604E-05,-0.000701881887,-0.00420146808,0.00029890443,0.000822996313,1,2000,-0.00435157446,0.000298904517,1,4847.31689,0,24.2365837,0.00564574031,0.979415119,9.79415131,-6.02030777E-05,-0.000732030021,-0.00435157446,0.000298904517,0.000852399622,1,2000,-0.00430135475,0.000558549771,1,3129.55371,3.61657221E-05,15.647768,-0.00573309464,0.936205506,9.36205482,0.000151947592,-0.00069330784,-0.00430135475,0.000558549771,0.000814778323,1,2000,-0.00425167661,0.000558549888,1,3129.55371,-3.61656967E-05,15.647768,-0.00572302705,0.936205506,9.36205482,0.000152486929,-0.000677354168,-0.00425167661,0.000558549888,0.00078670081,1
2026-04-28T13:22:52.1323368Z,5,-1.8300000000000001,Race,true,false,68,Garage Test Track,16,Bullet,0,0,0,-140.37915,1.32105303,190.700211,-4.35104448E-06,-0.0182141978,-0.999834299,-1.00000024,7.93487197E-06,4.20721517E-06,7.85692464E-06,0.99983412,-0.0182141978,-0.000255674153,0.00018171531,-0.0025189654,0.000108874854,7.84060467E-05,-0.000202556999,0,1,0,0,0,20,0.0200000014,0.00253842003,0.00253190752,-3.14158821,-179.999741,0.0182152018,1.04365408,7.93618801E-06,0.00045471004,7.84060467E-05,-0.0091074761,3.94811286E-06,0.999958575,-2.13965359E-06,-140.37915,2.82508612,195.698837,-8.97884183E-06,-0.198782787,-0.98004353,1.74532926,1,goal_runtime,0x006742EC,0x006742EC,0x0067459C,0x07DB855C,0x00673FF8,0x2B837180,0x2B837180,0x07DB8C7C,0x00673FF8,0x07DBA95C,0x00673FF8,0x2B837180,0x2B837180,1.95999849,0,5,1,0x07DB842C,0x00673FF8,0x07DB855C,0x00673FF8,0x07DB86E0,0x00673FF8,0x07DB87D8,0x00673FF8,0x07DB88D0,0x00673FF8,,,1,0x2B838E2C,0,0.600000024,0,0,0,-0.0175320059,-0.0177342892,0.000232383405,0,0.017793728,1,0x2B838E2C,0,0.600000024,0,0,0,0.0175478403,-0.016485896,0.000232857681,0,0.0165484399,1,0x2B838E2C,0,0.600000024,0,0,0,0.017451223,-0.0162553713,-0.00031728606,0.000127361898,0.016503403,1,0x2B838E2C,0,0.600000024,0,0,0,-0.0174477194,-0.0165103786,-0.000316693477,6.28306341,0.0167540219,1,0,0,0.0100000007,0.0972651839,-9.92670539E-05,0.00013592717,-0.00446426915,2000,-0.00412446028,0.000641972932,1,4845.79688,0,24.2289829,-0.00133951835,0.979415119,9.79415131,0.000232383405,-0.00156800915,-0.00412446028,0.000641972932,0.000807911798,1,2000,-0.0035694337,0.000641974562,1,4845.79688,0,24.2289829,-0.00134223152,0.979415119,9.79415131,0.000232857681,-0.00145765557,-0.0035694337,0.000641974562,0.000699191529,1,2000,-0.00363760954,-0.000316137477,1,3129.58789,-4.89552367E-05,15.6479387,0.00280371169,0.936205506,9.36205482,-0.00031728606,-0.00143716997,-0.00363760954,-0.000316137477,0.000668402296,1,2000,-0.00405632332,-0.000316139078,1,3129.58789,4.89552367E-05,15.6479387,0.00279815262,0.936205506,9.36205482,-0.000316693477,-0.0014598791,-0.00405632332,-0.000316139078,0.000772218336,1
2026-04-28T13:22:52.2318074Z,6,-1.73,Race,true,false,68,Garage Test Track,16,Bullet,0,0,0,-140.37915,1.32107615,190.699982,-1.00113562E-06,-0.0182029624,-0.999834299,-1,6.09141671E-06,8.90401338E-07,6.07419906E-06,0.999834299,-0.0182029624,0.000361231476,0.000251740537,0.000556228857,-0.000226424832,-2.69093507E-05,0.000266021001,0,1,0,0,0,20,0.0200000014,0.00070940255,0.000663233513,-3.14159155,-179.999924,0.0182039682,1.04301047,6.09242625E-06,0.000349070295,-2.69093507E-05,-0.00910185836,3.04152991E-06,0.999958575,-4.72903821E-07,-140.37915,2.82511353,195.698608,-8.97886639E-06,-0.198784247,-0.980043232,1.74532926,1,goal_runtime,0x006742EC,0x006742EC,0x0067459C,0x07DB855C,0x00673FF8,0x2B837180,0x2B837180,0x07DB8C7C,0x00673FF8,0x07DBA95C,0x00673FF8,0x2B837180,0x2B837180,2.05999851,0,5,1,0x07DB842C,0x00673FF8,0x07DB855C,0x00673FF8,0x07DB86E0,0x00673FF8,0x07DB87D8,0x00673FF8,0x07DB88D0,0x00673FF8,,,1,0x2B838E2C,0,0.600000024,0,0,0,-0.0175337307,-0.0213924143,0.000290547498,0,0.0214695372,1,0x2B838E2C,0,0.600000024,0,0,0,0.0175458807,-0.0208621807,0.000291077769,0,0.0209407918,1,0x2B838E2C,0,0.600000024,0,0,0,0.0174509343,-0.0201648064,-2.00253853E-05,0.000108726017,0.0201761574,1,0x2B838E2C,0,0.600000024,0,0,0,-0.0174481347,-0.0202280208,-1.94500317E-05,6.28308249,0.0202394295,1,0,0,0.0100000007,0.150850192,4.41800257E-05,0.000254838669,-0.0024607752,2000,-0.000978062162,-0.000326481444,1,4845.21094,0,24.2260532,-0.00167498656,0.979415119,9.79415131,0.000290547498,-0.00189152476,-0.000978062162,-0.000326481444,0.000191585787,1,2000,-0.000872136559,-0.000326480687,1,4845.21094,0,24.2260532,-0.0016779725,0.979415119,9.79415131,0.000291077769,-0.0018446974,-0.000872136559,-0.000326480687,0.000170836764,1,2000,-0.000976568554,-0.000509829959,1,3128.00635,-7.52878841E-05,15.6400318,0.00017696248,0.936205506,9.36205482,-2.00253853E-05,-0.00178297726,-0.000976568554,-0.000509829959,0.000163310557,1,2000,-0.000873637386,-0.000509831007,1,3128.00635,7.52878841E-05,15.6400318,0.00017187318,0.936205506,9.36205482,-1.94500317E-05,-0.00178857346,-0.000873637386,-0.000509831007,0.000183124052,1
2026-04-28T13:22:52.3314106Z,7,-1.6299999000000001,Race,true,false,68,Garage Test Track,16,Bullet,0,0,0,-140.37915,1.32109809,190.699722,4.52259337E-06,-0.0181854106,-0.999834776,-1.00000012,5.14038402E-06,-4.61683703E-06,5.22349274E-06,0.999834657,-0.0181854106,0.000113362505,0.000175348207,-0.00283315172,0.00024213946,-0.000294904545,5.51055928E-05,0,1,0,0,0,20,0.0200000014,0.00284083583,0.0028354188,3.14158821,179.999741,0.0181864109,1.04200459,5.14123394E-06,0.000294570986,-0.000294904545,-0.00909308065,2.59107628E-06,0.999958694,2.28495196E-06,-140.37915,2.82513571,195.698349,-8.97886639E-06,-0.198784292,-0.980043232,1.74532926,1,goal_runtime,0x006742EC,0x006742EC,0x0067459C,0x07DB855C,0x00673FF8,0x2B837180,0x2B837180,0x07DB8C7C,0x00673FF8,0x07DBA95C,0x00673FF8,0x2B837180,0x2B837180,2.15999842,0,5,1,0x07DB842C,0x00673FF8,0x07DB855C,0x00673FF8,0x07DB86E0,0x00673FF8,0x07DB87D8,0x00673FF8,0x07DB88D0,0x00673FF8,,,1,0x2B838E2C,0,0.600000024,0,0,0,-0.0175344516,-1.17108732E-06,-3.33108183E-05,0,0.000202508745,1,0x2B838E2C,0,0.600000024,0,0,0,0.0175448172,-5.21702894E-08,-3.25825531E-05,0,0.000188558988,1,0x2B838E2C,0,0.600000024,0,0,0,0.0174505841,-5.64328104E-07,-2.84926937E-05,7.51322368E-05,0.000253685139,1,0x2B838E2C,0,0.600000024,0,0,0,-0.0174483769,-1.66606878E-06,-2.80122185E-05,6.28311634,0.000257834356,1,0,0,0.0100000007,-0.166536689,0.000177498674,0.000207679055,0.000497582427,2000,-0.00102015445,-0.00059623149,1,4844.01514,0,24.2200756,0.000202370269,0.979415119,9.79415131,-3.33108183E-05,-5.78675781E-06,-0.00102015445,-0.00059623149,0.00019983096,1,2000,-0.00159762125,-0.000596230384,1,4844.01514,0,24.2200756,0.000188426173,0.979415119,9.79415131,-3.25825531E-05,-2.76873919E-07,-0.00159762125,-0.000596230384,0.000312946911,1,2000,-0.00177342538,0.000400694145,1,3128.4585,-0.000127041872,15.642292,0.000253513805,0.936205506,9.36205482,-2.84926937E-05,-2.22601966E-06,-0.00177342538,0.000400694145,0.000299080624,1,2000,-0.000844309398,0.00040069301,1,3128.4585,0.000127041872,15.642292,0.000257681386,0.936205506,9.36205482,-2.80122185E-05,-6.46548096E-06,-0.000844309398,0.00040069301,0.000191066953,1
2026-04-28T13:22:52.4317929Z,8,-1.5299999,Race,true,false,68,Garage Test Track,16,Bullet,0,0,0,-140.37915,1.32110989,190.699417,1.57710951E-06,-0.0181698743,-0.999835253,-1.00000036,9.37723871E-06,-1.7477812E-06,9.40744849E-06,0.999834895,-0.0181698743,-0.00070936518,6.00298881E-05,-0.00447490299,0.000349511625,5.82724679E-05,-0.000549830089,0,1,0,0,0,20,0.0200000014,0.0045311763,0.00453077862,3.14159107,179.999893,0.018170869,1.04111409,9.37878758E-06,0.000537364918,5.82724679E-05,-0.00908531155,4.69636507E-06,0.999958813,8.31256898E-07,-140.37915,2.82514572,195.698044,-8.97889367E-06,-0.198784545,-0.980043232,1.74532926,1,goal_runtime,0x006742EC,0x006742EC,0x0067459C,0x07DB855C,0x00673FF8,0x2B837180,0x2B837180,0x07DB8C7C,0x00673FF8,0x07DBA95C,0x00673FF8,0x2B837180,0x2B837180,2.25999832,0,5,1,0x07DB842C,0x00673FF8,0x07DB855C,0x00673FF8,0x07DB86E0,0x00673FF8,0x07DB87D8,0x00673FF8,0x07DB88D0,0x00673FF8,,,1,0x2B838E2C,0,0.600000024,0,0,0,-0.0175302178,-0.00542664388,-0.000209290942,0,0.00788420998,1,0x2B838E2C,0,0.600000024,0,0,0,0.0175489392,-0.00551375514,-0.000208538579,0,0.00794670358,1,0x2B838E2C,0,0.600000024,0,0,0,0.0174516086,-0.00510477694,-0.000125649938,4.89938757E-05,0.00764266355,1,0x2B838E2C,0,0.600000024,0,0,0,-0.0174474809,-0.00488427794,-0.00012510753,6.28314161,0.00747693144,1,0,0,0.0100000007,-0.0822626427,0.00028982549,7.89136466E-05,-0.00282964995,2000,-0.00423876196,-2.21104183E-05,1,4842.48486,0,24.2124233,0.00571493013,0.979415119,9.79415131,-0.000209290942,-0.000688580039,-0.00423876196,-2.21104183E-05,0.000830301549,1,2000,-0.00405263761,-2.21107675E-05,1,4842.48486,0,24.2124233,0.00571802771,0.979415119,9.79415131,-0.000208538579,-0.000694131828,-0.00405263761,-2.21107675E-05,0.000793842948,1,2000,-0.00405274052,-0.000343668798,1,3130.4812,0,15.6524057,0.00568346959,0.936205506,9.36205482,-0.000125649938,-0.000668216206,-0.00405274052,-0.000343668798,0.000758839597,1,2000,-0.00423867302,-0.000343668478,1,3130.4812,0,15.6524057,0.00565687381,0.936205506,9.36205482,-0.00012510753,-0.000653527677,-0.00423867302,-0.000343668478,0.000793653831,1
2026-04-28T13:22:52.5322412Z,9,-1.4299999000000001,Race,true,false,68,Garage Test Track,16,Bullet,0,0,0,-140.37915,1.32111037,190.699142,-4.22476796E-06,-0.0181675106,-0.999835253,-1.00000024,9.1239599E-06,4.0596783E-06,9.04869921E-06,0.999834955,-0.0181675106,9.53352865E-05,-3.34404504E-05,-0.00253292918,-4.43992139E-05,0.000189560276,0.000122667363,0,1,0,0,0,20,0.0200000014,0.0025349434,0.00253472268,-3.14158845,-179.999756,0.0181685053,1.04097867,9.12546602E-06,0.000522850663,0.000189560276,-0.00908412971,4.54335168E-06,0.999958813,-2.07119683E-06,-140.37915,2.82514477,195.697769,-8.97889367E-06,-0.198784247,-0.980043292,1.74532926,1,goal_runtime,0x006742EC,0x006742EC,0x0067459C,0x07DB855C,0x00673FF8,0x2B837180,0x2B837180,0x07DB8C7C,0x00673FF8,0x07DBA95C,0x00673FF8,0x2B837180,0x2B837180,2.35999823,0,5,1,0x07DB842C,0x00673FF8,0x07DB855C,0x00673FF8,0x07DB86E0,0x00673FF8,0x07DB87D8,0x00673FF8,0x07DB88D0,0x00673FF8,,,1,0x2B838E2C,0,0.600000024,0,0,0,-0.0175304729,-0.017448429,0.000447453756,0,0.0176471043,1,0x2B838E2C,0,0.600000024,0,0,0,0.0175486878,-0.0168418381,0.000448397215,0,0.0170476623,1,0x2B838E2C,0,0.600000024,0,0,0,0.0174514744,-0.016247917,2.46271375E-05,3.06260627E-05,0.0162572339,1,0x2B838E2C,0,0.600000024,0,0,0,-0.0174476169,-0.0165308602,2.50298326E-05,6.28315973,0.0165403243,1,0,0,0.0100000007,0.0980802253,-0.000442446588,-2.63800375E-05,-0.00449453387,2000,-0.00410512369,0.000528621546,1,4842.91748,0,24.2145863,-0.00258121709,0.979415119,9.79415131,0.000447453785,-0.00154265831,-0.00410512369,0.000528621546,0.000804124109,1,2000,-0.00354592688,0.00052862271,1,4842.91748,0,24.2145863,-0.0025863254,0.979415119,9.79415131,0.000448397244,-0.00148921262,-0.00354592688,0.00052862271,0.000694586895,1,2000,-0.00357869687,-0.000436820555,1,3130.29565,-2.34175186E-05,15.6514778,-0.000217738692,0.936205506,9.36205482,2.46271375E-05,-0.00143658731,-0.00357869687,-0.000436820555,0.000664000399,1,2000,-0.00407239143,-0.00043682172,1,3130.29565,2.34175186E-05,15.6514778,-0.000221120863,0.936205506,9.36205482,2.50298326E-05,-0.00146160217,-0.00407239143,-0.00043682172,0.000768597762,1
2026-04-28T13:22:52.6317366Z,10,-1.3300000000000001,Race,true,false,68,Garage Test Track,16,Bullet,0,0,0,-140.37915,1.32110345,190.698914,-3.24703421E-07,-0.0181792639,-0.999834776,-1,8.65026414E-06,1.67475662E-07,8.64578942E-06,0.999834716,-0.0181792639,4.57885944E-05,-8.26403266E-05,0.000440214731,-0.000484374788,-0.000245506584,2.56418498E-05,0,1,0,0,0,20,0.0200000014,0.000450238847,0.000442589662,-3.14159226,-179.999969,0.0181802642,1.04165232,8.65169386E-06,0.000495705521,-0.000245506584,-0.00909000728,4.3241921E-06,0.999958694,-1.23049858E-07,-140.37915,2.8251369,195.69754,-8.97889367E-06,-0.198784038,-0.980043292,1.74532926,1,goal_runtime,0x006742EC,0x006742EC,0x0067459C,0x07DB855C,0x00673FF8,0x2B837180,0x2B837180,0x07DB8C7C,0x00673FF8,0x07DBA95C,0x00673FF8,0x2B837180,0x2B837180,2.45999813,0,5,1,0x07DB842C,0x00673FF8,0x07DB855C,0x00673FF8,0x07DB86E0,0x00673FF8,0x07DB87D8,0x00673FF8,0x07DB88D0,0x00673FF8,,,1,0x2B838E2C,0,0.600000024,0,0,0,-0.0175309423,-0.0214303229,0.000382247468,0,0.0215550195,1,0x2B838E2C,0,0.600000024,0,0,0,0.0175483264,-0.0205765907,0.000383256003,0,0.0207059029,1,0x2B838E2C,0,0.600000024,0,0,0,0.0174513534,-0.0202127062,-8.51879449E-05,6.28317785,0.0202373154,1,0x2B838E2C,0,0.600000024,0,0,0,-0.0174476113,-0.0199645385,-8.47333577E-05,1.30641083E-05,0.0199890435,1,0,0,0.0100000007,0.149342179,-0.000184393895,-7.39056341E-05,-0.00254662894,2000,-0.000822251837,-4.20800352E-05,1,4844.89941,0,24.2244968,-0.00220383215,0.979415119,9.79415131,0.000382247497,-0.00189485075,-0.000822251837,-4.20800352E-05,0.000161065196,1,2000,-0.00107374787,-4.20809265E-05,1,4844.89941,0,24.2244968,-0.00220951671,0.979415119,9.79415131,0.000383256032,-0.0018194631,-0.00107374787,-4.20809265E-05,0.000210328988,1,2000,-0.00138724665,0.000392336835,1,3128.15894,-0.000226234362,15.6407948,0.000752917258,0.936205506,9.36205482,-8.51879449E-05,-0.00178720674,-0.00138724665,0.000392336835,0.000201023722,1,2000,-0.0005087342,0.000392337824,1,3128.15894,0.000226234362,15.6407948,0.00074892526,0.936205506,9.36205482,-8.47333577E-05,-0.00176527316,-0.0005087342,0.000392337824,0.000153981848,1
2026-04-28T13:22:52.7318599Z,11,-1.23,Race,true,false,68,Garage Test Track,16,Bullet,0,0,0,-140.37915,1.32109499,190.698654,3.01656041E-06,-0.0181864202,-0.999834776,-1.00000012,3.91521371E-06,-3.08827498E-06,3.97073109E-06,0.999834597,-0.0181864202,9.62218401E-05,-8.46915937E-05,-0.00289139338,2.62435478E-05,-0.000224138319,1.78184928E-05,0,1,0,0,0,20,0.0200000014,0.00289423321,0.00289299386,3.14158964,179.999817,0.0181874204,1.0420624,3.91586127E-06,0.000224362317,-0.000224138319,-0.00909358542,1.9715676E-06,0.999958694,1.52627194E-06,-140.37915,2.82512856,195.697281,-8.97886821E-06,-0.198783472,-0.980043471,1.74532926,1,goal_runtime,0x006742EC,0x006742EC,0x0067459C,0x07DB855C,0x00673FF8,0x2B837180,0x2B837180,0x07DB8C7C,0x00673FF8,0x07DBA95C,0x00673FF8,0x2B837180,0x2B837180,2.55999804,0,5,1,0x07DB842C,0x00673FF8,0x07DB855C,0x00673FF8,0x07DB86E0,0x00673FF8,0x07DB87D8,0x00673FF8,0x07DB88D0,0x00673FF8,,,1,0x2B838E2C,0,0.600000024,0,0,0,-0.0175357927,-2.79493702E-06,-9.88901447E-05,0,0.000571397599,1,0x2B838E2C,0,0.600000024,0,0,0,0.0175435916,-8.26620521E-07,-9.77940799E-05,0,0.000565925729,1,0x2B838E2C,0,0.600000024,0,0,0,0.0174504314,-2.52184327E-06,-0.000176031695,6.28316545,0.00155976042,1,0x2B838E2C,0,0.600000024,0,0,0,-0.0174486488,-6.91296327E-06,-0.000175622525,2.52709069E-05,0.00155096711,1,0,0,0.0100000007,-0.166563034,0.000354265241,-7.73006977E-05,0.00043986761,2000,-0.00112445711,-0.000583411194,1,4845.3374,0,24.2266865,0.000571081182,0.979415119,9.79415131,-9.88901447E-05,-4.89405693E-06,-0.00112445711,-0.000583411194,0.000220262067,1,2000,-0.00146442733,-0.000583410671,1,4845.3374,0,24.2266865,0.000565603783,0.979415119,9.79415131,-9.77940799E-05,-1.46148193E-06,-0.00146442733,-0.000583410671,0.000286856492,1,2000,-0.00145969423,3.24885491E-06,1,3128.20508,3.27866746E-06,15.6410246,0.00155909196,0.936205506,9.36205482,-0.000176031695,-1.61750575E-06,-0.00145969423,3.24885491E-06,0.000274165825,1,2000,-0.00112916704,3.24830194E-06,1,3128.20508,-3.27867497E-06,15.6410246,0.00155025709,0.936205506,9.36205482,-0.000175622525,-4.45919295E-06,-0.00112916704,3.24830194E-06,0.000210575425,1
2026-04-28T13:22:52.8318358Z,12,-1.1299999000000001,Race,true,false,68,Garage Test Track,16,Bullet,0,0,0,-140.37915,1.32108951,190.698349,-7.82827328E-07,-0.0181854591,-0.999834776,-1.00000012,5.42979842E-06,6.84197062E-07,5.41645795E-06,0.999834657,-0.0181854591,-0.0001338906,-3.828638E-05,-0.00450576283,0.00026163811,0.000513019681,-8.48386189E-05,0,1,0,0,0,20,0.0200000014,0.00450791419,0.00450775167,-3.14159179,-179.999939,0.0181864593,1.04200733,5.43069655E-06,0.000311155978,0.000513019681,-0.00909310486,2.71167619E-06,0.999958694,-3.66771246E-07,-140.37915,2.82512331,195.696976,-8.97886821E-06,-0.198783532,-0.980043471,1.74532926,1,goal_runtime,0x006742EC,0x006742EC,0x0067459C,0x07DB855C,0x00673FF8,0x2B837180,0x2B837180,0x07DB8C7C,0x00673FF8,0x07DBA95C,0x00673FF8,0x2B837180,0x2B837180,2.65999794,0,5,1,0x07DB842C,0x00673FF8,0x07DB855C,0x00673FF8,0x07DB86E0,0x00673FF8,0x07DB87D8,0x00673FF8,0x07DB88D0,0x00673FF8,,,1,0x2B838E2C,0,0.600000024,0,0,0,-0.0175342802,-0.00528308051,-0.000222533796,0,0.00778662693,1,0x2B838E2C,0,0.600000024,0,0,0,0.017545227,-0.00578744244,-0.000221238413,0,0.00814495794,1,0x2B838E2C,0,0.600000024,0,0,0,0.0174507555,-0.00611036457,8.85230547E-05,6.28312969,0.00833529979,1,0x2B838E2C,0,0.600000024,0,0,0,-0.0174483247,-0.00417971797,8.88630311E-05,6.08226546E-05,0.00690116826,1,0,0,0.0100000007,-0.0809285864,0.000109777757,-5.31627738E-05,-0.00288719102,2000,-0.00419985922,5.31582227E-05,1,4844.28516,0,24.221426,0.00571565144,0.979415119,9.79415131,-0.000222533796,-0.000678772107,-0.00419985922,5.31582227E-05,0.000822681177,1,2000,-0.0041202195,5.31586047E-05,1,4844.28516,0,24.221426,0.00572621869,0.979415119,9.79415131,-0.000221238413,-0.00071085681,-0.0041202195,5.31586047E-05,0.000807081175,1,2000,-0.00429298775,-8.43631715E-05,1,3130.16895,-0.000124590166,15.6508446,-0.00566406129,0.936205506,9.36205482,8.85230547E-05,-0.000733382651,-0.00429298775,-8.43631715E-05,0.00077148265,1,2000,-0.00402709702,-8.43635644E-05,1,3130.16895,0.000124590122,15.6508446,-0.00548785646,0.936205506,9.36205482,8.88630311E-05,-0.000605905079,-0.00402709702,-8.43635644E-05,0.000786379271,1
2026-04-28T13:22:52.9317825Z,13,-1.0299999,Race,true,false,68,Garage Test Track,16,Bullet,0,0,0,-140.37915,1.32108831,190.698074,-3.66665518E-07,-0.0181850251,-0.999834776,-1.00000012,1.10713709E-05,1.65359722E-07,1.10665324E-05,0.999834657,-0.0181850251,3.58818434E-05,1.22234587E-05,-0.00253152498,-1.4197808E-05,0.000121481542,6.91346577E-05,0,1,0,0,0,20,0.0200000014,0.0025318088,0.00253177923,-3.14159226,-179.999969,0.0181860253,1.04198241,1.10732017E-05,0.000634447671,0.000121481542,-0.00909288786,5.53470454E-06,0.999958694,-1.3301181E-07,-140.37915,2.82512236,195.696701,-8.97886821E-06,-0.198783591,-0.980043471,1.74532926,1,goal_runtime,0x006742EC,0x006742EC,0x0067459C,0x07DB855C,0x00673FF8,0x2B837180,0x2B837180,0x07DB8C7C,0x00673FF8,0x07DBA95C,0x00673FF8,0x2B837180,0x2B837180,2.75999784,0,5,1,0x07DB842C,0x00673FF8,0x07DB855C,0x00673FF8,0x07DB86E0,0x00673FF8,0x07DB87D8,0x00673FF8,0x07DB88D0,0x00673FF8,,,1,0x2B838E2C,0,0.600000024,0,0,0,-0.0175286401,-0.0172900837,0.000362207938,0,0.0174244419,1,0x2B838E2C,0,0.600000024,0,0,0,0.0175507478,-0.0171221718,0.000363514613,0,0.0172584616,1,0x2B838E2C,0,0.600000024,0,0,0,0.0174519885,-0.0161169525,0.000287252769,6.28313017,0.0163233895,1,0x2B838E2C,0,0.600000024,0,0,0,-0.0174470954,-0.016779229,0.000287649746,6.048453E-05,0.0169788953,1,0,0,0.0100000007,0.0988881141,-0.000697561423,-5.13160421E-06,-0.00450928742,2000,-0.00391546218,0.000556417392,1,4844.24707,0,24.2212353,-0.00208872696,0.979415119,9.79415131,0.000362207968,-0.00152868778,-0.00391546218,0.000556417392,0.000766972662,1,2000,-0.00376463518,0.000556417857,1,4844.24707,0,24.2212353,-0.00209609186,0.979415119,9.79415131,0.000363514642,-0.00151396124,-0.00376463518,0.000556417857,0.000737428199,1,2000,-0.003764719,0.000296474376,1,3130.09766,0,15.6504879,-0.0025377688,0.936205506,9.36205482,0.000287252769,-0.00142507011,-0.003764719,0.000296474376,0.00070491014,1,2000,-0.00391538907,0.000296475599,1,3130.09766,0,15.6504879,-0.00254147034,0.936205506,9.36205482,0.000287649746,-0.00148350699,-0.00391538907,0.000296475599,0.000733121764,1
2026-04-28T13:22:53.0312501Z,14,-0.93000000000000005,Race,true,false,68,Garage Test Track,16,Bullet,0,0,0,-140.37915,1.32109034,190.697845,-2.01472221E-06,-0.0181900617,-0.999834776,-1.00000024,6.00685871E-06,1.90577248E-06,5.97119833E-06,0.999834538,-0.0181900617,0.000189364058,2.96529797E-05,0.000464672194,-0.000396130752,-0.000218973684,0.000138328134,0,1,0,0,0,20,0.0200000014,0.000502651266,0.000501775823,-3.1415906,-179.999878,0.0181910601,1.0422709,6.00785279E-06,0.000344224594,-0.000218973684,-0.00909540616,2.99463795E-06,0.999958694,-9.80164145E-07,-140.37915,2.82512474,195.696472,-8.97886821E-06,-0.198783681,-0.980043471,1.74532926,1,goal_runtime,0x006742EC,0x006742EC,0x0067459C,0x07DB855C,0x00673FF8,0x2B837180,0x2B837180,0x07DB8C7C,0x00673FF8,0x07DBA95C,0x00673FF8,0x2B837180,0x2B837180,2.85999775,0,5,1,0x07DB842C,0x00673FF8,0x07DB855C,0x00673FF8,0x07DB86E0,0x00673FF8,0x07DB87D8,0x00673FF8,0x07DB88D0,0x00673FF8,,,1,0x2B838E2C,0,0.600000024,0,0,0,-0.0175337028,-0.0214868672,0.000385512569,0,0.0216132775,1,0x2B838E2C,0,0.600000024,0,0,0,0.0175458007,-0.0205390025,0.000387047825,0,0.0206707884,1,0x2B838E2C,0,0.600000024,0,0,0,0.0174508523,-0.0200106371,-0.000236548643,6.28309536,0.020130191,1,0x2B838E2C,0,0.600000024,0,0,0,-0.0174482241,-0.0201898012,-0.000236272957,9.50485555E-05,0.0203082189,1,0,0,0.0100000007,0.149392694,0.000101927879,3.22023661E-05,-0.00252318196,2000,-0.000927888846,-0.000288202427,1,4845.21143,0,24.2260571,-0.00222247932,0.979415119,9.79415131,0.000385512598,-0.00189985579,-0.000927888846,-0.000288202427,0.000181757685,1,2000,-0.000975030765,-0.000288201845,1,4845.21143,0,24.2260571,-0.00223122281,0.979415119,9.79415131,0.000387047854,-0.0018161363,-0.000975030765,-0.000288201845,0.000190991996,1,2000,-0.000975004456,-0.000207081452,1,3128.08789,0,15.640439,0.00209088554,0.936205506,9.36205482,-0.000236548643,-0.00176931522,-0.000975004456,-0.000207081452,0.000182560922,1,2000,-0.00092791178,-0.000207082194,1,3128.08789,0,15.640439,0.00208835769,0.936205506,9.36205482,-0.000236272957,-0.00178522815,-0.00092791178,-0.000207082194,0.000173743232,1
2026-04-28T13:22:53.1313172Z,15,-0.82999990000000001,Race,true,false,68,Garage Test Track,16,Bullet,0,0,0,-140.37915,1.3210932,190.697617,-1.01217972E-06,-0.0181905255,-0.999834776,-1.00000024,4.50566495E-06,9.30373233E-07,4.48799528E-06,0.999834538,-0.0181905255,0.00023396498,1.84637574E-05,-0.00173007674,-3.94782655E-05,0.000117773256,0.000171846172,0,1,0,0,0,20,0.0200000014,0.00174592272,0.00174582505,-3.14159155,-179.999924,0.0181915238,1.04229748,4.50641073E-06,0.000258198299,0.000117773256,-0.00909563806,2.24850783E-06,0.999958694,-4.8565829E-07,-140.37915,2.82512736,195.696243,-8.97886821E-06,-0.198783606,-0.980043471,1.74532926,1,goal_runtime,0x006742EC,0x006742EC,0x0067459C,0x07DB855C,0x00673FF8,0x2B837180,0x2B837180,0x07DB8C7C,0x00673FF8,0x07DBA95C,0x00673FF8,0x2B837180,0x2B837180,2.95999765,0,5,1,0x07DB842C,0x00673FF8,0x07DB855C,0x00673FF8,0x07DB86E0,0x00673FF8,0x07DB87D8,0x00673FF8,0x07DB88D0,0x00673FF8,,,1,0x2B838E2C,0,0.600000024,0,0,0,-0.0175352022,-4.69151291E-06,8.76272097E-05,0,0.000517171924,1,0x2B838E2C,0,0.600000024,0,0,0,0.0175443012,-4.31866829E-06,8.92135868E-05,0,0.000521555019,1,0x2B838E2C,0,0.600000024,0,0,0,0.017450545,-0.0209308397,-5.88302064E-05,6.28315926,0.0209485292,1,0x2B838E2C,0,0.600000024,0,0,0,-0.0174485315,-4.20495735E-06,-5.8501093E-05,3.09936004E-05,0.000524330768,1,0,0,0.0100000007,-0.110077754,3.92084621E-05,3.35072473E-05,0.000471478677,2000,-0.000642335857,-0.000399801269,1,4845.32568,0,24.2266273,-0.000516945671,0.979415119,9.79415131,8.76272097E-05,-9.07507274E-06,-0.000642335857,-0.000399801269,0.000125822698,1,2000,-0.000698868127,-0.000399800891,1,4845.32568,0,24.2266273,-0.00052124064,0.979415119,9.79415131,8.92135868E-05,-8.28508018E-06,-0.000698868127,-0.000399800891,0.000136896415,1,2000,-0.000698836579,-0.000302581961,1,3127.83276,0,15.639163,0.00052005949,0.936205506,9.36205482,-5.88302064E-05,-0.00185073039,-0.000698836579,-0.000302581961,0.000130850938,1,2000,-0.000642363506,-0.000302582514,1,3127.83276,0,15.639163,0.000524102652,0.936205506,9.36205482,-5.8501093E-05,-8.02289833E-06,-0.000642363506,-0.000302582514,0.000120276854,1
2026-04-28T13:22:53.2321949Z,16,-0.72999999999999998,Race,true,false,68,Garage Test Track,16,Bullet,0,0,0,-140.37915,1.32109475,190.697388,8.06138814E-06,-0.0181900822,-0.999834776,-1.00000024,1.0576332E-05,-8.2551378E-06,1.07247433E-05,0.999834538,-0.0181900822,8.61889494E-05,2.42700867E-06,-0.00192114268,1.12777279E-05,-0.000535682775,5.9160815E-05,0,1,0,0,0,20,0.0200000014,0.00192307658,0.00192307506,3.14158463,179.999527,0.0181910805,1.04227209,1.05780819E-05,0.000606079411,-0.000535682775,-0.0090954164,5.32548893E-06,0.999958694,4.0793002E-06,-140.37915,2.82512808,195.696014,-8.97886821E-06,-0.198783427,-0.980043471,1.74532926,1,goal_runtime,0x006742EC,0x006742EC,0x0067459C,0x07DB855C,0x00673FF8,0x2B837180,0x2B837180,0x07DB8C7C,0x00673FF8,0x07DBA95C,0x00673FF8,0x2B837180,0x2B837180,3.05999756,0,5,1,0x07DB842C,0x00673FF8,0x07DB855C,0x00673FF8,0x07DB86E0,0x00673FF8,0x07DB87D8,0x00673FF8,0x07DB88D0,0x00673FF8,,,1,0x2B838E2C,0,0.600000024,0,0,0,-0.0175291337,-0.0230305344,0.000198910624,0,0.0230720546,1,0x2B838E2C,0,0.600000024,0,0,0,0.0175502505,-0.000440687174,0.000200387571,0,0.00238682562,1,0x2B838E2C,0,0.600000024,0,0,0,0.0174518451,-0.000709221349,0.000327712682,6.28308392,0.00363811408,1,0x2B838E2C,0,0.600000024,0,0,0,-0.0174472313,-0.000751279178,0.000328124559,0.000106833475,0.00370430201,1,0,0,0.0100000007,-0.0508606397,-0.000498325913,1.02586846E-05,-0.000903929875,2000,-0.00116432924,3.97882104E-05,1,4844.87793,0,24.22439,-0.00114679721,0.979415119,9.79415131,0.000198910624,-0.00203643041,-0.00116432924,3.97882104E-05,0.000228072342,1,2000,-0.00181205652,3.97830263E-05,1,4844.87793,0,24.22439,-0.00234475546,0.979415119,9.79415131,0.000200387571,-0.000184711869,-0.00181205652,3.97830263E-05,0.000354951131,1,2000,-0.00202931534,0.0011587902,1,3128.51025,-0.000156972266,15.6425505,-0.00356671819,0.936205506,9.36205482,0.000327712682,-0.000195026048,-0.00202931534,0.0011587902,0.000339224411,1,2000,-0.000947022229,0.0011587959,1,3128.51025,0.000156972266,15.6425505,-0.00362568931,0.936205506,9.36205482,0.000328124559,-0.000202899959,-0.000947022229,0.0011587959,0.000218068337,1
2026-04-28T13:22:53.3318049Z,17,-0.62999989999999995,Race,true,false,68,Garage Test Track,16,Bullet,0,0,0,-140.37915,1.32109404,190.697174,-5.98918746E-07,-0.0181810204,-0.999834776,-1.00000012,1.06119387E-05,4.0605002E-07,1.06028019E-05,0.999834716,-0.0181810204,-1.99240476E-05,2.14236798E-06,-0.00365423737,0.00025844638,-0.000128325395,8.14424129E-06,0,1,0,0,0,20,0.0200000014,0.00365429232,0.00365429162,-3.14159203,-179.999954,0.0181820206,1.04175293,1.06136931E-05,0.000608119764,-0.000128325395,-0.00909088552,5.30390435E-06,0.999958694,-2.51252573E-07,-140.37915,2.82512712,195.695801,-8.97889367E-06,-0.198783949,-0.980043292,1.74532926,1,goal_runtime,0x006742EC,0x006742EC,0x0067459C,0x07DB855C,0x00673FF8,0x2B837180,0x2B837180,0x07DB8C7C,0x00673FF8,0x07DBA95C,0x00673FF8,0x2B837180,0x2B837180,3.15999746,0,5,1,0x07DB842C,0x00673FF8,0x07DB855C,0x00673FF8,0x07DB86E0,0x00673FF8,0x07DB87D8,0x00673FF8,0x07DB88D0,0x00673FF8,,,1,0x2B838E2C,0,0.600000024,0,0,0,-0.0175291002,-0.0144719528,0.000353296724,0,0.0146216266,1,0x2B838E2C,0,0.600000024,0,0,0,0.0175502878,-0.0130896401,0.000354509684,0,0.0132544003,1,0x2B838E2C,0,0.600000024,0,0,0,0.0174517669,-0.013282286,-1.4899706E-05,6.28309107,0.0132889803,1,0x2B838E2C,0,0.600000024,0,0,0,-0.0174471997,-0.0133003443,-1.42116623E-05,9.97399329E-05,0.0133070163,1,0,0,0.0100000007,0.0324669518,-0.000442539313,-1.31517027E-05,-0.00430357642,2000,-0.00459975237,0.000215664681,1,4843.29053,0,24.2164516,-0.00203789119,0.979415119,9.79415131,0.000353296753,-0.00127947424,-0.00459975237,0.000215664681,0.000901013438,1,2000,-0.00467018504,0.000215664753,1,4843.29053,0,24.2164516,-0.00204466004,0.979415119,9.79415131,0.000354509713,-0.00115738949,-0.00467018504,0.000215664753,0.000914810051,1,2000,-0.00520238327,0.000337577541,1,3130.99219,-0.000383914565,15.6549606,0.000131593231,0.936205506,9.36205482,-1.4899706E-05,-0.00117434142,-0.00520238327,0.000337577541,0.000874443504,1,2000,-0.00406754948,0.00033757824,1,3130.99219,0.000383914507,15.6549606,0.000125479768,0.936205506,9.36205482,-1.42116623E-05,-0.00117594097,-0.00406754948,0.00033757824,0.000861269014,1
2026-04-28T13:22:53.4322295Z,18,-0.52999989999999997,Race,true,false,68,Garage Test Track,16,Bullet,0,0,0,-140.37915,1.32109475,190.69693,3.75593663E-06,-0.0181773473,-0.999834776,-1,6.80884023E-06,-3.88034459E-06,6.87824922E-06,0.999834776,-0.0181773473,-0.000412886991,1.98370126E-05,-0.00112583465,-0.000158180992,-0.000228226796,-0.000340189261,0,1,0,0,0,20,0.0200000014,0.00119932182,0.00119915779,3.14158893,179.999771,0.0181783494,1.04154265,6.80996527E-06,0.000390182249,-0.000228226796,-0.00908904895,3.42191379E-06,0.999958694,1.9091492E-06,-140.37915,2.82512736,195.695557,-8.97889458E-06,-0.198783845,-0.980043352,1.74532926,1,goal_runtime,0x006742EC,0x006742EC,0x0067459C,0x07DB855C,0x00673FF8,0x2B837180,0x2B837180,0x07DB8C7C,0x00673FF8,0x07DBA95C,0x00673FF8,0x2B837180,0x2B837180,3.25999737,0,5,1,0x07DB842C,0x00673FF8,0x07DB855C,0x00673FF8,0x07DB86E0,0x00673FF8,0x07DB87D8,0x00673FF8,0x07DB88D0,0x00673FF8,,,1,0x2B838E2C,0,0.600000024,0,0,0,-0.0175327845,-0.0197407678,-0.000239336397,0,0.0197992288,1,0x2B838E2C,0,0.600000024,0,0,0,0.017546488,-0.019443864,-0.000238142806,0,0.0195024405,1,0x2B838E2C,0,0.600000024,0,0,0,0.0174510628,-0.0188128594,-0.000230925652,6.28308487,0.0189328007,1,0x2B838E2C,0,0.600000024,0,0,0,-0.0174480211,-0.0186464824,-0.000230280479,0.000105898507,0.018766718,1,0,0,0.0100000007,0.132332996,0.000211225008,1.25209244E-05,-0.00377249462,2000,-0.00242424943,6.01823704E-05,1,4844.00049,0,24.2200012,0.00138017198,0.979415119,9.79415131,-0.000239336397,-0.00174549955,-0.00242424943,6.01823704E-05,0.000474869332,1,2000,-0.00278570154,6.01827232E-05,1,4844.00049,0,24.2200012,0.0013733122,0.979415119,9.79415131,-0.000238142806,-0.00171919959,-0.00278570154,6.01827232E-05,0.000545671675,1,2000,-0.00331530068,0.000684666331,1,3129.80371,-0.000382155849,15.6490183,0.00204037456,0.936205506,9.36205482,-0.000230925652,-0.00166337483,-0.00331530068,0.000684666331,0.000521560607,1,2000,-0.0018946249,0.000684666098,1,3129.80371,0.000382155733,15.6490183,0.00203457521,0.936205506,9.36205482,-0.000230280479,-0.0016487398,-0.0018946249,0.000684666098,0.000453951623,1
2026-04-28T13:22:53.5313098Z,19,-0.42999999999999999,Race,true,false,68,Garage Test Track,16,Bullet,0,0,0,-140.37915,1.32109642,190.696716,2.76944388E-06,-0.0181820355,-0.999834776,-1.00000012,8.88571594E-06,-2.93148901E-06,8.93754805E-06,0.999834716,-0.0181820355,-0.00023742413,9.05336947E-06,-0.000675858522,-0.000239462184,0.000185189623,-0.000131181325,0,1,0,0,0,20,0.0200000014,0.000716405513,0.000716348353,3.14158988,179.999832,0.0181830358,1.04181111,8.88718478E-06,0.000509198173,0.000185189623,-0.00909139309,4.45600017E-06,0.999958694,1.42529211E-06,-140.37915,2.82512879,195.695343,-8.97886912E-06,-0.198783219,-0.98004353,1.74532926,1,goal_runtime,0x006742EC,0x006742EC,0x0067459C,0x07DB855C,0x00673FF8,0x2B837180,0x2B837180,0x07DB8C7C,0x00673FF8,0x07DBA95C,0x00673FF8,0x2B837180,0x2B837180,3.35999727,0,5,1,0x07DB842C,0x00673FF8,0x07DB855C,0x00673FF8,0x07DB86E0,0x00673FF8,0x07DB87D8,0x00673FF8,0x07DB88D0,0x00673FF8,,,1,0x2B838E2C,0,0.600000024,0,0,0,-0.017530825,0.000310996082,-0.00011370625,0,0.00193414465,1,0x2B838E2C,0,0.600000024,0,0,0,0.017548563,0.000319777668,-0.000112229944,0,0.00195876905,1,0x2B838E2C,0,0.600000024,0,0,0,0.0174514707,0.000389619614,0.000227030192,6.28309822,0.00261823926,1,0x2B838E2C,0,0.600000024,0,0,0,-0.0174476132,-0.020235084,0.000227529381,9.24647902E-05,0.0203454942,1,0,0,0.0100000007,0.0139485104,-0.000350237649,2.42186179E-05,-0.000954828749,2000,0.000478820846,0.000591708987,1,4845.50098,0,24.2275047,0.00190811337,0.979415119,9.79415131,-0.00011370625,0.000160863536,0.000478820846,0.000591708987,9.3792878E-05,1,2000,0.000860037107,0.000591710443,1,4845.50098,0,24.2275047,0.00193167804,0.979415119,9.79415131,-0.000112229944,0.000163321238,0.000860037107,0.000591710443,0.000168466693,1,2000,0.00147590693,-6.62051098E-05,1,3127.23535,0.000444392557,15.6361761,-0.00258802949,0.936205506,9.36205482,0.000227030192,0.000148869265,0.00147590693,-6.62051098E-05,0.000160995056,1,2000,-0.000137076568,-6.62028469E-05,1,3127.23535,-0.000444392557,15.6361761,-0.00201158645,0.936205506,9.36205482,0.000227529381,-0.00178915891,-0.000137076568,-6.62028469E-05,8.96890124E-05,1
2026-04-28T13:22:53.6322498Z,20,-0.33000000000000002,Race,true,false,68,Garage Test Track,16,Bullet,0,0,0,-140.37915,1.32109642,190.696487,-8.53881318E-07,-0.018186545,-0.999834776,-1.00000012,2.18343962E-06,8.14306816E-07,2.16826925E-06,0.999834597,-0.018186545,0.000202953568,-1.29840737E-05,-0.00153944001,-0.00010174881,0.000577467319,0.000204613927,0,1,0,0,0,20,0.0200000014,0.00155281497,0.00155276072,-3.14159179,-179.999939,0.0181875452,1.04206955,2.18380092E-06,0.000125122562,0.000577467319,-0.00909364782,1.08797212E-06,0.999958694,-4.17064257E-07,-140.37915,2.82512856,195.695114,-8.97886912E-06,-0.198783174,-0.98004353,1.74532926,1,goal_runtime,0x006742EC,0x006742EC,0x0067459C,0x07DB855C,0x00673FF8,0x2B837180,0x2B837180,0x07DB8C7C,0x00673FF8,0x07DBA95C,0x00673FF8,0x2B837180,0x2B837180,3.45999718,0,5,1,0x07DB842C,0x00673FF8,0x07DB855C,0x00673FF8,0x07DB86E0,0x00673FF8,0x07DB87D8,0x00673FF8,0x07DB88D0,0x00673FF8,,,1,0x2B838E2C,0,0.600000024,0,0,0,-0.0175375249,-6.07289803E-06,-0.000194586784,0,0.00112079084,1,0x2B838E2C,0,0.600000024,0,0,0,0.0175418593,-0.021806322,-0.000193173051,0,0.0218466707,1,0x2B838E2C,0,0.600000024,0,0,0,0.0174498912,-0.000191298546,0.000170235886,6.28308773,0.00188974617,1,0x2B838E2C,0,0.600000024,0,0,0,-0.0174490698,-5.4903544E-06,0.000170712185,0.000103099359,0.00151311804,1,0,0,0.0100000007,-0.0674705282,0.000125884311,-4.48876222E-07,-0.000190029299,2000,-0.00103125628,-0.000103292659,1,4845.11523,0,24.2255764,0.0011202686,0.979415119,9.79415131,-0.000194586784,-5.42085127E-06,-0.00103125628,-0.000103292659,0.000202005613,1,2000,-0.000732526765,-0.000103291095,1,4845.11523,0,24.2255764,0.00111365644,0.979415119,9.79415131,-0.000193173051,-0.00192814867,-0.000732526765,-0.000103291095,0.000143489568,1,2000,-0.000537647284,-0.000619472645,1,3128.09937,0.000140688993,15.6404963,-0.00187923398,0.936205506,9.36205482,0.000170235886,-0.000101272672,-0.000537647284,-0.000619472645,0.000137189723,1,2000,-0.0012261573,-0.000619474216,1,3128.09937,-0.000140688993,15.6404963,-0.00151247322,0.936205506,9.36205482,0.000170712185,-3.63002687E-06,-0.0012261573,-0.000619474216,0.000193067026,1
2026-04-28T13:22:53.7314080Z,21,-0.23000000000000001,Race,true,false,68,Garage Test Track,16,Bullet,0,0,0,-140.379135,1.32109368,190.696289,7.44013732E-06,-0.018184619,-0.999834776,-1.00000012,-1.15346086E-06,-7.42038947E-06,-1.01833314E-06,0.999834657,-0.018184619,-0.000141168741,-2.41299367E-05,-0.004493054,0.000368171983,-0.000268042088,-0.000189403669,0,1,0,0,0,20,0.0200000014,0.00449533574,0.00449527102,3.14158511,179.999557,0.0181856193,1.04195917,-1.15365162E-06,-6.60993683E-05,-0.000268042088,-0.00909268484,-5.42970952E-07,0.999958694,3.71528517E-06,-140.379135,2.82512569,195.694916,-8.97886912E-06,-0.198783174,-0.98004353,1.74532926,1,goal_runtime,0x006742EC,0x006742EC,0x0067459C,0x07DB855C,0x00673FF8,0x2B837180,0x2B837180,0x07DB8C7C,0x00673FF8,0x07DBA95C,0x00673FF8,0x2B837180,0x2B837180,3.55999708,0,5,1,0x07DB842C,0x00673FF8,0x07DB855C,0x00673FF8,0x07DB86E0,0x00673FF8,0x07DB87D8,0x00673FF8,0x07DB88D0,0x00673FF8,,,1,0x2B838E2C,0,0.600000024,0,0,0,-0.0175407436,-0.00604943465,-0.000544760202,0,0.00857723132,1,0x2B838E2C,0,0.600000024,0,0,0,0.0175386444,-0.00783423427,-0.000543525908,0,0.00968356431,1,0x2B838E2C,0,0.600000024,0,0,0,0.0174492989,-0.00677706487,-0.000185122553,6.28305674,0.00883598253,1,0x2B838E2C,0,0.600000024,0,0,0,-0.017449785,-0.00566206314,-0.000184353063,0.000134264425,0.00808904972,1,0,0,0.0100000007,-0.0668293312,0.00045405596,-3.65398482E-05,-0.00315646734,2000,-0.00414852938,-0.00141682778,1,4843.66406,0,24.2183189,0.00607546931,0.979415119,9.79415131,-0.00054476026,-0.000705586863,-0.00414852938,-0.00141682778,0.00081262656,1,2000,-0.0046715145,-0.00141683046,1,4843.66406,0,24.2183189,0.00568461139,0.979415119,9.79415131,-0.000543525966,-0.000809375138,-0.0046715145,-0.00141683046,0.000915070472,1,2000,-0.00444033835,-0.000514915853,1,3130.64844,0.000166544793,15.6532421,0.00566380983,0.936205506,9.36205482,-0.000185122553,-0.000767315389,-0.00444033835,-0.000514915853,0.000874645601,1,2000,-0.00437966781,-0.000514912826,1,3130.64844,-0.000166544793,15.6532421,0.00577216502,0.936205506,9.36205482,-0.000184353063,-0.000700265518,-0.00437966781,-0.000514912826,0.000776822155,1
2026-04-28T13:22:53.8317795Z,22,-0.1299999,Race,true,false,68,Garage Test Track,16,Bullet,0,0,0,-140.379135,1.32109284,190.696014,9.87951989E-06,-0.0181785021,-0.999834776,-1,1.26690077E-06,-9.90418721E-06,1.4467347E-06,0.999834776,-0.0181785021,0.000141461715,9.58953842E-06,-0.00258387858,4.26773477E-05,9.09300288E-05,6.88882647E-05,0,1,0,0,0,20,0.0200000014,0.00258776592,0.00258774823,3.14158273,179.99942,0.0181795023,1.04160869,1.26711018E-06,7.2600058E-05,9.09300288E-05,-0.00908962637,6.78436891E-07,0.999958694,4.94613096E-06,-140.379135,2.82512498,195.694641,-8.97889458E-06,-0.198783755,-0.980043352,1.74532926,1,goal_runtime,0x006742EC,0x006742EC,0x0067459C,0x07DB855C,0x00673FF8,0x2B837180,0x2B837180,0x07DB8C7C,0x00673FF8,0x07DBA95C,0x00673FF8,0x2B837180,0x2B837180,3.65999699,0,5,1,0x07DB842C,0x00673FF8,0x07DB855C,0x00673FF8,0x07DB86E0,0x00673FF8,0x07DB87D8,0x00673FF8,0x07DB88D0,0x00673FF8,,,1,0x2B838E2C,0,0.600000024,0,0,0,-0.0175383259,-0.0156990401,-0.000623793749,0,0.0161136091,1,0x2B838E2C,0,0.600000024,0,0,0,0.0175409466,-0.0178776719,-0.00062237127,0,0.0182437282,1,0x2B838E2C,0,0.600000024,0,0,0,0.017449813,-0.0167876836,0.000381637685,6.28311396,0.0171311833,1,0x2B838E2C,0,0.600000024,0,0,0,-0.0174492747,-0.015310864,0.000382450438,7.70192419E-05,0.015686715,1,0,0,0.0100000007,0.0925131515,0.000277082261,-6.03258877E-06,-0.0044341418,2000,-0.00361323613,-0.000596467638,1,4843.66895,0,24.2183437,0.00359709165,0.979415119,9.79415131,-0.000623793807,-0.00138825434,-0.00361323613,-0.000596467638,0.000707771687,1,2000,-0.00408938434,-0.000596466882,1,4843.66895,0,24.2183437,0.0035897335,0.979415119,9.79415131,-0.000622371328,-0.00158054102,-0.00408938434,-0.000596466882,0.000801041024,1,2000,-0.00371287274,0.000225434022,1,3130.54297,0.000271398254,15.6527147,-0.00337113929,0.936205506,9.36205482,0.000381637714,-0.00148442737,-0.00371287274,0.000225434022,0.000765651988,1,2000,-0.00398971699,0.000225433221,1,3130.54297,-0.000271398254,15.6527147,-0.00337889814,0.936205506,9.36205482,0.000382450467,-0.00135360425,-0.00398971699,0.000225433221,0.000676589611,1
2026-04-28T13:22:53.9317445Z,23,-0.029999899999999999,Race,true,false,68,Garage Test Track,16,Bullet,0,0,0,-140.379135,1.3210938,190.695801,-1.94322993E-08,-0.0181811824,-0.999834776,-1.00000012,1.02060749E-05,-1.66153654E-07,1.02074082E-05,0.999834716,-0.0181811824,-0.000175497757,1.82249096E-05,-0.000951157534,-0.000194814813,-0.000254723942,-0.000127359468,0,1,0,0,0,20,0.0200000014,0.000967384258,0.000967212545,-3.14159274,-180,0.0181821827,1.04176223,1.0207762E-05,0.000584861671,-0.000254723942,-0.00909096655,5.10358177E-06,0.999958694,3.6681854E-08,-140.379135,2.82512569,195.694427,-8.97889458E-06,-0.198783711,-0.980043352,1.74532926,1,goal_runtime,0x006742EC,0x006742EC,0x0067459C,0x07DB855C,0x00673FF8,0x2B837180,0x2B837180,0x07DB8C7C,0x00673FF8,0x07DBA95C,0x00673FF8,0x2B837180,0x2B837180,3.75999689,0,5,1,0x07DB842C,0x00673FF8,0x07DB855C,0x00673FF8,0x07DB86E0,0x00673FF8,0x07DB87D8,0x00673FF8,0x07DB88D0,0x00673FF8,,,1,0x2B838E2C,0,0.600000024,0,0,0,-0.0175295044,-0.0197865274,0.000352654781,0,0.0199011043,1,0x2B838E2C,0,0.600000024,0,0,0,0.0175498836,-0.0192021411,0.000353985379,0,0.0193202682,1,0x2B838E2C,0,0.600000024,0,0,0,0.0174517184,0.000303819863,-8.82369204E-05,6.28312206,0.00193866028,1,0x2B838E2C,0,0.600000024,0,0,0,-0.0174473654,-0.0186792035,-8.74271864E-05,6.84837796E-05,0.0187046826,1,0,0,0.0100000007,0.102557376,-0.000361307844,1.63723853E-05,-0.00300230505,2000,-0.00177965523,0.000463957054,1,4844.53662,0,24.222683,-0.0020334376,0.979415119,9.79415131,0.00035265481,-0.0017494713,-0.00177965523,0.000463957054,0.000348604284,1,2000,-0.00166752655,0.000463955774,1,4844.53662,0,24.222683,-0.00204097363,0.979415119,9.79415131,0.000353985408,-0.00169789942,-0.00166752655,0.000463955774,0.000326640176,1,2000,0.00178206223,0.000270762888,1,3128.94531,0.00248831441,15.6447258,0.00191385602,0.936205506,9.36205482,-8.82369204E-05,0.000156784256,0.00178206223,0.000270762888,0.000312241114,1,2000,-0.00522925192,0.000270763325,1,3128.94531,-0.00248831441,15.6447258,0.000772624509,0.936205506,9.36205482,-8.74271864E-05,-0.0016515993,-0.00522925192,0.000270763325,0.000333214499,1
2026-04-28T13:22:54.0322969Z,24,0.070000000000000007,Race,true,false,68,Garage Test Track,16,Bullet,0,0,0,-140.379135,1.3210938,190.695694,-2.54448128E-06,-0.0181921162,-0.999834776,-1.00000024,8.37204061E-06,2.39257201E-06,8.32712976E-06,0.999834538,-0.0181921162,0.000309325696,-1.35353857E-05,-0.00172638381,2.34901163E-05,-0.000281477813,0.000262472342,0,0,0,0,0,20,0.0200000014,0.00175392884,0.00175387668,-3.14159012,-179.999847,0.0181931145,1.04238868,8.37342577E-06,0.000479761919,-0.000281477813,-0.00909643341,4.17496494E-06,0.999958694,-1.23431425E-06,-140.379135,2.82512569,195.694321,-8.97886912E-06,-0.198783129,-0.98004353,1.74532926,1,goal_runtime,0x006742EC,0x006742EC,0x0067459C,0x07DB855C,0x00673FF8,0x2B837180,0x2B837180,0x07DB8C7C,0x00673FF8,0x07DBA95C,0x00673FF8,0x2B837180,0x2B837180,3.8599968,0,5,1,0x07DB842C,0x00673FF8,0x07DB855C,0x00673FF8,0x07DB86E0,0x00673FF8,0x07DB87D8,0x00673FF8,0x07DB88D0,0x00673FF8,,,1,0x2B838E2C,0,0.600000024,0,0,0,-0.0175313372,0.000351267459,0.000718228926,0,0.00425798213,1,0x2B838E2C,0,0.600000024,0,0,0,0.0175481662,0.00119864079,0.000719417527,0,0.00495982217,1,0x2B838E2C,0,0.600000024,0,0,0,0.0174514297,8.70112126E-05,-3.65075502E-05,6.28309298,0.00101919565,1,0x2B838E2C,0,0.600000024,0,0,0,-0.0174476467,9.12878022E-05,-3.54242293E-05,9.77908858E-05,0.00104093272,1,0,0,0.0100000007,-0.0632665902,-0.000252794765,-2.87789612E-06,-0.000461051881,2000,0.000185621771,-0.000136465125,1,4845.56396,0,24.2278194,-0.00424167234,0.979415119,9.79415131,0.000718229043,8.25309253E-05,0.000185621771,-0.000136465125,3.63601575E-05,1,2000,5.51702142E-05,-0.000136464369,1,4845.56396,0,24.2278194,-0.00481065083,0.979415119,9.79415131,0.000719417643,0.000241772053,5.51702142E-05,-0.000136464369,1.08069098E-05,1,2000,5.5241846E-05,8.87440838E-05,1,3127.5542,0,15.6377707,0.00101499597,0.936205506,9.36205482,-3.65075502E-05,8.54124082E-05,5.5241846E-05,8.87440838E-05,1.03435441E-05,1,2000,0.000185559853,8.87432616E-05,1,3127.5542,0,15.6377707,0.00103640219,0.936205506,9.36205482,-3.54242293E-05,8.77417406E-05,0.000185559853,8.87432616E-05,3.47444329E-05,1
2026-04-28T13:22:54.1316627Z,25,0.17000000000000001,Race,true,false,68,Garage Test Track,16,Bullet,0,0,0,-140.37912,1.32109404,190.695419,2.26827615E-06,-0.0181824751,-0.999834776,-1.00000012,4.42203191E-06,-2.34906793E-06,4.46401236E-06,0.999834657,-0.0181824751,0.000120158598,7.86976727E-07,-0.00389166689,0.000286771654,-0.000247680611,6.43107342E-05,0,0,0,0,0,20,0.0200000014,0.00389352161,0.00389352138,3.14159036,179.999863,0.0181834754,1.04183638,4.42276314E-06,0.000253405655,-0.000247680611,-0.00909161288,2.22160293E-06,0.999958694,1.15438365E-06,-140.37912,2.82512593,195.694046,-8.97886912E-06,-0.198783129,-0.98004353,1.74532926,1,goal_runtime,0x006742EC,0x006742EC,0x0067459C,0x07DB855C,0x00673FF8,0x2B837180,0x2B837180,0x07DB8C7C,0x00673FF8,0x07DBA95C,0x00673FF8,0x2B837180,0x2B837180,3.9599967,0,5,1,0x07DB842C,0x00673FF8,0x07DB855C,0x00673FF8,0x07DB86E0,0x00673FF8,0x07DB87D8,0x00673FF8,0x07DB88D0,0x00673FF8,,,1,0x2B838E2C,0,0.600000024,0,0,0,-0.0175351687,-0.000813386519,0.000102401747,0,0.00306349876,1,0x2B838E2C,0,0.600000024,0,0,0,0.0175441001,-0.000826706411,0.000103490682,0,0.00308826333,1,0x2B838E2C,0,0.600000024,0,0,0,0.017450463,-0.000783655094,-8.62113811E-05,6.28313637,0.00302776112,1,0x2B838E2C,0,0.600000024,0,0,0,-0.0174484979,-0.000737992232,-8.5199732E-05,5.42011112E-05,0.0029396438,1,0,0,0.0100000007,-0.14119409,3.84603918E-05,9.83669338E-07,-0.00106778485,2000,-0.00266280584,-6.27673071E-05,1,4844.22949,0,24.2211475,-0.00295219757,0.979415119,9.79415131,0.000102401747,-0.000265621638,-0.00266280584,-6.27673071E-05,0.0005215985,1,2000,-0.00267370581,-6.27672634E-05,1,4844.22949,0,24.2211475,-0.00297423871,0.979415119,9.79415131,0.000103490682,-0.00026780297,-0.00267370581,-6.27672634E-05,0.000523733615,1,2000,-0.00271896925,-4.40066397E-05,1,3129.60474,-3.26540357E-05,15.6480236,0.0029233417,0.936205506,9.36205482,-8.62113811E-05,-0.000258926331,-0.00271896925,-4.40066397E-05,0.000500626513,1,2000,-0.00261754147,-4.40067088E-05,1,3129.60474,3.26540394E-05,15.6480236,0.0028442787,0.936205506,9.36205482,-8.5199732E-05,-0.000251149235,-0.00261754147,-4.40067088E-05,0.000498587731,1
