timestamp_utc,sample_index,race_time_seconds,game_state,is_racing,is_paused,level_id,level_name,car_id,car_name,player_steer,player_throttle,player_brake,position_x,position_y,position_z,forward_x,forward_y,forward_z,right_x,right_y,right_z,up_x,up_y,up_z,velocity_x,velocity_y,velocity_z,angular_velocity_x,angular_velocity_y,angular_velocity_z,vehicle_applied_throttle,vehicle_applied_brake,vehicle_applied_handbrake,vehicle_control_candidate_1dfc,vehicle_applied_steer,vehicle_frame_delta_ms,vehicle_frame_delta_seconds,speed_magnitude,planar_speed_magnitude,yaw_radians,yaw_degrees,pitch_radians,pitch_degrees,roll_radians,roll_degrees,yaw_rate,quat_x,quat_y,quat_z,quat_w,camera_position_x,camera_position_y,camera_position_z,camera_forward_x,camera_forward_y,camera_forward_z,camera_fov,camera_mode_index,camera_family,camera_tracker_vtable,camera_tracker_slot_a_vtable,camera_tracker_slot_b_vtable,camera_output_active_profile_ptr,camera_output_active_profile_vtable,camera_output_source_node_ptr,camera_output_target_node_ptr,camera_goal_view_active_profile_ptr,camera_goal_view_active_profile_vtable,camera_goal_view_active_clip_ptr,camera_goal_view_active_clip_vtable,camera_goal_view_source_node_ptr,camera_goal_view_target_node_ptr,camera_goal_view_runtime_seconds,camera_goal_view_dirty_flag,player_camera_list_count,player_camera_active_profile_index,player_camera_list_0_ptr,player_camera_list_0_vtable,player_camera_list_1_ptr,player_camera_list_1_vtable,player_camera_list_2_ptr,player_camera_list_2_vtable,player_camera_list_3_ptr,player_camera_list_3_vtable,player_camera_list_4_ptr,player_camera_list_4_vtable,player_camera_list_5_ptr,player_camera_list_5_vtable,wheel_0_contact_flag,wheel_0_contact_ptr,wheel_0_contact_surface_44_candidate,wheel_0_contact_surface_48_candidate,wheel_0_contact_surface_4c_candidate,wheel_0_contact_surface_50_candidate,wheel_0_contact_surface_54_candidate,wheel_0_suspension_length_candidate,wheel_0_tire_force_multiplier_candidate,wheel_0_load_or_spin_candidate,wheel_0_rotation_or_phase_candidate,wheel_0_vertical_load_candidate,wheel_1_contact_flag,wheel_1_contact_ptr,wheel_1_contact_surface_44_candidate,wheel_1_contact_surface_48_candidate,wheel_1_contact_surface_4c_candidate,wheel_1_contact_surface_50_candidate,wheel_1_contact_surface_54_candidate,wheel_1_suspension_length_candidate,wheel_1_tire_force_multiplier_candidate,wheel_1_load_or_spin_candidate,wheel_1_rotation_or_phase_candidate,wheel_1_vertical_load_candidate,wheel_2_contact_flag,wheel_2_contact_ptr,wheel_2_contact_surface_44_candidate,wheel_2_contact_surface_48_candidate,wheel_2_contact_surface_4c_candidate,wheel_2_contact_surface_50_candidate,wheel_2_contact_surface_54_candidate,wheel_2_suspension_length_candidate,wheel_2_tire_force_multiplier_candidate,wheel_2_load_or_spin_candidate,wheel_2_rotation_or_phase_candidate,wheel_2_vertical_load_candidate,wheel_3_contact_flag,wheel_3_contact_ptr,wheel_3_contact_surface_44_candidate,wheel_3_contact_surface_48_candidate,wheel_3_contact_surface_4c_candidate,wheel_3_contact_surface_50_candidate,wheel_3_contact_surface_54_candidate,wheel_3_suspension_length_candidate,wheel_3_tire_force_multiplier_candidate,wheel_3_load_or_spin_candidate,wheel_3_rotation_or_phase_candidate,wheel_3_vertical_load_candidate
2026-04-28T11:47:39.7415108Z,1,-2.0299999,Race,true,false,68,Garage Test Track,16,Bullet,0,0,0,-140.379166,1.32115316,190.701126,-1.02555659E-05,-0.0181228016,-0.99983573,-0.99999994,3.36248854E-06,1.01963033E-05,3.1771508E-06,0.999835789,-0.0181228016,-0.000166107609,-0.000724077108,-0.00225009839,-0.000641713792,0.000344757107,-0.000107044114,0,1,0,0,0,20,0.0200000014,0.0023695617,0.00225622137,-3.14158249,-179.999405,0.0181237943,1.03841686,3.36304083E-06,0.000192688036,0.000344757107,-0.00906177331,1.63497702E-06,0.999958932,-5.11317739E-06,-140.379166,2.82513475,195.699753,-8.97891186E-06,-0.19877483,-0.980045259,1.74532926,1,goal_runtime,0x006742EC,0x006742EC,0x0067459C,0x07D5855C,0x00673FF8,0x2B6E1DF8,0x2B6E1DF8,0x07D58C7C,0x00673FF8,0x07D5A95C,0x00673FF8,0x2B6E1DF8,0x2B6E1DF8,1.6299988,255,5,1,0x07D5842C,0x00673FF8,0x07D5855C,0x00673FF8,0x07D586E0,0x00673FF8,0x07D587D8,0x00673FF8,0x07D588D0,0x00673FF8,,,1,0x2B6E3AA4,0,0.600000024,0,0,0,-0.0175337028,-0.00523561751,0.000475639914,0,0.00794837344,1,0x2B6E3AA4,0,0.600000024,0,0,0,0.0175448842,-0.0261833314,0.000476210349,0,0.026342988,1,0x2B6E3AA4,0,0.600000024,0,0,0,0.0174507722,-0.00421045721,-0.000806920987,0.000177016773,0.00892267097,1,0x2B6E3AA4,0,0.600000024,0,0,0,-0.0174483452,-0.0066754166,-0.000806230877,6.28301287,0.0102467313
2026-04-28T11:47:39.8070487Z,2,-1.9299999000000001,Race,true,false,68,Garage Test Track,16,Bullet,0,0,0,-140.37915,1.32109833,190.700958,5.50970026E-06,-0.0181698482,-0.999835253,-1.00000036,4.7174666E-07,-5.51918265E-06,5.71951489E-07,0.999834895,-0.0181698482,-0.00016974927,-0.000616616628,-0.004700955,-0.000217985944,-0.000220482441,-0.000193316286,0,1,0,0,0,20,0.0200000014,0.00474426057,0.00470401905,3.14158726,179.99968,0.0181708429,1.04111254,4.71824563E-07,2.70335549E-05,-0.000220482441,-0.00908529852,2.6093528E-07,0.999958813,2.75733419E-06,-140.37915,2.82509804,195.6996,-8.97888094E-06,-0.198776484,-0.980044901,1.74532926,1,goal_runtime,0x006742EC,0x006742EC,0x0067459C,0x07D5855C,0x00673FF8,0x2B6E1DF8,0x2B6E1DF8,0x07D58C7C,0x00673FF8,0x07D5A95C,0x00673FF8,0x2B6E1DF8,0x2B6E1DF8,1.69999874,255,5,1,0x07D5842C,0x00673FF8,0x07D5855C,0x00673FF8,0x07D586E0,0x00673FF8,0x07D587D8,0x00673FF8,0x07D588D0,0x00673FF8,,,1,0x2B6E3AA4,0,0.600000024,0,0,0,-0.0175391231,-0.00622857874,-0.000405323779,0,0.00856028963,1,0x2B6E3AA4,0,0.600000024,0,0,0,0.0175401531,-0.00752874231,-0.000405047962,0,0.00938173849,1,0x2B6E3AA4,0,0.600000024,0,0,0,0.0174496155,-0.006839348,-0.000210985512,0.000159936433,0.00889885984,1,0x2B6E3AA4,0,0.600000024,0,0,0,-0.0174494758,-0.00594397914,-0.000210410435,6.28303003,0.00830862112
2026-04-28T11:47:39.9062719Z,3,-1.8500000000000001,Race,true,false,68,Garage Test Track,16,Bullet,0,0,0,-140.37915,1.32106054,190.700729,6.32631725E-08,-0.0182046946,-0.999834299,-1,4.86191129E-06,-1.51797948E-07,4.86386944E-06,0.999834299,-0.0182046946,-6.62823804E-05,-0.000357847777,-0.00457388302,-2.75503971E-05,0.000266748655,-4.85142373E-05,0,1,0,0,0,10,0.0100000007,0.00458833901,0.00457436312,3.1415925,179.999985,0.0182057004,1.04310977,4.86271711E-06,0.000278613152,0.000266748655,-0.00910272449,2.43154591E-06,0.999958575,5.37675078E-08,-140.37915,2.825073,195.699371,-8.97885002E-06,-0.198778525,-0.980044425,1.74532926,1,goal_runtime,0x006742EC,0x006742EC,0x0067459C,0x07D5855C,0x00673FF8,0x2B6E1DF8,0x2B6E1DF8,0x07D58C7C,0x00673FF8,0x07D5A95C,0x00673FF8,0x2B6E1DF8,0x2B6E1DF8,1.77999866,255,5,1,0x07D5842C,0x00673FF8,0x07D5855C,0x00673FF8,0x07D586E0,0x00673FF8,0x07D587D8,0x00673FF8,0x07D588D0,0x00673FF8,,,1,0x2B6E3AA4,0,0.600000024,0,0,0,-0.0175349601,-0.0046975743,-9.58513992E-05,0,0.007302735,1,0x2B6E3AA4,0,0.600000024,0,0,0,0.0175447706,-0.00535294553,-9.5531941E-05,0,0.00779422559,1,0x2B6E3AA4,0,0.600000024,0,0,0,0.0174505394,-0.00496404059,3.10895193E-05,0.000183801341,0.00749882031,1,0x2B6E3AA4,0,0.600000024,0,0,0,-0.0174484104,-0.0042098281,3.16159858E-05,6.28300619,0.0069062151
2026-04-28T11:47:40.0073509Z,4,-1.73,Race,true,false,68,Garage Test Track,16,Bullet,0,0,0,-140.37915,1.32104564,190.700409,-7.83187886E-07,-0.0182251837,-0.999833822,-0.99999994,5.87847899E-06,6.76163779E-07,5.86517945E-06,0.999833882,-0.0182251837,0.000211176011,4.92406507E-05,0.000538311375,-0.000423367688,-0.00025567101,0.00014447709,0,1,0,0,0,20,0.0200000014,0.000580343942,0.000578251202,-3.14159179,-179.999939,0.0182261951,1.04428399,5.87945578E-06,0.00033686799,-0.00025567101,-0.0091129709,2.93603648E-06,0.999958456,-3.64853065E-07,-140.37915,2.82507372,195.699036,-8.97884365E-06,-0.198781759,-0.980043769,1.74532926,1,goal_runtime,0x006742EC,0x006742EC,0x0067459C,0x07D5855C,0x00673FF8,0x2B6E1DF8,0x2B6E1DF8,0x07D58C7C,0x00673FF8,0x07D5A95C,0x00673FF8,0x2B6E1DF8,0x2B6E1DF8,1.89999855,255,5,1,0x07D5842C,0x00673FF8,0x07D5855C,0x00673FF8,0x07D586E0,0x00673FF8,0x07D587D8,0x00673FF8,0x07D588D0,0x00673FF8,,,1,0x2B6E3AA4,0,0.600000024,0,0,0,-0.0175340567,-0.0217393581,0.000371199945,0,0.0218561627,1,0x2B6E3AA4,0,0.600000024,0,0,0,0.0175458975,-0.0208298359,0.000371647067,0,0.0209507234,1,0x2B6E3AA4,0,0.600000024,0,0,0,0.0174508337,-0.020401001,-0.00016400883,0.00015437165,0.020463299,1,0x2B6E3AA4,0,0.600000024,0,0,0,-0.0174482204,-0.0202919878,-0.000163506367,6.28303671,0.0203541536
2026-04-28T11:47:40.1068373Z,5,-1.6499999000000001,Race,true,false,68,Garage Test Track,16,Bullet,0,0,0,-140.37915,1.32105708,190.700195,-6.70786562E-07,-0.0182177015,-0.999834299,-1.00000024,9.3566905E-06,5.0041217E-07,9.34602213E-06,0.999834061,-0.0182177015,1.03205393E-05,0.000206574434,0.000470663741,-0.000263978494,-0.000235490166,-2.57147758E-06,0,1,0,0,0,10,0.0100000007,0.000514104904,0.000470776868,-3.14159203,-179.999954,0.0182187054,1.04385483,9.35824301E-06,0.000536187785,-0.000235490166,-0.00910922792,4.67587188E-06,0.999958575,-2.92811819E-07,-140.37915,2.82509661,195.698776,-8.97884092E-06,-0.198783234,-0.980043471,1.74532926,1,goal_runtime,0x006742EC,0x006742EC,0x0067459C,0x07D5855C,0x00673FF8,0x2B6E1DF8,0x2B6E1DF8,0x07D58C7C,0x00673FF8,0x07D5A95C,0x00673FF8,0x2B6E1DF8,0x2B6E1DF8,1.99999845,255,5,1,0x07D5842C,0x00673FF8,0x07D5855C,0x00673FF8,0x07D586E0,0x00673FF8,0x07D587D8,0x00673FF8,0x07D588D0,0x00673FF8,,,1,0x2B6E3AA4,0,0.600000024,0,0,0,-0.017530581,-0.0215983894,0.000416212948,0,0.0217429884,1,0x2B6E3AA4,0,0.600000024,0,0,0,0.0175492615,-0.0204520393,0.000416666764,0,0.0206033923,1,0x2B6E3AA4,0,0.600000024,0,0,0,0.0174515732,0.000305478548,6.80138182E-05,0.000119605553,0.00190870219,1,0x2B6E3AA4,0,0.600000024,0,0,0,-0.0174474884,0.000273248006,6.86070562E-05,6.28307152,0.00181207352
2026-04-28T11:47:40.2069158Z,6,-1.5299999,Race,true,false,68,Garage Test Track,16,Bullet,0,0,0,-140.37915,1.32108557,190.699844,1.20440563E-06,-0.0181903765,-0.999834776,-1.00000024,1.02968179E-05,-1.39193889E-06,1.03204338E-05,0.999834538,-0.0181903765,-0.000438256073,0.000231696016,-0.00442895293,0.000481893338,0.000367346336,-0.000287912146,0,1,0,0,0,20,0.0200000014,0.00445660995,0.00445058336,3.14159155,179.999924,0.0181913748,1.0422889,1.02985223E-05,0.000590061827,0.000367346336,-0.00909556355,5.15452575E-06,0.999958694,6.49112962E-07,-140.37915,2.82512331,195.698471,-8.97886639E-06,-0.198784351,-0.980043232,1.74532926,1,goal_runtime,0x006742EC,0x006742EC,0x0067459C,0x07D5855C,0x00673FF8,0x2B6E1DF8,0x2B6E1DF8,0x07D58C7C,0x00673FF8,0x07D5A95C,0x00673FF8,0x2B6E1DF8,0x2B6E1DF8,2.09999847,255,5,1,0x07D5842C,0x00673FF8,0x07D5855C,0x00673FF8,0x07D586E0,0x00673FF8,0x07D587D8,0x00673FF8,0x07D588D0,0x00673FF8,,,1,0x2B6E3AA4,0,0.600000024,0,0,0,-0.0175294131,-0.00496336818,-0.000142049568,0,0.00751809031,1,0x2B6E3AA4,0,0.600000024,0,0,0,0.0175500903,-0.00589050911,-0.000141467637,0,0.00818652567,1,0x2B6E3AA4,0,0.600000024,0,0,0,0.0174518041,-0.00565433502,0.000228029734,0.000102424914,0.00812800042,1,0x2B6E3AA4,0,0.600000024,0,0,0,-0.0174472723,-0.00457408978,0.000228576726,6.28308868,0.00733955577
2026-04-28T11:47:40.3065883Z,7,-1.45,Race,true,false,68,Garage Test Track,16,Bullet,0,0,0,-140.37915,1.32110131,190.699631,-7.32879528E-07,-0.0181771554,-0.999834776,-1,5.90095942E-06,6.25720247E-07,5.8886103E-06,0.999834776,-0.0181771554,-0.000127818173,0.000158960451,-0.0044576237,0.000428437052,0.00049289997,-7.67231613E-05,0,1,0,0,0,10,0.0100000007,0.00446228823,0.00445945607,-3.14159203,-179.999954,0.0181781575,1.04153168,5.9019344E-06,0.000338155922,0.00049289997,-0.00908895303,2.94751408E-06,0.999958694,-3.39663984E-07,-140.37915,2.82513857,195.698257,-8.97889186E-06,-0.198784813,-0.980043054,1.74532926,1,goal_runtime,0x006742EC,0x006742EC,0x0067459C,0x07D5855C,0x00673FF8,0x2B6E1DF8,0x2B6E1DF8,0x07D58C7C,0x00673FF8,0x07D5A95C,0x00673FF8,0x2B6E1DF8,0x2B6E1DF8,2.1799984,255,5,1,0x07D5842C,0x00673FF8,0x07D5855C,0x00673FF8,0x07D586E0,0x00673FF8,0x07D587D8,0x00673FF8,0x07D588D0,0x00673FF8,,,1,0x2B6E3AA4,0,0.600000024,0,0,0,-0.0175336916,-0.00524771726,-0.000201332077,0,0.00775121665,1,0x2B6E3AA4,0,0.600000024,0,0,0,0.0175455809,-0.00583001738,-0.000200587849,0,0.00816552714,1,0x2B6E3AA4,0,0.600000024,0,0,0,0.0174507517,-0.00550148683,9.08068614E-05,7.5032789E-05,0.00791204162,1,0x2B6E3AA4,0,0.600000024,0,0,0,-0.0174483322,-0.00462526456,9.12923933E-05,6.28311634,0.00725857774
2026-04-28T11:47:40.4068607Z,8,-1.3300000000000001,Race,true,false,68,Garage Test Track,16,Bullet,0,0,0,-140.37915,1.32111156,190.699341,-1.16764147E-06,-0.0181734115,-0.999834776,-0.99999994,5.86525357E-06,1.06122513E-06,5.84499912E-06,0.999834836,-0.0181734115,0.000356382719,1.92187417E-05,0.000461275893,-0.000396794872,-1.91354575E-05,0.000271218014,0,1,0,0,0,20,0.0200000014,0.000583226793,0.000582910026,-3.14159155,-179.999924,0.0181744136,1.04131711,5.86622264E-06,0.000336109777,-1.91354575E-05,-0.00908708107,2.92768414E-06,0.999958694,-5.57239673E-07,-140.37915,2.82514668,195.697968,-8.97889367E-06,-0.198784396,-0.980043292,1.74532926,1,goal_runtime,0x006742EC,0x006742EC,0x0067459C,0x07D5855C,0x00673FF8,0x2B6E1DF8,0x2B6E1DF8,0x07D58C7C,0x00673FF8,0x07D5A95C,0x00673FF8,0x2B6E1DF8,0x2B6E1DF8,2.29999828,255,5,1,0x07D5842C,0x00673FF8,0x07D5855C,0x00673FF8,0x07D586E0,0x00673FF8,0x07D587D8,0x00673FF8,0x07D588D0,0x00673FF8,,,1,0x2B6E3AA4,0,0.600000024,0,0,0,-0.0175337289,-0.0212721657,0.000296925602,0,0.0213525165,1,0x2B6E3AA4,0,0.600000024,0,0,0,0.0175455436,-0.0206821356,0.00029773984,0,0.0207643677,1,0x2B6E3AA4,0,0.600000024,0,0,0,0.0174508356,-0.0198836792,-2.23687675E-05,4.29650354E-05,0.0198950153,1,0x2B6E3AA4,0,0.600000024,0,0,0,-0.0174482521,-0.0202219859,-2.18630303E-05,6.28314781,0.020233497
2026-04-28T11:47:40.5067833Z,9,-1.25,Race,true,false,68,Garage Test Track,16,Bullet,0,0,0,-140.37915,1.32110953,190.699127,-1.9381464E-06,-0.0181746744,-0.999834776,-0.99999994,6.12258464E-06,1.82717213E-06,6.0883649E-06,0.999834836,-0.0181746744,0.000182978954,-5.20318754E-05,0.000445933663,-0.00045598764,-0.000201837,0.000132100467,0,1,0,0,0,10,0.0100000007,0.000484814867,0.000482014671,-3.14159083,-179.999893,0.0181756765,1.04138947,6.12359599E-06,0.000350856193,-0.000201837,-0.0090877125,3.05286358E-06,0.999958694,-9.41368512E-07,-140.37915,2.82514191,195.697708,-8.97889367E-06,-0.198784113,-0.980043292,1.74532926,1,goal_runtime,0x006742EC,0x006742EC,0x0067459C,0x07D5855C,0x00673FF8,0x2B6E1DF8,0x2B6E1DF8,0x07D58C7C,0x00673FF8,0x07D5A95C,0x00673FF8,0x2B6E1DF8,0x2B6E1DF8,2.39999819,255,5,1,0x07D5842C,0x00673FF8,0x07D5855C,0x00673FF8,0x07D586E0,0x00673FF8,0x07D587D8,0x00673FF8,0x07D588D0,0x00673FF8,,,1,0x2B6E3AA4,0,0.600000024,0,0,0,-0.0175334699,-0.0214348994,0.000371494651,0,0.0215533487,1,0x2B6E3AA4,0,0.600000024,0,0,0,0.0175458025,-0.0205238126,0.00037248811,0,0.0206468962,1,0x2B6E3AA4,0,0.600000024,0,0,0,0.017450856,-0.0201424081,-0.000226193384,1.86739035E-05,0.0202520732,1,0x2B6E3AA4,0,0.600000024,0,0,0,-0.0174481124,0.000351392635,-0.000179373965,6.28317165,0.00232913881
2026-04-28T11:47:40.6073487Z,10,-1.1299999000000001,Race,true,false,68,Garage Test Track,16,Bullet,0,0,0,-140.37915,1.32109964,190.698776,1.49450261E-06,-0.0181770865,-0.999834776,-1,9.14621523E-06,-1.66102859E-06,9.17489706E-06,0.999834776,-0.0181770865,-0.000708042993,-8.96000929E-05,-0.0045244121,0.000223425261,6.87648135E-05,-0.000553373131,0,1,0,0,0,20,0.0200000014,0.00458035572,0.00457947934,3.14159107,179.999893,0.0181780886,1.04152775,9.14772681E-06,0.00052412611,6.87648135E-05,-0.00908891857,4.58046725E-06,0.999958694,7.88915372E-07,-140.37915,2.82513309,195.697403,-8.97889367E-06,-0.198784038,-0.980043292,1.74532926,1,goal_runtime,0x006742EC,0x006742EC,0x0067459C,0x07D5855C,0x00673FF8,0x2B6E1DF8,0x2B6E1DF8,0x07D58C7C,0x00673FF8,0x07D5A95C,0x00673FF8,0x2B6E1DF8,0x2B6E1DF8,2.49999809,255,5,1,0x07D5842C,0x00673FF8,0x07D5855C,0x00673FF8,0x07D586E0,0x00673FF8,0x07D587D8,0x00673FF8,0x07D588D0,0x00673FF8,,,1,0x2B6E3AA4,0,0.600000024,0,0,0,-0.0175304469,-0.00549159246,-0.000214486005,0,0.00793299638,1,0x2B6E3AA4,0,0.600000024,0,0,0,0.0175488256,-0.00554910116,-0.00021345455,0,0.00797401089,1,0x2B6E3AA4,0,0.600000024,0,0,0,0.0174514949,-0.00543395011,-0.000127261475,6.28316355,0.00788371265,1,0x2B6E3AA4,0,0.600000024,0,0,0,-0.0174474716,-0.00465786504,-0.00012679465,2.73705082E-05,0.00730463909
2026-04-28T11:47:40.7068715Z,11,-1.0499999,Race,true,false,68,Garage Test Track,16,Bullet,0,0,0,-140.37915,1.32109344,190.698563,1.16934098E-06,-0.0181821287,-0.999834776,-1.00000012,9.98473661E-06,-1.35110804E-06,1.00076522E-05,0.999834716,-0.0181821287,-0.000435400492,-7.08897496E-05,-0.00451784441,0.000236221327,0.00035655775,-0.000283246802,0,1,0,0,0,10,0.0100000007,0.00453933002,0.00453877635,3.14159155,179.999924,0.0181831289,1.04181647,9.98638734E-06,0.000572177814,0.00035655775,-0.00909143966,4.99830367E-06,0.999958694,6.30138288E-07,-140.37915,2.82512593,195.697128,-8.97886821E-06,-0.198783472,-0.980043471,1.74532926,1,goal_runtime,0x006742EC,0x006742EC,0x0067459C,0x07D5855C,0x00673FF8,0x2B6E1DF8,0x2B6E1DF8,0x07D58C7C,0x00673FF8,0x07D5A95C,0x00673FF8,0x2B6E1DF8,0x2B6E1DF8,2.599998,255,5,1,0x07D5842C,0x00673FF8,0x07D5855C,0x00673FF8,0x07D586E0,0x00673FF8,0x07D587D8,0x00673FF8,0x07D588D0,0x00673FF8,,,1,0x2B6E3AA4,0,0.600000024,0,0,0,-0.017529726,-0.00500602135,-0.000126058687,0,0.00754539948,1,0x2B6E3AA4,0,0.600000024,0,0,0,0.0175496619,-0.00598168792,-0.000124922022,0,0.00824480597,1,0x2B6E3AA4,0,0.600000024,0,0,0,0.0174517352,-0.00541717233,0.000230480975,6.28317451,0.0079640951,1,0x2B6E3AA4,0,0.600000024,0,0,0,-0.0174473487,-0.00492712623,0.000230881065,1.61338121E-05,0.00760961138
2026-04-28T11:47:40.8073498Z,12,-0.93000000000000005,Race,true,false,68,Garage Test Track,16,Bullet,0,0,0,-140.37915,1.32108879,190.698273,-6.57028181E-07,-0.0181912426,-0.999834776,-1.00000024,9.01836484E-06,4.93054472E-07,9.00790383E-06,0.999834538,-0.0181912426,4.19154821E-05,-1.55321304E-05,0.000459011149,-0.0004339726,-0.000258679938,2.46007949E-05,0,1,0,0,0,20,0.0200000014,0.000461182615,0.000460920972,-3.14159203,-179.999954,0.018192241,1.04233861,9.01985732E-06,0.000516799744,-0.000258679938,-0.00909599662,4.50675316E-06,0.999958694,-2.87532544E-07,-140.37915,2.82512283,195.696899,-8.97886821E-06,-0.198783591,-0.980043471,1.74532926,1,goal_runtime,0x006742EC,0x006742EC,0x0067459C,0x07D5855C,0x00673FF8,0x2B6E1DF8,0x2B6E1DF8,0x07D58C7C,0x00673FF8,0x07D5A95C,0x00673FF8,0x2B6E1DF8,0x2B6E1DF8,2.6999979,255,5,1,0x07D5842C,0x00673FF8,0x07D5855C,0x00673FF8,0x07D586E0,0x00673FF8,0x07D587D8,0x00673FF8,0x07D588D0,0x00673FF8,,,1,0x2B6E3AA4,0,0.600000024,0,0,0,-0.0175306909,-0.0215067342,0.00041746124,0,0.0216527376,1,0x2B6E3AA4,0,0.600000024,0,0,0,0.0175488126,-0.0204982068,0.000418731302,0,0.020650791,1,0x2B6E3AA4,0,0.600000024,0,0,0,0.01745148,-0.0203793012,-9.87691019E-05,6.28312492,0.0204087477,1,0x2B6E3AA4,0,0.600000024,0,0,0,-0.0174474772,-0.0198983289,-9.83739737E-05,6.56672782E-05,0.019927714
2026-04-28T11:47:40.9068060Z,13,-0.84999999999999998,Race,true,false,68,Garage Test Track,16,Bullet,0,0,0,-140.37915,1.32108855,190.698059,-1.09109544E-06,-0.0181913581,-0.999834776,-1.00000024,5.8319888E-06,9.85166594E-07,5.81310223E-06,0.999834538,-0.0181913581,0.000350082788,1.42663666E-05,0.000466030178,-0.000410634093,-5.97470489E-06,0.000262871239,0,1,0,0,0,10,0.0100000007,0.000583048561,0.000582873996,-3.14159155,-179.999924,0.0181923565,1.04234517,5.83295378E-06,0.000334203622,-5.97470489E-06,-0.00909605436,2.91139304E-06,0.999958694,-5.19086939E-07,-140.37915,2.82512331,195.69664,-8.97886821E-06,-0.198783681,-0.980043471,1.74532926,1,goal_runtime,0x006742EC,0x006742EC,0x0067459C,0x07D5855C,0x00673FF8,0x2B6E1DF8,0x2B6E1DF8,0x07D58C7C,0x00673FF8,0x07D5A95C,0x00673FF8,0x2B6E1DF8,0x2B6E1DF8,2.79999781,255,5,1,0x07D5842C,0x00673FF8,0x07D5855C,0x00673FF8,0x07D586E0,0x00673FF8,0x07D587D8,0x00673FF8,0x07D588D0,0x00673FF8,,,1,0x2B6E3AA4,0,0.600000024,0,0,0,-0.017533876,-0.0213240478,0.000278121413,0,0.0213958174,1,0x2B6E3AA4,0,0.600000024,0,0,0,0.0175456274,-0.0207764879,0.000279474771,0,0.020849999,1,0x2B6E3AA4,0,0.600000024,0,0,0,0.0174507983,0.000366610358,-0.000173736276,6.28311491,0.00234554312,1,0x2B6E3AA4,0,0.600000024,0,0,0,-0.0174482781,0.000356529345,-0.000173362889,8.40704961E-05,0.0023181797
2026-04-28T11:47:41.0063948Z,14,-0.75,Race,true,false,68,Garage Test Track,16,Bullet,0,0,0,-140.37915,1.32109082,190.6978,4.7702224E-06,-0.0181901064,-0.999834776,-1.00000024,4.37188964E-06,-4.85054989E-06,4.4593985E-06,0.999834538,-0.0181901064,0.00011701545,2.04493026E-05,-0.00286982395,0.000110436646,-0.000305633876,5.62268615E-05,0,1,0,0,0,10,0.0100000007,0.00287228124,0.0028722086,3.14158797,179.999725,0.0181911048,1.04227352,4.37261315E-06,0.000250532263,-0.000305633876,-0.00909542851,2.20791321E-06,0.999958694,2.40529243E-06,-140.37915,2.82512522,195.696426,-8.97886821E-06,-0.198783681,-0.980043471,1.74532926,1,goal_runtime,0x006742EC,0x006742EC,0x0067459C,0x07D5855C,0x00673FF8,0x2B6E1DF8,0x2B6E1DF8,0x07D58C7C,0x00673FF8,0x07D5A95C,0x00673FF8,0x2B6E1DF8,0x2B6E1DF8,2.87999773,255,5,1,0x07D5842C,0x00673FF8,0x07D5855C,0x00673FF8,0x07D586E0,0x00673FF8,0x07D587D8,0x00673FF8,0x07D588D0,0x00673FF8,,,1,0x2B6E3AA4,0,0.600000024,0,0,0,-0.0175353363,-1.66732423E-06,-4.68878716E-05,0,0.000278070016,1,0x2B6E3AA4,0,0.600000024,0,0,0,0.0175441671,-6.44659508E-08,-4.53307875E-05,0,0.000262237707,1,0x2B6E3AA4,0,0.600000024,0,0,0,0.0174504109,-1.09705105E-07,-2.3667686E-05,6.28309727,0.000209776787,1,0x2B6E3AA4,0,0.600000024,0,0,0,-0.0174485464,-1.17731224E-06,-2.3385961E-05,9.30985698E-05,0.000215483422
2026-04-28T11:47:41.1072977Z,15,-0.62999989999999995,Race,true,false,68,Garage Test Track,16,Bullet,0,0,0,-140.37915,1.32109392,190.697464,7.39968027E-06,-0.0181828402,-0.999834776,-1.00000012,3.91697904E-06,-7.47213699E-06,4.05219635E-06,0.999834657,-0.0181828402,0.000349435693,2.50044504E-05,-0.00304673868,0.00011208556,-0.000171779524,0.000229670477,0,1,0,0,0,20,0.0200000014,0.00306681381,0.00306671183,3.14158535,179.999573,0.0181838404,1.04185724,3.9176266E-06,0.000224463452,-0.000171779524,-0.00909179542,1.99237616E-06,0.999958694,3.71810779E-06,-140.37915,2.8251276,195.696091,-8.97886821E-06,-0.198783517,-0.980043471,1.74532926,1,goal_runtime,0x006742EC,0x006742EC,0x0067459C,0x07D5855C,0x00673FF8,0x2B6E1DF8,0x2B6E1DF8,0x07D58C7C,0x00673FF8,0x07D5A95C,0x00673FF8,0x2B6E1DF8,0x2B6E1DF8,2.99999762,255,5,1,0x07D5842C,0x00673FF8,0x07D5855C,0x00673FF8,0x07D586E0,0x00673FF8,0x07D587D8,0x00673FF8,0x07D588D0,0x00673FF8,,,1,0x2B6E3AA4,0,0.600000024,0,0,0,-0.0175357927,-0.0137231061,-0.000205194752,0,0.0137803983,1,0x2B6E3AA4,0,0.600000024,0,0,0,0.0175435953,-0.0147163663,-0.000203589487,0,0.0147700775,1,0x2B6E3AA4,0,0.600000024,0,0,0,0.0174503159,-0.00553373946,0.000246401818,1.86538418E-05,0.00806545373,1,0x2B6E3AA4,0,0.600000024,0,0,0,-0.0174486488,-0.0201060269,0.000246753509,6.28317165,0.02023446
2026-04-28T11:47:41.2070029Z,16,-0.55000000000000004,Race,true,false,68,Garage Test Track,16,Bullet,0,0,0,-140.37915,1.32109475,190.697357,1.25913093E-05,-0.0181898288,-0.999834776,-1.00000024,5.27061047E-06,-1.26892801E-05,5.50055438E-06,0.999834538,-0.0181898288,0.000391402078,-5.71625492E-07,-0.00176149909,-4.76343666E-06,-8.84830661E-05,0.000301765016,0,1,0,0,0,10,0.0100000007,0.00180445972,0.00180445961,3.1415801,179.999268,0.0181908272,1.04225755,5.27148268E-06,0.000302033703,-8.84830661E-05,-0.00909528974,2.6929024E-06,0.999958694,6.32040837E-06,-140.37915,2.82512808,195.695969,-8.97886821E-06,-0.198783427,-0.980043471,1.74532926,1,goal_runtime,0x006742EC,0x006742EC,0x0067459C,0x07D5855C,0x00673FF8,0x2B6E1DF8,0x2B6E1DF8,0x07D58C7C,0x00673FF8,0x07D5A95C,0x00673FF8,0x2B6E1DF8,0x2B6E1DF8,3.09999752,255,5,1,0x07D5842C,0x00673FF8,0x07D5855C,0x00673FF8,0x07D586E0,0x00673FF8,0x07D587D8,0x00673FF8,0x07D588D0,0x00673FF8,,,1,0x2B6E3AA4,0,0.600000024,0,0,0,-0.0175344385,-0.0266016405,-0.000375651493,0,0.0267061666,1,0x2B6E3AA4,0,0.600000024,0,0,0,0.0175450649,-0.00820051041,-0.000602927874,0,0.0099557247,1,0x2B6E3AA4,0,0.600000024,0,0,0,0.0174505934,-0.00811561849,0.000598911254,6.28311348,0.0103391334,1,0x2B6E3AA4,0,0.600000024,0,0,0,-0.017448483,-0.00879209116,0.000351051975,7.70878833E-05,0.0102217989
2026-04-28T11:47:41.3065040Z,17,-0.44999990000000001,Race,true,false,68,Garage Test Track,16,Bullet,0,0,0,-140.37915,1.32109427,190.697144,1.88264335E-06,-0.0181822013,-0.999834776,-1.00000012,7.13445388E-06,-2.01269609E-06,7.1698696E-06,0.999834716,-0.0181822013,0.000252634636,9.13226722E-06,-0.000737031107,-0.000170036539,-0.000103940605,0.000201782124,0,1,0,0,0,10,0.0100000007,0.000779180671,0.00077912712,3.14159083,179.999893,0.0181832016,1.04182065,7.1356335E-06,0.000408841675,-0.000103940605,-0.00909147598,3.57622866E-06,0.999958694,9.73875103E-07,-140.37915,2.82512712,195.69577,-8.97886821E-06,-0.198783323,-0.980043471,1.74532926,1,goal_runtime,0x006742EC,0x006742EC,0x0067459C,0x07D5855C,0x00673FF8,0x2B6E1DF8,0x2B6E1DF8,0x07D58C7C,0x00673FF8,0x07D5A95C,0x00673FF8,0x2B6E1DF8,0x2B6E1DF8,3.17999744,255,5,1,0x07D5842C,0x00673FF8,0x07D5855C,0x00673FF8,0x07D586E0,0x00673FF8,0x07D587D8,0x00673FF8,0x07D588D0,0x00673FF8,,,1,0x2B6E3AA4,0,0.600000024,0,0,0,-0.0175325759,-0.0209239256,0.00016029409,0,0.0209555775,1,0x2B6E3AA4,0,0.600000024,0,0,0,0.0175468121,-0.0200282261,0.000161456366,0,0.0200603921,1,0x2B6E3AA4,0,0.600000024,0,0,0,0.0174511503,-0.020801248,8.41705405E-05,6.28308201,0.0208256282,1,0x2B6E3AA4,0,0.600000024,0,0,0,-0.0174479336,-0.0185818393,8.48658528E-05,0.000108905464,0.0186064243
2026-04-28T11:47:41.4068909Z,18,-0.34999989999999997,Race,true,false,68,Garage Test Track,16,Bullet,0,0,0,-140.37915,1.32109499,190.696915,3.05035337E-06,-0.0181817301,-0.999834776,-1.00000012,9.90831541E-06,-3.23103768E-06,9.96542258E-06,0.999834716,-0.0181817301,-0.000188517428,9.65858089E-06,-0.00145050639,-8.41307919E-05,0.00015445787,-8.93492761E-05,0,1,0,0,0,10,0.0100000007,0.00146273756,0.00146270555,3.14158964,179.999817,0.0181827303,1.0417937,9.90995341E-06,0.000567798503,0.00015445787,-0.00909124035,4.96863959E-06,0.999958694,1.57041268E-06,-140.37915,2.82512784,195.695465,-8.97889458E-06,-0.198783845,-0.980043352,1.74532926,1,goal_runtime,0x006742EC,0x006742EC,0x0067459C,0x07D5855C,0x00673FF8,0x2B6E1DF8,0x2B6E1DF8,0x07D58C7C,0x00673FF8,0x07D5A95C,0x00673FF8,0x2B6E1DF8,0x2B6E1DF8,3.29999733,255,5,1,0x07D5842C,0x00673FF8,0x07D5855C,0x00673FF8,0x07D586E0,0x00673FF8,0x07D587D8,0x00673FF8,0x07D588D0,0x00673FF8,,,1,0x2B6E3AA4,0,0.600000024,0,0,0,-0.0175298024,0.000291741831,-2.66810821E-05,0,0.00182053028,1,0x2B6E3AA4,0,0.600000024,0,0,0,0.0175495856,0.000299794599,-2.54668339E-05,0,0.00184519414,1,0x2B6E3AA4,0,0.600000024,0,0,0,0.0174516588,0.000537010201,0.000310223259,6.28307343,0.00330038345,1,0x2B6E3AA4,0,0.600000024,0,0,0,-0.0174474251,0.000468219165,0.000310847536,0.00011745275,0.00321119139
2026-04-28T11:47:41.5068151Z,19,-0.25,Race,true,false,68,Garage Test Track,16,Bullet,0,0,0,-140.37915,1.32109642,190.696671,1.08331335E-06,-0.0181817338,-0.999834776,-1.00000012,5.53058544E-06,-1.18406467E-06,5.55119914E-06,0.999834716,-0.0181817338,0.000369099842,-5.14058911E-07,-0.00308084954,0.000114666538,0.000140175165,0.000316704361,0,1,0,0,0,10,0.0100000007,0.00310288067,0.00310288067,3.14159155,179.999924,0.018182734,1.04179382,5.53149948E-06,0.000316931546,0.000140175165,-0.00909124222,2.77056051E-06,0.999958694,5.66867925E-07,-140.37915,2.82512856,195.695206,-8.97889458E-06,-0.198783755,-0.980043352,1.74532926,1,goal_runtime,0x006742EC,0x006742EC,0x0067459C,0x07D5855C,0x00673FF8,0x2B6E1DF8,0x2B6E1DF8,0x07D58C7C,0x00673FF8,0x07D5A95C,0x00673FF8,0x2B6E1DF8,0x2B6E1DF8,3.39999723,255,5,1,0x07D5842C,0x00673FF8,0x07D5855C,0x00673FF8,0x07D586E0,0x00673FF8,0x07D587D8,0x00673FF8,0x07D588D0,0x00673FF8,,,1,0x2B6E3AA4,0,0.600000024,0,0,0,-0.0175340604,-0.00270283292,-2.10462458E-05,0,0.00553208729,1,0x2B6E3AA4,0,0.600000024,0,0,0,0.0175452083,-0.00243138894,-1.95679531E-05,0,0.00524691399,1,0x2B6E3AA4,0,0.600000024,0,0,0,0.0174508579,-0.0108920485,-6.72216847E-05,6.28289604,0.0111122364,1,0x2B6E3AA4,0,0.600000024,0,0,0,-0.017448226,-0.00111331581,-0.000183051248,0.000294495607,0.00373819587
2026-04-28T11:47:41.6070759Z,20,-0.1299999,Race,true,false,68,Garage Test Track,16,Bullet,0,0,0,-140.37915,1.32109559,190.696426,-1.07387359E-05,-0.0181890428,-0.999834776,-1.00000024,9.56860094E-06,1.05664394E-05,9.374824E-06,0.999834538,-0.0181890428,-0.000311070326,-2.16366498E-05,-0.00110783405,-0.000138789313,-0.000196041961,-0.000208888247,0,1,0,0,0,20,0.0200000014,0.00115088187,0.00115067849,-3.14158201,-179.999374,0.0181900412,1.04221249,9.57018437E-06,0.000548331125,-0.000196041961,-0.00909489673,4.73605178E-06,0.999958694,-5.32651393E-06,-140.37915,2.8251276,195.695053,-8.97886912E-06,-0.198783174,-0.98004353,1.74532926,1,goal_runtime,0x006742EC,0x006742EC,0x0067459C,0x07D5855C,0x00673FF8,0x2B6E1DF8,0x2B6E1DF8,0x07D58C7C,0x00673FF8,0x07D5A95C,0x00673FF8,0x2B6E1DF8,0x2B6E1DF8,3.49999714,255,5,1,0x07D5842C,0x00673FF8,0x07D5855C,0x00673FF8,0x07D586E0,0x00673FF8,0x07D587D8,0x00673FF8,0x07D588D0,0x00673FF8,,,1,0x2B6E3AA4,0,0.600000024,0,0,0,-0.0175301414,-0.00927434023,0.000866690301,0,0.010877057,1,0x2B6E3AA4,0,0.600000024,0,0,0,0.0175492428,-0.0281908028,0.000868284784,0,0.0286502894,1,0x2B6E3AA4,0,0.600000024,0,0,0,0.0174516719,-0.00637372583,-0.000672332826,6.28305149,0.00959376059,1,0x2B6E3AA4,0,0.600000024,0,0,0,-0.0174474046,-0.00849793199,-0.000671417918,0.000139532392,0.0107399328
2026-04-28T11:47:41.7067326Z,21,-0.050000000000000003,Race,true,false,68,Garage Test Track,16,Bullet,0,0,0,-140.379135,1.32109344,190.696228,6.04174284E-06,-0.0181820728,-0.999834776,-1.00000012,4.00677709E-06,-6.11560563E-06,4.11730889E-06,0.999834716,-0.0181820728,-0.000295083679,-9.39980418E-06,-0.00232459907,2.64252685E-05,0.000177367343,-0.000227943034,0,1,0,0,0,10,0.0100000007,0.00234327209,0.00234325323,3.14158654,179.999634,0.018183073,1.04181325,4.00743966E-06,0.000229609373,0.000177367343,-0.00909141172,2.0311054E-06,0.999958694,3.03946263E-06,-140.379135,2.82512546,195.694855,-8.97886912E-06,-0.198783174,-0.98004353,1.74532926,1,goal_runtime,0x006742EC,0x006742EC,0x0067459C,0x07D5855C,0x00673FF8,0x2B6E1DF8,0x2B6E1DF8,0x07D58C7C,0x00673FF8,0x07D5A95C,0x00673FF8,0x2B6E1DF8,0x2B6E1DF8,3.57999706,255,5,1,0x07D5842C,0x00673FF8,0x07D5855C,0x00673FF8,0x07D586E0,0x00673FF8,0x07D587D8,0x00673FF8,0x07D588D0,0x00673FF8,,,1,0x2B6E3AA4,0,0.600000024,0,0,0,-0.017535584,-0.0169223305,-0.000441385055,0,0.0171210803,1,0x2B6E3AA4,0,0.600000024,0,0,0,0.0175436847,-0.018669717,-0.000440042815,0,0.018850999,1,0x2B6E3AA4,0,0.600000024,0,0,0,0.0174504071,-0.0167253558,0.000246947166,6.28308535,0.0168752298,1,0x2B6E3AA4,0,0.600000024,0,0,0,-0.0174485594,-0.0175174084,0.00024770858,0.00010568343,0.017662352
2026-04-28T11:47:41.8068267Z,22,0.050000000000000003,Race,true,false,68,Garage Test Track,16,Bullet,0,0,0,-140.379135,1.32109308,190.695999,2.42856072E-06,-0.0181837939,-0.999834776,-1.00000012,3.30382477E-06,-2.48904848E-06,3.34853871E-06,0.999834657,-0.0181837939,-0.000207947087,9.98758878E-06,0.000354350719,-0.000361370883,0.000400605495,-0.000165245787,0,0,0,0,0,10,0.0100000007,0.000410981971,0.000410860579,3.14159012,179.999847,0.0181847941,1.04191184,3.30437115E-06,0.000189326514,0.000400605495,-0.00909227226,1.66315954E-06,0.999958694,1.22945312E-06,-140.379135,2.82512522,195.694595,-8.97886912E-06,-0.198783174,-0.98004353,1.74532926,1,goal_runtime,0x006742EC,0x006742EC,0x0067459C,0x07D5855C,0x00673FF8,0x2B6E1DF8,0x2B6E1DF8,0x07D58C7C,0x00673FF8,0x07D5A95C,0x00673FF8,0x2B6E1DF8,0x2B6E1DF8,3.69999695,255,5,1,0x07D5842C,0x00673FF8,0x07D5855C,0x00673FF8,0x07D586E0,0x00673FF8,0x07D587D8,0x00673FF8,0x07D588D0,0x00673FF8,,,1,0x2B6E3AA4,0,0.600000024,0,0,0,-0.0175364073,-0.0201369803,-0.000484256219,0,0.0203403626,1,0x2B6E3AA4,0,0.600000024,0,0,0,0.0175429806,-0.0215280931,-0.000482996722,0,0.0217193253,1,0x2B6E3AA4,0,0.600000024,0,0,0,0.0174502973,-0.0189411677,5.4890028E-05,6.28314018,0.0189570505,1,0x2B6E3AA4,0,0.600000024,0,0,0,-0.0174487866,-0.0208894387,5.56512387E-05,5.0629209E-05,0.0209063403
2026-04-28T11:47:41.9068937Z,23,0.14999999999999999,Race,true,false,68,Garage Test Track,16,Bullet,0,0,0,-140.379135,1.32109404,190.695786,2.94578808E-06,-0.0181859266,-0.999834776,-1.00000012,5.95738675E-06,-3.05463368E-06,6.01195279E-06,0.999834597,-0.0181859266,0.000421400619,7.88292436E-06,-0.000878242019,-0.000173313194,0.000102695885,0.000344967673,0,0,0,0,0,10,0.0100000007,0.000974140479,0.000974108581,3.14158964,179.999817,0.0181869268,1.04203415,5.95837218E-06,0.000341389561,0.000102695885,-0.00909333862,2.99245858E-06,0.999958694,1.5001674E-06,-140.379135,2.82512617,195.694382,-8.97886912E-06,-0.198783174,-0.98004353,1.74532926,1,goal_runtime,0x006742EC,0x006742EC,0x0067459C,0x07D5855C,0x00673FF8,0x2B6E1DF8,0x2B6E1DF8,0x07D58C7C,0x00673FF8,0x07D5A95C,0x00673FF8,0x2B6E1DF8,0x2B6E1DF8,3.79999685,255,5,1,0x07D5842C,0x00673FF8,0x07D5855C,0x00673FF8,0x07D586E0,0x00673FF8,0x07D587D8,0x00673FF8,0x07D588D0,0x00673FF8,,,1,0x2B6E3AA4,0,0.600000024,0,0,0,-0.0175337512,0.000307390146,0.000103031925,0,0.00191361213,1,0x2B6E3AA4,0,0.600000024,0,0,0,0.017545633,-0.0207870156,0.000104302671,0,0.0208067764,1,0x2B6E3AA4,0,0.600000024,0,0,0,0.0174508058,-0.000134527756,0.000360351114,6.28312731,0.00321609806,1,0x2B6E3AA4,0,0.600000024,0,0,0,-0.0174481552,0.000576891645,0.000361166865,6.33918971E-05,0.00366335222
2026-04-28T11:47:42.0069622Z,24,0.25,Race,true,false,68,Garage Test Track,16,Bullet,0,0,0,-140.37912,1.32109356,190.695618,3.63306208E-06,-0.0181859992,-0.999834776,-1.00000012,-9.29849705E-07,-3.61674984E-06,-8.63921684E-07,0.999834597,-0.0181859992,0.000862246903,-9.10687868E-06,-0.00433153892,0.000377830846,-0.000265749986,0.000607744383,0,0,0,0,0,10,0.0100000007,0.00441653514,0.00441652583,3.14158893,179.999771,0.0181869995,1.0420382,-9.30003523E-07,-5.32852755E-05,-0.000265749986,-0.00909337495,-4.48461378E-07,0.999958694,1.8125279E-06,-140.37912,2.82512569,195.694168,-8.97889458E-06,-0.198783755,-0.980043352,1.74532926,1,goal_runtime,0x006742EC,0x006742EC,0x0067459C,0x07D5855C,0x00673FF8,0x2B6E1DF8,0x2B6E1DF8,0x07D58C7C,0x00673FF8,0x07D5A95C,0x00673FF8,0x2B6E1DF8,0x2B6E1DF8,3.89999676,255,5,1,0x07D5842C,0x00673FF8,0x07D5855C,0x00673FF8,0x07D586E0,0x00673FF8,0x07D587D8,0x00673FF8,0x07D588D0,0x00673FF8,,,1,0x2B6E3AA4,0,0.600000024,0,0,0,-0.0175406374,-0.00627399888,-0.000440644013,0,0.00862037856,1,0x2B6E3AA4,0,0.600000024,0,0,0,0.017538866,-0.0077013541,-0.000439595082,0,0.00951200631,1,0x2B6E3AA4,0,0.600000024,0,0,0,0.0174492821,-0.00695130881,-0.000205625285,6.2831111,0.00896472484,1,0x2B6E3AA4,0,0.600000024,0,0,0,-0.0174497981,-0.0131990062,2.46981799E-05,7.93933068E-05,0.0132068386
2026-04-28T11:47:42.1069545Z,25,0.37,Race,true,false,68,Garage Test Track,16,Bullet,0,0,0,-140.37912,1.32109475,190.695297,-1.01995875E-06,-0.0181781407,-0.999834776,-1,6.41680708E-06,9.03462421E-07,6.39932387E-06,0.999834776,-0.0181781407,-4.00953359E-05,1.98894577E-05,-0.00113574089,-0.000170464322,-0.000105079089,-3.34515571E-05,0,0,0,0,0,20,0.0200000014,0.00113662251,0.00113644847,-3.14159155,-179.999924,0.018179141,1.04158795,6.41786755E-06,0.000367716711,-0.000105079089,-0.0090894457,3.20416507E-06,0.999958694,-4.80875144E-07,-140.37912,2.82512665,195.693924,-8.97889458E-06,-0.198783711,-0.980043352,1.74532926,1,goal_runtime,0x006742EC,0x006742EC,0x0067459C,0x07D5855C,0x00673FF8,0x2B6E1DF8,0x2B6E1DF8,0x07D58C7C,0x00673FF8,0x07D5A95C,0x00673FF8,0x2B6E1DF8,0x2B6E1DF8,3.99999666,255,5,1,0x07D5842C,0x00673FF8,0x07D5855C,0x00673FF8,0x07D586E0,0x00673FF8,0x07D587D8,0x00673FF8,0x07D588D0,0x00673FF8,,,1,0x2B6E3AA4,0,0.600000024,0,0,0,-0.0175331775,-0.0197452568,0.000248761557,0,0.0198076461,1,0x2B6E3AA4,0,0.600000024,0,0,0,0.017546095,-0.0194373056,0.000249857403,0,0.0195006616,1,0x2B6E3AA4,0,0.600000024,0,0,0,0.0174509082,-0.0187597908,-0.000139396841,6.2831316,0.0188097171,1,0x2B6E3AA4,0,0.600000024,0,0,0,-0.0174481757,-0.0186979156,-0.00013837406,5.89503652E-05,0.0187474266
2026-04-28T11:47:42.2064278Z,26,0.44999990000000001,Race,true,false,68,Garage Test Track,16,Bullet,0,0,0,-140.37912,1.32109606,190.695084,-3.38921473E-06,-0.0181766301,-0.999834776,-1,6.60634532E-06,3.26967393E-06,6.54582209E-06,0.999834776,-0.0181766301,0.000168754399,2.10167618E-05,-0.000958485703,-0.000241018031,-0.000108810207,0.000136137096,0,0,0,0,0,10,0.0100000007,0.000973455026,0.000973228074,-3.14158916,-179.999786,0.0181776322,1.04150152,6.60743717E-06,0.000378578232,-0.000108810207,-0.00908869039,3.2881776E-06,0.999958694,-1.66479094E-06,-140.37912,2.82512784,195.69371,-8.97889458E-06,-0.198783711,-0.980043352,1.74532926,1,goal_runtime,0x006742EC,0x006742EC,0x0067459C,0x07D5855C,0x00673FF8,0x2B6E1DF8,0x2B6E1DF8,0x07D58C7C,0x00673FF8,0x07D5A95C,0x00673FF8,0x2B6E1DF8,0x2B6E1DF8,4.07999849,255,5,1,0x07D5842C,0x00673FF8,0x07D5855C,0x00673FF8,0x07D586E0,0x00673FF8,0x07D587D8,0x00673FF8,0x07D588D0,0x00673FF8,,,1,0x2B6E3AA4,0,0.600000024,0,0,0,-0.0175329875,-0.0207325127,0.000500149443,0,0.0209434219,1,0x2B6E3AA4,0,0.600000024,0,0,0,0.0175462849,-0.0195849445,0.000501382689,0,0.0198074561,1,0x2B6E3AA4,0,0.600000024,0,0,0,0.0174508598,-0.0187619682,-0.000153651286,6.2831192,0.0188206453,1,0x2B6E3AA4,0,0.600000024,0,0,0,-0.0174481049,-0.0197786447,-0.00015266682,7.16205031E-05,0.0198348928
2026-04-28T11:47:42.3070245Z,27,0.5699999,Race,true,false,68,Garage Test Track,16,Bullet,0,0,0,-140.37912,1.32109642,190.694778,1.95308212E-06,-0.0181812923,-0.999834776,-1.00000012,3.76767207E-06,-2.02191768E-06,3.80381039E-06,0.999834716,-0.0181812923,0.000151254033,-8.48720538E-06,-0.00412503071,0.00022677469,0.000118078024,8.62706656E-05,0,0,0,0,0,20,0.0200000014,0.00412781164,0.00412780279,3.1415906,179.999878,0.0181822926,1.04176855,3.76829485E-06,0.000215907377,0.000118078024,-0.00909102149,1.89294883E-06,0.999958694,9.93790991E-07,-140.37912,2.82512808,195.693405,-8.97886912E-06,-0.198783085,-0.98004353,1.74532926,1,goal_runtime,0x006742EC,0x006742EC,0x0067459C,0x07D5855C,0x00673FF8,0x2B6E1DF8,0x2B6E1DF8,0x07D58C7C,0x00673FF8,0x07D5A95C,0x00673FF8,0x2B6E1DF8,0x2B6E1DF8,4.20000124,255,5,1,0x07D5842C,0x00673FF8,0x07D5855C,0x00673FF8,0x07D586E0,0x00673FF8,0x07D587D8,0x00673FF8,0x07D588D0,0x00673FF8,,,1,0x2B6E3AA4,0,0.600000024,0,0,0,-0.0175358243,-0.000919592334,-0.000166877915,0,0.00329861371,1,0x2B6E3AA4,0,0.600000024,0,0,0,0.0175434444,-0.00107104611,-0.000165642283,0,0.00354856323,1,0x2B6E3AA4,0,0.600000024,0,0,0,0.0174504053,-0.000924144057,1.30839071E-05,6.28307724,0.00323548191,1,0x2B6E3AA4,0,0.600000024,0,0,0,-0.0174486805,-0.000822287344,1.41520068E-05,0.000113276765,0.00305228191
2026-04-28T11:47:42.4067866Z,28,0.64999989999999996,Race,true,false,68,Garage Test Track,16,Bullet,0,0,0,-140.37912,1.32109582,190.694565,4.8024408E-06,-0.0181838088,-0.999834776,-1.00000012,7.45524676E-06,-4.93882226E-06,7.54382063E-06,0.999834657,-0.0181838088,-0.000386654021,-1.8715602E-05,-0.00407035835,0.000220916423,-0.000168822997,-0.000331637537,0,0,0,0,0,10,0.0100000007,0.0040887245,0.00408868166,3.14158773,179.99971,0.018184809,1.04191279,7.45647958E-06,0.00042722479,-0.000168822997,-0.00909227971,3.74992169E-06,0.999958694,2.43541626E-06,-140.37912,2.8251276,195.693192,-8.97886912E-06,-0.198783129,-0.98004353,1.74532926,1,goal_runtime,0x006742EC,0x006742EC,0x0067459C,0x07D5855C,0x00673FF8,0x2B6E1DF8,0x2B6E1DF8,0x07D58C7C,0x00673FF8,0x07D5A95C,0x00673FF8,0x2B6E1DF8,0x2B6E1DF8,4.28000307,255,5,1,0x07D5842C,0x00673FF8,0x07D5855C,0x00673FF8,0x07D586E0,0x00673FF8,0x07D587D8,0x00673FF8,0x07D588D0,0x00673FF8,,,1,0x2B6E3AA4,0,0.600000024,0,0,0,-0.0175322555,-0.000914084027,-0.000258449581,0,0.00339288218,1,0x2B6E3AA4,0,0.600000024,0,0,0,0.0175471324,-0.00111340929,-0.000257151027,0,0.00370935583,1,0x2B6E3AA4,0,0.600000024,0,0,0,0.0174511112,-0.00105257903,-6.92496396E-05,6.28304911,0.00347926328,1,0x2B6E3AA4,0,0.600000024,0,0,0,-0.0174478497,-0.000678312441,-6.82500831E-05,0.000141373166,0.00280394661
2026-04-28T11:47:42.5071902Z,29,0.76999989999999996,Race,true,false,68,Garage Test Track,16,Bullet,0,0,0,-140.37912,1.32109439,190.694229,-2.78830771E-06,-0.0181838349,-0.999834776,-1.00000012,9.42723273E-06,2.61731725E-06,9.37808181E-06,0.999834657,-0.0181838349,-0.000108248751,-5.6564154E-06,-0.00101575558,-0.000240630819,-0.000151408967,-8.42722657E-05,0,0,0,0,0,20,0.0200000014,0.00102152303,0.00102150731,-3.14158988,-179.999832,0.0181848351,1.04191422,9.4287916E-06,0.000540229958,-0.000151408967,-0.00909229275,4.70152281E-06,0.999958694,-1.35146206E-06,-140.37912,2.82512617,195.692856,-8.97886912E-06,-0.198783129,-0.98004353,1.74532926,1,goal_runtime,0x006742EC,0x006742EC,0x0067459C,0x07D5855C,0x00673FF8,0x2B6E1DF8,0x2B6E1DF8,0x07D58C7C,0x00673FF8,0x07D5A95C,0x00673FF8,0x2B6E1DF8,0x2B6E1DF8,4.40000582,255,5,1,0x07D5842C,0x00673FF8,0x07D5855C,0x00673FF8,0x07D586E0,0x00673FF8,0x07D587D8,0x00673FF8,0x07D588D0,0x00673FF8,,,1,0x2B6E3AA4,0,0.600000024,0,0,0,-0.0175302848,-0.020575989,0.000391240959,0,0.0207102504,1,0x2B6E3AA4,0,0.600000024,0,0,0,0.0175491031,-0.0194490068,0.000392733287,0,0.0195905603,1,0x2B6E3AA4,0,0.600000024,0,0,0,0.0174516514,-0.0187641792,-0.000231890575,6.28302622,0.0188853405,1,0x2B6E3AA4,0,0.600000024,0,0,0,-0.0174474288,-0.0195062663,-0.000230889505,0.000164561425,0.0196228866
2026-04-28T11:47:42.6063976Z,30,0.84999999999999998,Race,true,false,68,Garage Test Track,16,Bullet,0,0,0,-140.37912,1.32109344,190.694016,-1.71138549E-06,-0.0181843061,-0.999834776,-1.00000012,8.79121308E-06,1.55177986E-06,8.76154172E-06,0.999834657,-0.0181843061,0.000302376633,-8.49517392E-07,-0.00102676067,-0.000227884098,7.75654989E-05,0.000263185764,0,0,0,0,0,10,0.0100000007,0.00107035961,0.00107035937,-3.14159083,-179.999893,0.0181853063,1.04194129,8.79266645E-06,0.000503782649,7.75654989E-05,-0.00909252837,4.38837014E-06,0.999958694,-8.15825047E-07,-140.37912,2.82512522,195.692642,-8.97886912E-06,-0.198783129,-0.98004353,1.74532926,1,goal_runtime,0x006742EC,0x006742EC,0x0067459C,0x07D5855C,0x00673FF8,0x2B6E1DF8,0x2B6E1DF8,0x07D58C7C,0x00673FF8,0x07D5A95C,0x00673FF8,0x2B6E1DF8,0x2B6E1DF8,4.48000765,255,5,1,0x07D5842C,0x00673FF8,0x07D5855C,0x00673FF8,0x07D586E0,0x00673FF8,0x07D587D8,0x00673FF8,0x07D588D0,0x00673FF8,,,1,0x2B6E3AA4,0,0.600000024,0,0,0,-0.01753092,-0.0202334262,0.000431505556,0,0.020396661,1,0x2B6E3AA4,0,0.600000024,0,0,0,0.017548468,-0.019713724,0.000433025474,0,0.0198815409,1,0x2B6E3AA4,0,0.600000024,0,0,0,0.0174513739,-0.0191404317,0.000163573073,6.28300333,0.0192048065,1,0x2B6E3AA4,0,0.600000024,0,0,0,-0.0174475871,-0.0190461893,0.000164537254,0.000187387326,0.0191113763
2026-04-28T11:47:42.7067569Z,31,0.94999990000000001,Race,true,false,68,Garage Test Track,16,Bullet,0.0780606046,0.240000024,0,-140.379227,1.32111025,190.687515,7.53145505E-05,-0.0174338538,-0.999848366,-1.00000036,7.13548288E-05,-7.6570177E-05,7.2678893E-05,0.999848008,-0.0174338501,-0.00555819087,0.000919003214,-0.228413925,0.0256291162,0.00378953409,-0.00315895397,0.240000024,0,0,0,0.0780606046,10,0.0100000007,0.228483394,0.228481546,3.1415174,179.995682,0.0174347311,0.998936474,7.13656773E-05,0.00408895174,0.00378953409,-0.0087172566,3.60097947E-05,0.999962091,3.79726225E-05,-140.379257,2.82514191,195.686142,2.99317549E-06,-0.198798001,-0.980040491,1.74532926,1,goal_runtime,0x006742EC,0x006742EC,0x0067459C,0x07D5855C,0x00673FF8,0x2B6E1DF8,0x2B6E1DF8,0x07D58C7C,0x00673FF8,0x07D5A95C,0x00673FF8,0x2B6E1DF8,0x2B6E1DF8,4.58000994,255,5,1,0x07D5842C,0x00673FF8,0x07D5855C,0x00673FF8,0x07D586E0,0x00673FF8,0x07D587D8,0x00673FF8,0x07D588D0,0x00673FF8,,,1,0x2B6E3AA4,0,0.600000024,0,0,0,-0.0186340678,0.000263629685,-0.00721072732,0.0340716243,0.0422893353,1,0x2B6E3AA4,0,0.600000024,0,0,0,0.0207366291,0.000296932412,-0.00752772437,0.0366055369,0.0444264486,1,0x2B6E3AA4,0,0.600000024,0,0,0,0.0174657777,0.85923171,0.00800528377,0.713835418,18.2185497,1,0x2B6E3AA4,0,0.600000024,0,0,0,-0.0174336508,0.872553527,0.00802710745,0.622398734,14.1624212
2026-04-28T11:47:42.8070478Z,32,1.0700000000000001,Race,true,false,68,Garage Test Track,16,Bullet,0.300181091,0.720000088,0,-140.384201,1.32191825,190.616379,-0.00294531346,-0.0117217321,-0.999926746,-0.999993145,0.00217400421,0.00292002433,0.00213961746,0.999928951,-0.0117280576,-0.0916557312,0.0129371881,-0.89713645,0.055475615,0.0533129312,-0.0335059986,0.720000088,0,0,0,0.300181091,20,0.0200000014,0.901899099,0.901806295,-3.13864708,-179.831223,0.0117220031,0.671621263,0.00217415532,0.124569915,0.0533129312,-0.00586255826,0.00107842579,0.999981105,-0.00146636216,-140.38295,2.82591653,195.615021,-4.19268617E-05,-0.198901653,-0.980019391,1.74532926,1,goal_runtime,0x006742EC,0x006742EC,0x0067459C,0x07D5855C,0x00673FF8,0x2B6E1DF8,0x2B6E1DF8,0x07D58C7C,0x00673FF8,0x07D5A95C,0x00673FF8,0x2B6E1DF8,0x2B6E1DF8,4.70001268,255,5,1,0x07D5842C,0x00673FF8,0x07D5855C,0x00673FF8,0x07D586E0,0x00673FF8,0x07D587D8,0x00673FF8,0x07D588D0,0x00673FF8,,,1,0x2B6E3AA4,0,0.600000024,0,0,0,-0.0210315902,1.0512457E-06,-0.026312653,0.240537658,0.168766335,1,0x2B6E3AA4,0,0.600000024,0,0,0,0.0304516051,1.24462861E-06,-0.0241171252,0.230491996,0.155861497,1,0x2B6E3AA4,0,0.600000024,0,0,0,0.017941758,0.832879961,0.00709945988,2.04140902,39.4219475,1,0x2B6E3AA4,0,0.600000024,0,0,0,-0.0169606954,0.835226893,0.00672693737,1.94997239,35.8115044
2026-04-28T11:47:42.9064213Z,33,1.1499999000000001,Race,true,false,68,Garage Test Track,16,Bullet,0.480454534,1,0,-140.397156,1.32328892,190.526459,-0.0100280978,-0.0079189213,-0.999918342,-0.999933124,0.00583857577,0.00998200662,0.005759052,0.999951601,-0.00797694083,-0.221709415,0.019369781,-1.24168265,0.030677747,0.108202361,-0.0515269935,1,0,0,0,0.480454534,10,0.0100000007,1.26146984,1.26132107,-3.13156414,-179.4254,0.00791900419,0.453725487,0.00583879184,0.334538102,0.108202361,-0.00397406332,0.00289947842,0.999975383,-0.00500264904,-140.390808,2.82719326,195.525116,-0.000680055411,-0.198958069,-0.980007768,1.74532926,1,goal_runtime,0x006742EC,0x006742EC,0x0067459C,0x07D5855C,0x00673FF8,0x2B6E1DF8,0x2B6E1DF8,0x07D58C7C,0x00673FF8,0x07D5A95C,0x00673FF8,0x2B6E1DF8,0x2B6E1DF8,4.78001451,255,5,1,0x07D5842C,0x00673FF8,0x07D5855C,0x00673FF8,0x07D586E0,0x00673FF8,0x07D587D8,0x00673FF8,0x07D588D0,0x00673FF8,,,1,0x2B6E3AA4,0,0.600000024,0,0,0,-0.0222276915,-2.26238424E-08,-0.0534770563,0.530192077,0.356976151,1,0x2B6E3AA4,0,0.600000024,0,0,0,0.0390082896,3.90511135E-09,-0.037416283,0.488292724,0.251838237,1,0x2B6E3AA4,0,0.600000024,0,0,0,0.0187692381,0.850295246,0.0185834393,2.46239185,22.370821,1,0x2B6E3AA4,0,0.600000024,0,0,0,-0.0161344893,0.139815405,0.0172484051,2.37095523,0.19277212
2026-04-28T11:47:43.0070750Z,34,1.2699999,Race,true,false,68,Garage Test Track,16,Bullet,0.810513914,1,0,-140.434738,1.32489991,190.384216,-0.0295358039,-0.0106023727,-0.999507725,-0.999525964,0.00903461874,0.0294405073,0.00871803053,0.999902964,-0.010864188,-0.386747599,0.00357895903,-1.14149141,-0.0537860207,0.190321192,0.00011079757,1,0,0,0,0.810513914,20,0.0200000014,1.20523405,1.20522869,-3.11205101,-178.307373,0.0106025692,0.607482433,0.00903524924,0.517681599,0.190321192,-0.00536735356,0.00443875231,0.999867082,-0.0147460382,-140.406464,2.82857656,195.382874,-0.00465725455,-0.198853374,-0.980018139,1.74532926,1,goal_runtime,0x006742EC,0x006742EC,0x0067459C,0x07D5855C,0x00673FF8,0x2B6E1DF8,0x2B6E1DF8,0x07D58C7C,0x00673FF8,0x07D5A95C,0x00673FF8,0x2B6E1DF8,0x2B6E1DF8,4.90001726,255,5,1,0x07D5842C,0x00673FF8,0x07D5855C,0x00673FF8,0x07D586E0,0x00673FF8,0x07D587D8,0x00673FF8,0x07D588D0,0x00673FF8,,,1,0x2B6E3AA4,0,0.600000024,0,0,0,-0.0258314554,-1.41482872E-07,-0.104950301,1.04135931,0.651176989,1,0x2B6E3AA4,0,0.600000024,0,0,0,0.0533982292,9.21399401E-10,-0.0347467549,0.913435102,0.217503965,1,0x2B6E3AA4,0,0.600000024,0,0,0,0.019489795,0.774830401,0.02556598,2.88083553,1.04545939,1,0x2B6E3AA4,0,0.600000024,0,0,0,-0.0154130226,-0.727054596,0.0206305161,2.78939891,0.929018617
2026-04-28T11:47:43.1068529Z,35,1.3500000000000001,Race,true,false,68,Garage Test Track,16,Bullet,1,1,0,-140.470596,1.32429314,190.298889,-0.0466989987,-0.015872702,-0.998782873,-0.998881519,0.00815605745,0.0465739928,0.00740687596,0.999840796,-0.0162358284,-0.491831213,-0.0162090547,-1.0079385,-0.068614468,0.23319,0.0238650609,1,0,0,0,1,10,0.0100000007,1.12165093,1.12153375,-3.09487081,-177.323029,0.0158733688,0.909476995,0.00815717503,0.467371672,0.23319,-0.00802963693,0.00389194745,0.999688089,-0.0233255234,-140.417404,2.8274951,195.277405,-0.0116551891,-0.198702082,-0.979990661,1.74532926,1,goal_runtime,0x006742EC,0x006742EC,0x0067459C,0x07D5855C,0x00673FF8,0x2B6E1DF8,0x2B6E1DF8,0x07D58C7C,0x00673FF8,0x07D5A95C,0x00673FF8,0x2B6E1DF8,0x2B6E1DF8,5.00001955,255,5,1,0x07D5842C,0x00673FF8,0x07D5855C,0x00673FF8,0x07D586E0,0x00673FF8,0x07D587D8,0x00673FF8,0x07D588D0,0x00673FF8,,,1,0x2B6E3AA4,0,0.600000024,0,0,0,-0.0278669279,1.00215001E-08,-0.150217712,1.37891221,0.864423871,1,0x2B6E3AA4,0,0.600000024,0,0,0,0.0618400052,3.73152093E-10,-0.0267807674,1.18157721,0.155292138,1,0x2B6E3AA4,0,0.600000024,0,0,0,0.0192903951,0.965252936,0.0380677581,3.1449492,1.99500382,1,0x2B6E3AA4,0,0.600000024,0,0,0,-0.0156098865,-0.770029604,0.0279124137,3.05351257,1.05066347
2026-04-28T11:47:43.2069186Z,36,1.45,Race,true,false,68,Garage Test Track,16,Bullet,1,1,0,-140.521164,1.32173729,190.202072,-0.0694438666,-0.0213769246,-0.99735707,-0.997584581,0.00324893114,0.0693900734,0.00175699755,0.999766171,-0.0215509031,-0.508966565,-0.0300391708,-0.940777242,-0.0351438038,0.221206024,0.0636095107,1,0,0,0,1,10,0.0100000007,1.07005191,1.06963015,-3.07207704,-176.017044,0.021378547,1.22490048,0.00324967946,0.186192915,0.221206024,-0.0107390629,0.00125231082,0.999338269,-0.0347314663,-140.417923,2.82488346,195.180893,-0.0220497586,-0.19864656,-0.979823112,1.74532926,1,goal_runtime,0x006742EC,0x006742EC,0x0067459C,0x07D5855C,0x00673FF8,0x2B6E1DF8,0x2B6E1DF8,0x07D58C7C,0x00673FF8,0x07D5A95C,0x00673FF8,0x2B6E1DF8,0x2B6E1DF8,5.09002161,255,5,1,0x07D5842C,0x00673FF8,0x07D5855C,0x00673FF8,0x07D586E0,0x00673FF8,0x07D587D8,0x00673FF8,0x07D588D0,0x00673FF8,,,1,0x2B6E3AA4,0,0.600000024,0,0,0,-0.02835989,9.70181873E-08,-0.133455366,1.78945935,0.719720483,1,0x2B6E3AA4,0,0.600000024,0,0,0,0.061657805,1.24087046E-10,0.0126359193,1.50093949,0.0673476681,1,0x2B6E3AA4,0,0.600000024,0,0,0,0.0181814022,0.984584391,0.0476180688,3.45284843,2.92262816,1,0x2B6E3AA4,0,0.600000024,0,0,0,-0.0167154651,-0.805084944,0.033142861,3.36141181,1.16304564
2026-04-28T11:47:43.3065231Z,37,1.5499999,Race,true,false,68,Garage Test Track,16,Bullet,1,1,0,-140.571686,1.31899512,190.111847,-0.0908207148,-0.0233570393,-0.995593607,-0.995860159,-0.00171538955,0.0908852816,-0.00383064104,0.999725699,-0.0231045466,-0.498203486,-0.0224260185,-0.871544182,-0.00165720831,0.210391462,0.0351347886,1,0,0,0,1,10,0.0100000007,1.00414085,1.0038904,-3.05062175,-174.787735,0.0233591571,1.33838105,-0.00171585847,-0.0983114466,0.210391462,-0.0116282245,-0.00138803886,0.998896837,-0.0454766676,-140.409744,2.82301021,195.107864,-0.0319314897,-0.198683426,-0.979543447,1.74532926,1,goal_runtime,0x006742EC,0x006742EC,0x0067459C,0x07D5855C,0x00673FF8,0x2B6E1DF8,0x2B6E1DF8,0x07D58C7C,0x00673FF8,0x07D5A95C,0x00673FF8,0x2B6E1DF8,0x2B6E1DF8,5.18002367,255,5,1,0x07D5842C,0x00673FF8,0x07D5855C,0x00673FF8,0x07D586E0,0x00673FF8,0x07D587D8,0x00673FF8,0x07D588D0,0x00673FF8,,,1,0x2B6E3AA4,0,0.600000024,0,0,0,-0.0310538299,6.92641393E-08,-0.130353257,2.18043017,0.69231087,1,0x2B6E3AA4,0,0.600000024,0,0,0,0.0591575205,5.89523914E-08,0.015536272,1.80597329,0.0816413835,1,0x2B6E3AA4,0,0.600000024,0,0,0,0.0170605145,0.978978753,0.055951193,3.74233866,3.19463277,1,0x2B6E3AA4,0,0.600000024,0,0,0,-0.0178346951,-0.839196742,0.038572792,3.65090203,1.28604293
2026-04-28T11:47:43.4073413Z,38,1.6699999000000001,Race,true,false,68,Garage Test Track,16,Bullet,1,1,0,-140.63063,1.31778085,190.00795,-0.116021194,-0.0217496436,-0.993008733,-0.993233502,-0.00264808838,0.11610546,-0.00515482668,0.999759972,-0.0212952364,-0.523341119,0.000765807461,-0.977472603,0.0333291106,0.237141162,-0.0305202752,1,0,0,0,1,20,0.0200000014,1.10875571,1.10875547,-3.02528191,-173.335876,0.0217513554,1.24626076,-0.00264871796,-0.151760355,0.237141162,-0.0107800988,-0.00195415085,0.998248756,-0.058133468,-140.385834,2.82219362,195.000473,-0.0482552797,-0.198802352,-0.978850901,1.74532926,1,goal_runtime,0x006742EC,0x006742EC,0x0067459C,0x07D5855C,0x00673FF8,0x2B6E1DF8,0x2B6E1DF8,0x07D58C7C,0x00673FF8,0x07D5A95C,0x00673FF8,0x2B6E1DF8,0x2B6E1DF8,5.30002642,255,5,1,0x07D5842C,0x00673FF8,0x07D5855C,0x00673FF8,0x07D586E0,0x00673FF8,0x07D587D8,0x00673FF8,0x07D588D0,0x00673FF8,,,1,0x2B6E3AA4,0,0.600000024,0,0,0,-0.0327739641,1.39237217E-08,-0.147858754,2.63125634,0.819704831,1,0x2B6E3AA4,0,0.600000024,0,0,0,0.0574134216,1.09764453E-09,-0.00156548584,2.15724754,0.0087500019,1,0x2B6E3AA4,0,0.600000024,0,0,0,0.0168506447,0.937762558,0.0310815535,4.22254133,6.11091566,1,0x2B6E3AA4,0,0.600000024,0,0,0,-0.0180458296,0.982672155,0.0165764764,4.13110447,2.04552913
2026-04-28T11:47:43.5066053Z,39,1.75,Race,true,false,68,Garage Test Track,16,Bullet,1,1,0,-140.683151,1.31855357,189.911209,-0.13881804,-0.0175525043,-0.990162432,-0.990317166,0.00375518296,0.138773158,0.00128242455,0.999838948,-0.0179038327,-0.766199887,0.0162714235,-1.39160955,0.0431964658,0.328395814,-0.112687096,1,0,0,0,1,10,0.0100000007,1.58868003,1.58859658,-3.00230336,-172.019302,0.017553404,1.00573587,0.00375577016,0.21518977,0.328395814,-0.0088859722,0.00126251171,0.997536778,-0.069569163,-140.374954,2.82309437,194.900177,-0.0600382611,-0.19890213,-0.978178561,1.74532926,1,goal_runtime,0x006742EC,0x006742EC,0x0067459C,0x07D5855C,0x00673FF8,0x2B6E1DF8,0x2B6E1DF8,0x07D58C7C,0x00673FF8,0x07D5A95C,0x00673FF8,0x2B6E1DF8,0x2B6E1DF8,5.38002825,255,5,1,0x07D5842C,0x00673FF8,0x07D5855C,0x00673FF8,0x07D586E0,0x00673FF8,0x07D587D8,0x00673FF8,0x07D588D0,0x00673FF8,,,1,0x2B6E3AA4,0,0.600000024,0,0,0,-0.0303143151,3.14950177E-09,-0.163935587,3.03422999,0.978659153,1,0x2B6E3AA4,0,0.600000024,0,0,0,0.0595877767,-3.86880146E-08,-0.0324268229,2.47274876,0.194728404,1,0x2B6E3AA4,0,0.600000024,0,0,0,0.0182969701,0.825278938,0.0273764711,0.486664355,58.21661,1,0x2B6E3AA4,0,0.600000024,0,0,0,-0.0166024957,0.828414857,0.0193003733,0.395227432,48.6807137
2026-04-28T11:47:43.6067480Z,40,1.8500000000000001,Race,true,false,68,Garage Test Track,16,Bullet,1,1,0,-140.775528,1.32107961,189.754135,-0.177351952,-0.0120732412,-0.9840734,-0.984092414,0.0127503192,0.177198946,0.0104078846,0.999845803,-0.0141424797,-1.05693996,0.0298125762,-1.73725986,0.0362565592,0.431812435,-0.0699712709,1,0,0,0,1,10,0.0100000007,2.03373623,2.0335176,-2.96328449,-169.783691,0.0120735345,0.691762507,0.0127515942,0.730612516,0.431812435,-0.00658029458,0.00581284054,0.995993435,-0.088994287,-140.371521,2.82610035,194.698822,-0.0821190625,-0.198984504,-0.976555943,1.74532926,1,goal_runtime,0x006742EC,0x006742EC,0x0067459C,0x07D5855C,0x00673FF8,0x2B6E1DF8,0x2B6E1DF8,0x07D58C7C,0x00673FF8,0x07D5A95C,0x00673FF8,0x2B6E1DF8,0x2B6E1DF8,5.50003099,255,5,1,0x07D5842C,0x00673FF8,0x07D5855C,0x00673FF8,0x07D586E0,0x00673FF8,0x07D587D8,0x00673FF8,0x07D588D0,0x00673FF8,,,1,0x2B6E3AA4,0,0.600000024,0,0,0,-0.026594514,2.6027408E-10,-0.159628391,3.7188313,1.0284729,1,0x2B6E3AA4,0,0.600000024,0,0,0,0.0629016533,1.30052247E-09,-0.0202674791,3.00650811,0.131261721,1,0x2B6E3AA4,0,0.600000024,0,0,0,0.0203277562,0.818484008,0.00898915902,5.08511591,100.663658,1,0x2B6E3AA4,0,0.600000024,0,0,0,-0.0145744076,0.822379768,0.00568366144,4.99367905,71.0791321
2026-04-28T11:47:43.7071758Z,41,1.97,Race,true,false,68,Garage Test Track,16,Bullet,1,1,0,-140.928268,1.3244102,189.521072,-0.235350206,-0.00854794309,-0.971873045,-0.971820474,0.0156876761,0.235199496,0.0132359583,0.999840379,-0.0119991638,-1.46401238,0.0222830195,-2.10561776,0.0123847043,0.545182586,-0.00244054664,1,0,0,0,1,20,0.0200000014,2.56465507,2.56455827,-2.90400481,-166.387207,0.00854804739,0.489767015,0.0156888925,0.898907244,0.545182586,-0.00517342193,0.00728249317,0.992916644,-0.118476637,-140.376663,2.82848501,194.489166,-0.106495924,-0.198953405,-0.974205434,1.74532926,1,goal_runtime,0x006742EC,0x006742EC,0x0067459C,0x07D5855C,0x00673FF8,0x2B6E1DF8,0x2B6E1DF8,0x07D58C7C,0x00673FF8,0x07D5A95C,0x00673FF8,0x2B6E1DF8,0x2B6E1DF8,5.60003328,255,5,1,0x07D5842C,0x00673FF8,0x07D5855C,0x00673FF8,0x07D586E0,0x00673FF8,0x07D587D8,0x00673FF8,0x07D588D0,0x00673FF8,,,1,0x2B6E3AA4,0,0.600000024,0,0,0,-0.0264317878,3.34409034E-09,-0.167767793,4.76239157,1.1203146,1,0x2B6E3AA4,0,0.600000024,0,0,0,0.0628531873,6.88513899E-11,-0.0303881839,3.81822753,0.203741342,1,0x2B6E3AA4,0,0.600000024,0,0,0,0.0209909976,0.819776535,-0.00463885209,4.31497908,88.4762268,1,0x2B6E3AA4,0,0.600000024,0,0,0,-0.0139122456,0.826066732,-0.00328934239,4.22354269,55.527462
2026-04-28T11:47:43.8064273Z,42,2.0499999,Race,true,false,68,Garage Test Track,16,Bullet,1,1,0,-141.059341,1.3255471,189.341476,-0.280780554,-0.00851853751,-0.959734201,-0.95969528,0.0151376771,0.28063482,0.0121375481,0.999849141,-0.0124255642,-1.77671778,0.00746056065,-2.34520507,-0.00558259571,0.6207093,0.00977454521,1,0,0,0,1,10,0.0100000007,2.94223881,2.94222927,-2.85697484,-163.692596,0.00851864088,0.488082141,0.0151388049,0.86738956,0.6207093,-0.00528967101,0.00688866852,0.989858389,-0.141791835,-140.386627,2.82932615,194.294708,-0.130269751,-0.198882669,-0.971326709,1.74532926,1,goal_runtime,0x006742EC,0x006742EC,0x0067459C,0x07D5855C,0x00673FF8,0x2B6E1DF8,0x2B6E1DF8,0x07D58C7C,0x00673FF8,0x07D5A95C,0x00673FF8,0x2B6E1DF8,0x2B6E1DF8,5.68003511,255,5,1,0x07D5842C,0x00673FF8,0x07D5855C,0x00673FF8,0x07D586E0,0x00673FF8,0x07D587D8,0x00673FF8,0x07D588D0,0x00673FF8,,,1,0x2B6E3AA4,0,0.600000024,0,0,0,-0.0268778801,-5.43929062E-08,-0.170429602,5.59194231,1.12391734,1,0x2B6E3AA4,0,0.600000024,0,0,0,0.0624110736,6.3199463E-12,-0.0333891213,4.46308374,0.221053496,1,0x2B6E3AA4,0,0.600000024,0,0,0,0.0208669994,0.821631491,-0.00984515063,1.71240997,75.3411255,1,0x2B6E3AA4,0,0.600000024,0,0,0,-0.0140363835,0.829373538,-0.00678993994,1.62097359,46.3652115
2026-04-28T11:47:43.9067539Z,43,2.1499999999999999,Race,true,false,68,Garage Test Track,16,Bullet,1,1,0,-141.259552,1.3252809,189.095139,-0.344642133,-0.0101741198,-0.938679397,-0.938673615,0.0151277985,0.344476014,0.0106954072,0.999833763,-0.0147638489,-2.19209242,-0.0100514013,-2.54979157,-0.0228408128,0.714272022,-0.000762915821,1,0,0,0,1,10,0.0100000007,3.36255956,3.36254454,-2.78971624,-159.838959,0.0101742912,0.582943916,0.0151291592,0.866836905,0.714272022,-0.00633246405,0.00655725086,0.984528661,-0.174986824,-140.407104,2.82881927,194.020691,-0.165513203,-0.198787302,-0.965965331,1.74532926,1,goal_runtime,0x006742EC,0x006742EC,0x0067459C,0x07D5855C,0x00673FF8,0x2B6E1DF8,0x2B6E1DF8,0x07D58C7C,0x00673FF8,0x07D5A95C,0x00673FF8,0x2B6E1DF8,0x2B6E1DF8,5.7800374,255,5,1,0x07D5842C,0x00673FF8,0x07D5855C,0x00673FF8,0x07D586E0,0x00673FF8,0x07D587D8,0x00673FF8,0x07D588D0,0x00673FF8,,,1,0x2B6E3AA4,0,0.600000024,0,0,0,-0.0258739572,4.17492152E-11,-0.174702331,0.495374143,1.10984242,1,0x2B6E3AA4,0,0.600000024,0,0,0,0.0634732842,1.91465387E-13,-0.0390587188,5.38490963,0.249130964,1,0x2B6E3AA4,0,0.600000024,0,0,0,0.0208645407,0.824237108,-0.0173966568,0.02414608,62.287487,1,0x2B6E3AA4,0,0.600000024,0,0,0,-0.014038302,0.833734453,-0.0118062831,6.21589518,38.0228577
