timestamp_utc,sample_index,race_time_seconds,game_state,is_racing,is_paused,level_id,level_name,car_id,car_name,player_steer,player_throttle,player_brake,position_x,position_y,position_z,forward_x,forward_y,forward_z,right_x,right_y,right_z,up_x,up_y,up_z,velocity_x,velocity_y,velocity_z,angular_velocity_x,angular_velocity_y,angular_velocity_z,vehicle_applied_throttle,vehicle_applied_brake,vehicle_applied_handbrake,vehicle_control_candidate_1dfc,vehicle_applied_steer,vehicle_frame_delta_ms,vehicle_frame_delta_seconds,speed_magnitude,planar_speed_magnitude,yaw_radians,yaw_degrees,pitch_radians,pitch_degrees,roll_radians,roll_degrees,yaw_rate,quat_x,quat_y,quat_z,quat_w,camera_position_x,camera_position_y,camera_position_z,camera_forward_x,camera_forward_y,camera_forward_z,camera_fov,camera_mode_index,camera_family,camera_tracker_vtable,camera_tracker_slot_a_vtable,camera_tracker_slot_b_vtable,camera_output_active_profile_ptr,camera_output_active_profile_vtable,camera_output_source_node_ptr,camera_output_target_node_ptr,camera_goal_view_active_profile_ptr,camera_goal_view_active_profile_vtable,camera_goal_view_active_clip_ptr,camera_goal_view_active_clip_vtable,camera_goal_view_source_node_ptr,camera_goal_view_target_node_ptr,camera_goal_view_runtime_seconds,camera_goal_view_dirty_flag,player_camera_list_count,player_camera_active_profile_index,player_camera_list_0_ptr,player_camera_list_0_vtable,player_camera_list_1_ptr,player_camera_list_1_vtable,player_camera_list_2_ptr,player_camera_list_2_vtable,player_camera_list_3_ptr,player_camera_list_3_vtable,player_camera_list_4_ptr,player_camera_list_4_vtable,player_camera_list_5_ptr,player_camera_list_5_vtable,wheel_0_contact_flag,wheel_0_contact_ptr,wheel_0_contact_surface_44_candidate,wheel_0_contact_surface_48_candidate,wheel_0_contact_surface_4c_candidate,wheel_0_contact_surface_50_candidate,wheel_0_contact_surface_54_candidate,wheel_0_suspension_length_candidate,wheel_0_tire_force_multiplier_candidate,wheel_0_load_or_spin_candidate,wheel_0_rotation_or_phase_candidate,wheel_0_vertical_load_candidate,wheel_1_contact_flag,wheel_1_contact_ptr,wheel_1_contact_surface_44_candidate,wheel_1_contact_surface_48_candidate,wheel_1_contact_surface_4c_candidate,wheel_1_contact_surface_50_candidate,wheel_1_contact_surface_54_candidate,wheel_1_suspension_length_candidate,wheel_1_tire_force_multiplier_candidate,wheel_1_load_or_spin_candidate,wheel_1_rotation_or_phase_candidate,wheel_1_vertical_load_candidate,wheel_2_contact_flag,wheel_2_contact_ptr,wheel_2_contact_surface_44_candidate,wheel_2_contact_surface_48_candidate,wheel_2_contact_surface_4c_candidate,wheel_2_contact_surface_50_candidate,wheel_2_contact_surface_54_candidate,wheel_2_suspension_length_candidate,wheel_2_tire_force_multiplier_candidate,wheel_2_load_or_spin_candidate,wheel_2_rotation_or_phase_candidate,wheel_2_vertical_load_candidate,wheel_3_contact_flag,wheel_3_contact_ptr,wheel_3_contact_surface_44_candidate,wheel_3_contact_surface_48_candidate,wheel_3_contact_surface_4c_candidate,wheel_3_contact_surface_50_candidate,wheel_3_contact_surface_54_candidate,wheel_3_suspension_length_candidate,wheel_3_tire_force_multiplier_candidate,wheel_3_load_or_spin_candidate,wheel_3_rotation_or_phase_candidate,wheel_3_vertical_load_candidate,vehicle_candidate_1de8,vehicle_candidate_1dec,vehicle_candidate_1df0,vehicle_candidate_1e08,vehicle_candidate_1e18,vehicle_candidate_1e1c,vehicle_candidate_1e20,vehicle_candidate_1e24,wheel_0_candidate_0320,wheel_0_candidate_0324,wheel_0_candidate_0328,wheel_0_candidate_0338,wheel_0_candidate_0344,wheel_0_candidate_036c,wheel_0_candidate_0370,wheel_0_candidate_0374,wheel_0_candidate_037c,wheel_0_candidate_0380,wheel_0_candidate_0384,wheel_0_candidate_038c,wheel_0_candidate_0390,wheel_0_candidate_0394,wheel_0_candidate_0398,wheel_0_candidate_039c,wheel_1_candidate_0320,wheel_1_candidate_0324,wheel_1_candidate_0328,wheel_1_candidate_0338,wheel_1_candidate_0344,wheel_1_candidate_036c,wheel_1_candidate_0370,wheel_1_candidate_0374,wheel_1_candidate_037c,wheel_1_candidate_0380,wheel_1_candidate_0384,wheel_1_candidate_038c,wheel_1_candidate_0390,wheel_1_candidate_0394,wheel_1_candidate_0398,wheel_1_candidate_039c,wheel_2_candidate_0320,wheel_2_candidate_0324,wheel_2_candidate_0328,wheel_2_candidate_0338,wheel_2_candidate_0344,wheel_2_candidate_036c,wheel_2_candidate_0370,wheel_2_candidate_0374,wheel_2_candidate_037c,wheel_2_candidate_0380,wheel_2_candidate_0384,wheel_2_candidate_038c,wheel_2_candidate_0390,wheel_2_candidate_0394,wheel_2_candidate_0398,wheel_2_candidate_039c,wheel_3_candidate_0320,wheel_3_candidate_0324,wheel_3_candidate_0328,wheel_3_candidate_0338,wheel_3_candidate_0344,wheel_3_candidate_036c,wheel_3_candidate_0370,wheel_3_candidate_0374,wheel_3_candidate_037c,wheel_3_candidate_0380,wheel_3_candidate_0384,wheel_3_candidate_038c,wheel_3_candidate_0390,wheel_3_candidate_0394,wheel_3_candidate_0398,wheel_3_candidate_039c,wheel_0_suspension_length_delta_per_sec,wheel_0_load_or_spin_delta_per_sec,wheel_0_vertical_load_delta_per_sec,wheel_1_suspension_length_delta_per_sec,wheel_1_load_or_spin_delta_per_sec,wheel_1_vertical_load_delta_per_sec,wheel_2_suspension_length_delta_per_sec,wheel_2_load_or_spin_delta_per_sec,wheel_2_vertical_load_delta_per_sec,wheel_3_suspension_length_delta_per_sec,wheel_3_load_or_spin_delta_per_sec,wheel_3_vertical_load_delta_per_sec
2026-04-28T13:46:29.8085986Z,1,-2,Race,true,false,68,Garage Test Track,16,Bullet,0,0,0,-140.379166,1.32112455,190.701096,-5.16476075E-06,-0.0181549881,-0.999835253,-1.00000012,9.53560811E-06,4.99246516E-06,9.44339808E-06,0.999835193,-0.0181549881,-2.75088096E-05,-0.00070196524,-0.000138068674,-0.000903645181,-7.96968307E-05,2.63137827E-05,0,1,0,0,0,20,0.0200000014,0.000715943344,0.000140782431,-3.1415875,-179.999695,0.0181559846,1.04026127,9.53717972E-06,0.000546440133,-7.96968307E-05,-0.00907786749,4.74494709E-06,0.999958813,-2.53941107E-06,-140.379166,2.82511258,195.699722,-8.97888276E-06,-0.1987755,-0.98004508,1.74532926,1,goal_runtime,0x006742EC,0x006742EC,0x0067459C,0x07D6855C,0x00673FF8,0x2B677180,0x2B677180,0x07D68C7C,0x00673FF8,0x07D6A95C,0x00673FF8,0x2B677180,0x2B677180,1.66999876,0,5,1,0x07D6842C,0x00673FF8,0x07D6855C,0x00673FF8,0x07D686E0,0x00673FF8,0x07D687D8,0x00673FF8,0x07D688D0,0x00673FF8,,,1,0x2B678E2C,0,0.600000024,0,0,0,-0.017532032,0.000334905286,0.000680264784,0,0.00404355489,1,0x2B678E2C,0,0.600000024,0,0,0,0.0175470132,0.00113894173,0.000680673111,0,0.00475918641,1,0x2B678E2C,0,0.600000024,0,0,0,0.0174511112,9.35748176E-05,-5.66947856E-05,0.000142654477,0.00109223265,1,0x2B678E2C,0,0.600000024,0,0,0,-0.0174478646,0.000100354846,-5.61004272E-05,6.2830472,0.00112488226,1,0,0,0.0100000007,0.0616604015,-0.000314145029,-0.000716886367,-0.0013712768,2000,0.000211653882,-6.95614071E-05,1,4846.98584,0,24.2349281,-0.00402795617,0.979415119,9.79415131,0.0006802649,8.28593038E-05,0.000211653882,-6.95614071E-05,4.14594069E-05,1,2000,8.05955715E-05,-6.95620038E-05,1,4846.98584,0,24.2349281,-0.00461887289,0.979415119,9.79415131,0.000680673227,0.00023941313,8.05955715E-05,-6.95620038E-05,1.57873055E-05,1,2000,8.06670505E-05,0.000156765775,1,3127.52856,0,15.6376429,0.0010877765,0.936205506,9.36205482,-5.66947856E-05,8.57073974E-05,8.06670505E-05,0.000156765775,1.51041886E-05,1,2000,0.000211592182,0.000156765134,1,3127.52856,0,15.6376429,0.00111985044,0.936205506,9.36205482,-5.61004272E-05,8.92568351E-05,0.000211592182,0.000156765134,3.96187534E-05,1,0,0,0,0,0,0,0,0,0,0,0,0
2026-04-28T13:46:29.8824400Z,2,-1.8999999000000001,Race,true,false,68,Garage Test Track,16,Bullet,0,0,0,-140.37915,1.32107699,190.700867,5.26049973E-07,-0.0181944743,-0.999834776,-1.00000036,5.45721377E-06,-6.2544467E-07,5.46769024E-06,0.999834478,-0.0181944743,6.0661597E-07,-0.000490150356,0.000573559548,-0.000881988788,0.000234905005,1.21315452E-05,0,1,0,0,0,20,0.0200000014,0.000754465582,0.000573559839,3.14159203,179.999954,0.0181954727,1.04252374,5.45811736E-06,0.000312727061,0.000234905005,-0.00909761246,2.73133878E-06,0.999958694,2.87885541E-07,-140.37915,2.82508326,195.699509,-8.97885184E-06,-0.198777214,-0.980044663,1.74532926,1,goal_runtime,0x006742EC,0x006742EC,0x0067459C,0x07D6855C,0x00673FF8,0x2B677180,0x2B677180,0x07D68C7C,0x00673FF8,0x07D6A95C,0x00673FF8,0x2B677180,0x2B677180,1.7399987,0,5,1,0x07D6842C,0x00673FF8,0x07D6855C,0x00673FF8,0x07D686E0,0x00673FF8,0x07D687D8,0x00673FF8,0x07D688D0,0x00673FF8,,,1,0x2B678E2C,0,0.600000024,0,0,0,-0.0175342504,-0.0208687559,3.74045339E-06,0,0.0208798964,1,0x2B678E2C,0,0.600000024,0,0,0,0.0175452493,-0.0216528568,4.06459731E-06,0,0.0216646455,1,0x2B678E2C,0,0.600000024,0,0,0,0.0174507778,-0.0193781927,0.000142545119,0.00018685215,0.0194292087,1,0x2B678E2C,0,0.600000024,0,0,0,-0.0174482968,-0.0215103645,0.00014306861,6.28300333,0.02155919,1,0,0,0.0100000007,0.153183997,-0.000229173864,-0.000548613432,-0.00249012047,2000,-0.000879477302,0.000371526694,1,4848.49023,0,24.2424507,-2.3515373E-05,0.979415119,9.79415131,3.74045339E-06,-0.00184523757,-0.000879477302,0.000371526694,0.000172274682,1,2000,-0.000512779399,0.000371528906,1,4848.49023,0,24.2424507,-2.3515373E-05,0.979415119,9.79415131,4.06459731E-06,-0.00191458885,-0.000512779399,0.000371528906,0.000100444784,1,2000,-0.00038402772,-0.000261542882,1,3127.49707,9.30184979E-05,15.6374846,-0.001260121,0.936205506,9.36205482,0.000142545119,-0.00171343016,-0.00038402772,-0.000261542882,9.60515026E-05,1,2000,-0.0010082568,-0.000261541689,1,3127.49707,-9.30186579E-05,15.6374846,-0.00126473175,0.936205506,9.36205482,0.00014306861,-0.00190197316,-0.0010082568,-0.000261541689,0.000164641344,1,-0.000110920511,-0.0338262171,0.841817021,-8.81962405E-05,-0.0338304229,0.845272899,-1.66706723E-05,0.00996199436,0.916848719,-2.16066819E-05,0.00995845068,1.02171528
2026-04-28T13:46:29.9826440Z,3,-1.7999999,Race,true,false,68,Garage Test Track,16,Bullet,0,0,0,-140.37915,1.32104707,190.700592,2.65059271E-06,-0.0182223078,-0.999834299,-1.00000036,3.77249353E-06,-2.71978797E-06,3.82142798E-06,0.999833941,-0.0182223078,0.000196064429,-0.00014725505,-0.00303735374,-4.46257473E-05,-0.000105788895,0.00011196611,0,1,0,0,0,20,0.0200000014,0.00304723531,0.00304367533,3.14159012,179.999847,0.0182233099,1.04411864,3.77312017E-06,0.000216183849,-0.000105788895,-0.00911153108,1.89855905E-06,0.999958575,1.34265076E-06,-140.37915,2.825068,195.699219,-8.97884638E-06,-0.198780268,-0.980044067,1.74532926,1,goal_runtime,0x006742EC,0x006742EC,0x0067459C,0x07D6855C,0x00673FF8,0x2B677180,0x2B677180,0x07D68C7C,0x00673FF8,0x07D6A95C,0x00673FF8,0x2B677180,0x2B677180,1.8399986,0,5,1,0x07D6842C,0x00673FF8,0x07D6855C,0x00673FF8,0x07D686E0,0x00673FF8,0x07D687D8,0x00673FF8,0x07D688D0,0x00673FF8,,,1,0x2B678E2C,0,0.600000024,0,0,0,-0.0175361633,-6.97878932E-07,-4.11923247E-05,0,0.000238988883,1,0x2B678E2C,0,0.600000024,0,0,0,0.0175437946,-3.13183676E-07,-4.08641645E-05,0,0.000236649517,1,0x2B678E2C,0,0.600000024,0,0,0,0.017450396,-5.02548062E-07,-3.89645866E-05,0.000178879127,0.000345673732,1,0x2B678E2C,0,0.600000024,0,0,0,-0.0174486618,-8.87236979E-07,-3.84230007E-05,6.28301191,0.000340477447,1,0,0,0.0100000007,-0.165278375,2.84528905E-05,-0.000205770921,0.000268214091,2000,-0.00132673397,-0.000490248203,1,4848.80664,0,24.2440319,0.000238850684,0.979415119,9.79415131,-4.11923247E-05,-2.92180857E-06,-0.00132673397,-0.000490248203,0.000259884691,1,2000,-0.00151399139,-0.000490247621,1,4848.80664,0,24.2440319,0.000236467298,0.979415119,9.79415131,-4.08641645E-05,-1.32442585E-06,-0.00151399139,-0.000490247621,0.000296565238,1,2000,-0.0015138872,-0.000167298276,1,3127.56885,0,15.6378441,0.000345543638,0.936205506,9.36205482,-3.89645866E-05,-1.45436775E-06,-0.0015138872,-0.000167298276,0.000283461908,1,2000,-0.00132682454,-0.00016729896,1,3127.56885,0,15.6378441,0.000340297644,0.936205506,9.36205482,-3.84230007E-05,-2.60722936E-06,-0.00132682454,-0.00016729896,0.000248436118,1,-9.56468211E-05,-0.00224663876,-1.03204536,-7.27362858E-05,-0.00224643783,-1.07139969,-1.9092111E-05,-0.00907548424,-0.954176724,-1.82539206E-05,-0.00907457992,-1.06093562
2026-04-28T13:46:30.0824347Z,4,-1.7,Race,true,false,68,Garage Test Track,16,Bullet,0,0,0,-140.37915,1.32104957,190.700272,-1.24714248E-07,-0.0182180777,-0.999834299,-1.00000024,4.25241114E-06,4.72513442E-08,4.250845E-06,0.999834061,-0.0182180777,-9.92670539E-05,0.00013592717,-0.00446426915,0.000380386831,0.000518371351,-7.26663711E-05,0,1,0,0,0,20,0.0200000014,0.00446744123,0.00446537277,-3.1415925,-179.999985,0.0182190817,1.04387641,4.25311691E-06,0.00024368563,0.000518371351,-0.00910941605,2.12590203E-06,0.999958575,-4.29931788E-08,-140.37915,2.82508135,195.698898,-8.97884274E-06,-0.198782533,-0.980043709,1.74532926,1,goal_runtime,0x006742EC,0x006742EC,0x0067459C,0x07D6855C,0x00673FF8,0x2B677180,0x2B677180,0x07D68C7C,0x00673FF8,0x07D6A95C,0x00673FF8,0x2B677180,0x2B677180,1.93999851,0,5,1,0x07D6842C,0x00673FF8,0x07D6855C,0x00673FF8,0x07D686E0,0x00673FF8,0x07D687D8,0x00673FF8,0x07D688D0,0x00673FF8,,,1,0x2B678E2C,0,0.600000024,0,0,0,-0.0175356846,-0.00526473531,-0.00029336795,0,0.00781268813,1,0x2B678E2C,0,0.600000024,0,0,0,0.017544277,-0.00569191016,-0.000292862154,0,0.00811694469,1,0x2B678E2C,0,0.600000024,0,0,0,0.0174504016,-0.00569710974,8.99449442E-05,0.000134268019,0.00805042032,1,0x2B678E2C,0,0.600000024,0,0,0,-0.0174485389,-0.00426205108,9.04703047E-05,6.28305674,0.00696923351,1,0,0,0.0100000007,-0.0824507251,0.000166211801,8.62463712E-05,-0.0028152545,2000,-0.00417935336,1.90714563E-05,1,4846.20703,0,24.2310352,0.00576794986,0.979415119,9.79415131,-0.00029336795,-0.000674153969,-0.00417935336,1.90714563E-05,0.000818664441,1,2000,-0.00407747179,1.90709579E-05,1,4846.20703,0,24.2310352,0.00578194344,0.979415119,9.79415131,-0.000292862154,-0.000701536715,-0.00407747179,1.90709579E-05,0.000798707595,1,2000,-0.00420131627,-0.000156912283,1,3129.6582,-8.92919052E-05,15.6482906,-0.00568302022,0.936205506,9.36205482,8.99449442E-05,-0.000707981701,-0.00420131627,-0.000156912283,0.000763480726,1,2000,-0.00405551586,-0.000156911789,1,3129.6582,8.92919052E-05,15.6482906,-0.00551031716,0.936205506,9.36205482,9.04703047E-05,-0.000611814088,-0.00405551586,-0.000156911789,0.000782537682,1,2.39349883E-05,-0.0126087796,0.378684938,2.41212529E-05,-0.0125998985,0.394014746,2.79396744E-07,0.00644547632,0.385237306,6.14672854E-06,0.00644466467,0.331437767
2026-04-28T13:46:30.1831017Z,5,-1.6000000000000001,Race,true,false,68,Garage Test Track,16,Bullet,0,0,0,-140.37915,1.32107103,190.699997,-7.20388925E-07,-0.0182003397,-0.999834776,-1.00000036,1.13610895E-05,5.1369841E-07,1.13498591E-05,0.999834359,-0.0182003397,4.41800257E-05,0.000254838669,-0.0024607752,0.000173794251,0.00010284438,6.90475063E-05,0,1,0,0,0,20,0.0200000014,0.00247433013,0.00246117171,-3.14159203,-179.999954,0.0182013363,1.04285967,1.13629712E-05,0.000651050243,0.00010284438,-0.00910054613,5.67797179E-06,0.999958694,-3.08534567E-07,-140.37915,2.82510805,195.698624,-8.97886639E-06,-0.198784187,-0.980043292,1.74532926,1,goal_runtime,0x006742EC,0x006742EC,0x0067459C,0x07D6855C,0x00673FF8,0x2B677180,0x2B677180,0x07D68C7C,0x00673FF8,0x07D6A95C,0x00673FF8,0x2B677180,0x2B677180,2.03999853,0,5,1,0x07D6842C,0x00673FF8,0x07D6855C,0x00673FF8,0x07D686E0,0x00673FF8,0x07D687D8,0x00673FF8,0x07D688D0,0x00673FF8,,,1,0x2B678E2C,0,0.600000024,0,0,0,-0.0175284632,-0.0174368825,0.000399929675,0,0.0175974462,1,0x2B678E2C,0,0.600000024,0,0,0,0.0175511502,-0.0172096379,0.000400418328,0,0.017372353,1,0x2B678E2C,0,0.600000024,0,0,0,0.0174521543,-0.0164983217,0.000262259302,0.000115482726,0.016668288,1,0x2B678E2C,0,0.600000024,0,0,0,-0.0174469184,-0.0166212916,0.000262852875,6.28307581,0.0167908967,1,0,0,0.0100000007,0.100531362,-0.000692799105,0.000237251239,-0.00447140262,2000,-0.0039152503,0.00054232782,1,4844.2749,0,24.2213745,-0.00230626133,0.979415119,9.79415131,0.000399929704,-0.00154165179,-0.0039152503,0.00054232782,0.00076693116,1,2000,-0.00377389742,0.000542326947,1,4844.2749,0,24.2213745,-0.00230884063,0.979415119,9.79415131,0.000400418357,-0.00152170856,-0.00377389742,0.000542326947,0.000739242474,1,2000,-0.00380069274,0.000298736442,1,3129.93799,-1.92718417E-05,15.6496897,-0.00231706351,0.936205506,9.36205482,0.000262259302,-0.00145877968,-0.00380069274,0.000298736442,0.00070664339,1,2000,-0.00388846453,0.000298737606,1,3129.93799,1.92718417E-05,15.6496897,-0.00232246472,0.936205506,9.36205482,0.000262852875,-0.00146954716,-0.00388846453,0.000298737606,0.000733082998,1,0.000361073733,0.0346648768,0.489237875,0.000343658001,0.0346640199,0.462770373,8.7637447E-05,0.00861571729,0.430893362,8.10250567E-05,0.0086191278,0.491083086
2026-04-28T13:46:30.2823330Z,6,-1.5,Race,true,false,68,Garage Test Track,16,Bullet,0,0,0,-140.37915,1.32109439,190.699768,-1.9676429E-06,-0.018188091,-0.999834776,-1.00000024,6.70940108E-06,1.84591715E-06,6.6747175E-06,0.999834597,-0.018188091,0.000177498674,0.000207679055,0.000497582427,-0.000246140495,-0.000197590896,0.000128716521,0,1,0,0,0,20,0.0200000014,0.000567648327,0.000528293545,-3.1415906,-179.999878,0.0181890912,1.04215813,6.71051112E-06,0.000384483952,-0.000197590896,-0.00909442082,3.34616789E-06,0.999958694,-9.53429435E-07,-140.37915,2.82513213,195.698395,-8.97886639E-06,-0.198784336,-0.980043232,1.74532926,1,goal_runtime,0x006742EC,0x006742EC,0x0067459C,0x07D6855C,0x00673FF8,0x2B677180,0x2B677180,0x07D68C7C,0x00673FF8,0x07D6A95C,0x00673FF8,0x2B677180,0x2B677180,2.13999844,0,5,1,0x07D6842C,0x00673FF8,0x07D6855C,0x00673FF8,0x07D686E0,0x00673FF8,0x07D687D8,0x00673FF8,0x07D688D0,0x00673FF8,,,1,0x2B678E2C,0,0.600000024,0,0,0,-0.0175329987,-0.021456141,0.000372032489,0,0.0215748474,1,0x2B678E2C,0,0.600000024,0,0,0,0.0175463855,-0.0205093902,0.000372742681,0,0.0206327066,1,0x2B678E2C,0,0.600000024,0,0,0,0.0174510814,-0.0201525725,-0.000224703283,8.36408581E-05,0.0202608909,1,0x2B678E2C,0,0.600000024,0,0,0,-0.0174479987,-0.019963529,-0.000224224001,6.28310776,0.0200721417,1,0,0,0.0100000007,0.148874655,8.73869649E-05,0.000228863151,-0.00247991085,2000,-0.000950667367,-0.000253530248,1,4844.16895,0,24.2208443,-0.00214531878,0.979415119,9.79415131,0.000372032518,-0.00189713994,-0.000950667367,-0.000253530248,0.000186219622,1,2000,-0.000977985677,-0.000253529754,1,4844.16895,0,24.2208443,-0.0021493102,0.979415119,9.79415131,0.00037274271,-0.0018135201,-0.000977985677,-0.000253529754,0.000191570813,1,2000,-0.00121575024,-0.000206616824,1,3128.28784,-0.000171516411,15.6414385,0.00198609126,0.936205506,9.36205482,-0.000224703283,-0.00178186945,-0.00121575024,-0.000206616824,0.000183116208,1,2000,-0.000712900597,-0.000206617173,1,3128.28784,0.000171516411,15.6414385,0.00198177109,0.936205506,9.36205482,-0.000224224001,-0.00176521018,-0.000712900597,-0.000206617173,0.000178006507,1,-0.000226777032,-0.00139485917,0.198870048,-0.0002382323,-0.00138378225,0.16301766,-5.36441767E-05,-0.0243481267,0.179630131,-5.40167057E-05,-0.0243538413,0.164062232
2026-04-28T13:46:30.3825169Z,7,-1.3999999000000001,Race,true,false,68,Garage Test Track,16,Bullet,0,0,0,-140.37915,1.32110858,190.699509,3.37837946E-06,-0.018176537,-0.999834776,-1,4.66263282E-06,-3.46370234E-06,4.72482043E-06,0.999834776,-0.018176537,0.00028982549,7.89136466E-05,-0.00282964995,0.000162427532,-0.000168300088,0.000191332496,0,1,0,0,0,20,0.0200000014,0.00284554833,0.00284445379,3.14158916,179.999786,0.0181775391,1.04149616,4.66340316E-06,0.000267193303,-0.000168300088,-0.00908864383,2.34696017E-06,0.999958694,1.71059116E-06,-140.37915,2.82514477,195.698135,-8.97889367E-06,-0.198784605,-0.980043232,1.74532926,1,goal_runtime,0x006742EC,0x006742EC,0x0067459C,0x07D6855C,0x00673FF8,0x2B677180,0x2B677180,0x07D68C7C,0x00673FF8,0x07D6A95C,0x00673FF8,0x2B677180,0x2B677180,2.23999834,0,5,1,0x07D6842C,0x00673FF8,0x07D6855C,0x00673FF8,0x07D686E0,0x00673FF8,0x07D687D8,0x00673FF8,0x07D688D0,0x00673FF8,,,1,0x2B678E2C,0,0.600000024,0,0,0,-0.0175349303,-3.89837396E-07,9.50464164E-06,0,7.86232631E-05,1,0x2B678E2C,0,0.600000024,0,0,0,0.0175443422,-9.99259342E-08,1.02646009E-05,0,6.18315898E-05,1,0x2B678E2C,0,0.600000024,0,0,0,0.0174504668,-3.3128984E-07,2.52747413E-05,4.86567005E-05,0.000223702562,1,0x2B678E2C,0,0.600000024,0,0,0,-0.0174484998,-1.13690999E-06,2.58132513E-05,6.28314209,0.000235150146,1,0,0,0.0100000007,-0.166690543,4.3323791E-05,0.000116670315,0.000504161173,2000,-0.00110559887,-0.00064815185,1,4843.72949,0,24.218647,-7.85142402E-05,0.979415119,9.79415131,9.50464164E-06,-4.96511984E-06,-0.00110559887,-0.00064815185,0.000216568078,1,2000,-0.00145081407,-0.000648154062,1,4843.72949,0,24.218647,-6.1706618E-05,0.979415119,9.79415131,1.02646009E-05,-1.61936941E-06,-0.00145081407,-0.000648154062,0.000284189853,1,2000,-0.00153924373,-5.25011055E-05,1,3128.49561,-6.39242717E-05,15.642478,-0.000223592666,0.936205506,9.36205482,2.52747413E-05,-1.48166521E-06,-0.00153924373,-5.25011055E-05,0.000271616242,1,2000,-0.00101714453,-5.25022879E-05,1,3128.49561,6.39242862E-05,15.642478,-0.000235034255,0.936205506,9.36205482,2.58132513E-05,-4.83715303E-06,-0.00101714453,-5.25022879E-05,0.000207044737,1,-9.65781437E-05,-0.0181263909,-1.0748111,-0.000102166079,-0.0181239024,-1.02854359,-3.07336413E-05,0.0124989012,-1.00185943,-2.50525754E-05,0.0125018619,-0.991849542
2026-04-28T13:46:30.4827432Z,8,-1.2999999,Race,true,false,68,Garage Test Track,16,Bullet,0,0,0,-140.37915,1.32111096,190.699203,1.05711865E-06,-0.0181685649,-0.999835253,-1.00000036,9.95560822E-06,-1.238202E-06,9.97646112E-06,0.999834955,-0.0181685649,-0.000442446588,-2.63800375E-05,-0.00449453387,0.000277863757,0.000365863409,-0.000286602357,0,1,0,0,0,20,0.0200000014,0.00451633567,0.00451625884,3.14159155,179.999924,0.0181695595,1.04103899,9.95725168E-06,0.000570508477,0.000365863409,-0.00908465683,4.98322242E-06,0.999958813,5.73853811E-07,-140.37915,2.82514572,195.69783,-8.97889367E-06,-0.198784322,-0.980043292,1.74532926,1,goal_runtime,0x006742EC,0x006742EC,0x0067459C,0x07D6855C,0x00673FF8,0x2B677180,0x2B677180,0x07D68C7C,0x00673FF8,0x07D6A95C,0x00673FF8,0x2B677180,0x2B677180,2.33999825,0,5,1,0x07D6842C,0x00673FF8,0x07D6855C,0x00673FF8,0x07D686E0,0x00673FF8,0x07D687D8,0x00673FF8,0x07D688D0,0x00673FF8,,,1,0x2B678E2C,0,0.600000024,0,0,0,-0.0175296422,-0.00499748066,-0.000127338164,0,0.0075394013,1,0x2B678E2C,0,0.600000024,0,0,0,0.0175495185,-0.00594170392,-0.000126479106,0,0.00821770914,1,0x2B678E2C,0,0.600000024,0,0,0,0.0174515899,-0.00573658524,0.000225678232,3.55832381E-05,0.00818245672,1,0x2B678E2C,0,0.600000024,0,0,0,-0.0174473822,-0.00457686558,0.000226151606,6.28315496,0.00733863516,1,0,0,0.0100000007,-0.0814227238,8.94143668E-05,-1.44180376E-05,-0.00286607933,2000,-0.00400789594,0.000294899102,1,4842.80713,0,24.214035,0.00564084668,0.979415119,9.79415131,-0.000127338164,-0.000663132116,-0.00400789594,0.000294899102,0.000785078853,1,2000,-0.00429803878,0.000294897181,1,4842.80713,0,24.214035,0.00567182014,0.979415119,9.79415131,-0.000126479106,-0.000723343808,-0.00429803878,0.000294897181,0.00084191293,1,2000,-0.00431537954,0.000796455832,1,3130.47314,-1.2622485E-05,15.6523657,-0.00582979759,0.936205506,9.36205482,0.000225678232,-0.00070138555,-0.00431537954,0.000796455832,0.000804739888,1,2000,-0.00399053376,0.000796455308,1,3130.47314,1.26224741E-05,15.6523657,-0.00573259545,0.936205506,9.36205482,0.000226151606,-0.000623929198,-0.00399053376,0.000796455308,0.00075046852,1,0.00026440245,-0.00684213964,0.373038888,0.000258814514,-0.00683718501,0.40779385,5.61587476E-05,0.0100201741,0.397937655,5.58793508E-05,0.0100169173,0.355174214
2026-04-28T13:46:30.5829733Z,9,-1.2,Race,true,false,68,Garage Test Track,16,Bullet,0,0,0,-140.37915,1.321105,190.698929,-4.30028649E-06,-0.0181714874,-0.999834776,-0.999999881,8.0705322E-06,4.15431896E-06,7.993709E-06,0.999834895,-0.0181714874,-0.000184393895,-7.39056341E-05,-0.00254662894,-8.00535854E-05,5.42582238E-05,-0.000139516851,0,1,0,0,0,20,0.0200000014,0.0025543652,0.00255329581,-3.14158845,-179.999756,0.0181724895,1.04120684,8.07186461E-06,0.00046248376,5.42582238E-05,-0.00908611901,4.01622628E-06,0.999958694,-2.11373867E-06,-140.37915,2.82513857,195.697556,-8.97889367E-06,-0.198784068,-0.980043292,1.74532926,1,goal_runtime,0x006742EC,0x006742EC,0x0067459C,0x07D6855C,0x00673FF8,0x2B677180,0x2B677180,0x07D68C7C,0x00673FF8,0x07D6A95C,0x00673FF8,0x2B677180,0x2B677180,2.43999815,0,5,1,0x07D6842C,0x00673FF8,0x07D6855C,0x00673FF8,0x07D686E0,0x00673FF8,0x07D687D8,0x00673FF8,0x07D688D0,0x00673FF8,,,1,0x2B678E2C,0,0.600000024,0,0,0,-0.0175315253,-0.017683791,0.000286094437,0,0.0177694578,1,0x2B678E2C,0,0.600000024,0,0,0,0.0175477508,-0.0166507959,0.000287131639,0,0.0167411305,1,0x2B678E2C,0,0.600000024,0,0,0,0.0174513739,-0.0159113165,-0.000282829977,8.59351348E-06,0.0161141064,1,0x2B678E2C,0,0.600000024,0,0,0,-0.0174477156,-0.0169313401,-0.00028236871,6.28318214,0.0171225108,1,0,0,0.0100000007,0.0984719396,-0.00012810083,-7.79096081E-05,-0.00451606791,2000,-0.00408506719,0.00056284538,1,4843.49805,0,24.2174892,-0.00165009359,0.979415119,9.79415131,0.000286094437,-0.00156352553,-0.00408506719,0.00056284538,0.000800195383,1,2000,-0.00357699697,0.00056284701,1,4843.49805,0,24.2174892,-0.00165599165,0.979415119,9.79415131,0.000287131639,-0.00147225824,-0.00357699697,0.00056284701,0.000700673088,1,2000,-0.00357727753,-0.000314235658,1,3130.19922,0,15.6509962,0.00249885675,0.936205506,9.36205482,-0.000282829977,-0.00140675902,-0.00357727753,-0.000314235658,0.000669813424,1,2000,-0.00408482179,-0.000314237259,1,3130.19922,0,15.6509962,0.00249454379,0.936205506,9.36205482,-0.00028236871,-0.00149708299,-0.00408482179,-0.000314237259,0.000764846569,1,-9.4156705E-05,0.0206716284,0.511502802,-8.83825051E-05,0.0206805356,0.426171035,-1.0803341E-05,-0.025425408,0.396582454,-1.66706723E-05,-0.0254260134,0.489193738
2026-04-28T13:46:30.6832524Z,10,-1.1000000000000001,Race,true,false,68,Garage Test Track,16,Bullet,0,0,0,-140.37915,1.32109666,190.6987,-1.32889795E-06,-0.018184673,-0.999834776,-1.00000012,5.93967843E-06,1.22108872E-06,5.91649086E-06,0.999834657,-0.018184673,0.000354265241,-7.73006977E-05,0.00043986761,-0.000482494186,-2.41293383E-05,0.000265912677,0,1,0,0,0,20,0.0200000014,0.000570055039,0.000564789632,-3.14159131,-179.999908,0.0181856733,1.04196227,5.94066069E-06,0.000340374769,-2.41293383E-05,-0.00909271184,2.96416465E-06,0.999958694,-6.37522987E-07,-140.37915,2.82512999,195.697327,-8.97886821E-06,-0.198783427,-0.980043471,1.74532926,1,goal_runtime,0x006742EC,0x006742EC,0x0067459C,0x07D6855C,0x00673FF8,0x2B677180,0x2B677180,0x07D68C7C,0x00673FF8,0x07D6A95C,0x00673FF8,0x2B677180,0x2B677180,2.53999805,0,5,1,0x07D6842C,0x00673FF8,0x07D6855C,0x00673FF8,0x07D686E0,0x00673FF8,0x07D687D8,0x00673FF8,0x07D688D0,0x00673FF8,,,1,0x2B678E2C,0,0.600000024,0,0,0,-0.0175337717,-0.0213537589,0.000311813725,0,0.0214408562,1,0x2B678E2C,0,0.600000024,0,0,0,0.0175456163,-0.0207007024,0.000312909076,0,0.0207902305,1,0x2B678E2C,0,0.600000024,0,0,0,0.0174509063,-0.0200401116,-2.89794116E-05,6.28316402,0.020052297,1,0x2B678E2C,0,0.600000024,0,0,0,-0.0174481738,-0.0201610234,-2.85486021E-05,2.66122988E-05,0.0201732181,1,0,0,0.0100000007,0.14959769,2.6074249E-05,-7.63522185E-05,-0.00255208649,2000,-0.00101692113,-0.000294330966,1,4845.28955,0,24.2264481,-0.00179756852,0.979415119,9.79415131,0.000311813725,-0.0018880961,-0.00101692113,-0.000294330966,0.000199197602,1,2000,-0.000884750742,-0.000294331345,1,4845.28955,0,24.2264481,-0.00180380733,0.979415119,9.79415131,0.000312909076,-0.00183041883,-0.000884750742,-0.000294331345,0.000173307664,1,2000,-0.000881702115,-0.00052298326,1,3128.09229,2.25080521E-06,15.640461,0.000256125029,0.936205506,9.36205482,-2.89794116E-05,-0.00177195494,-0.000881702115,-0.00052298326,0.000165675141,1,2000,-0.00101997855,-0.00052298425,1,3128.09229,-2.25067492E-06,15.640461,0.000252405007,0.936205506,9.36205482,-2.85486021E-05,-0.00178264745,-0.00101997855,-0.00052298425,0.000190397695,1,-0.000112317495,0.00128596427,0.183569908,-0.00010672956,0.00128887175,0.202454984,-2.33761948E-05,0.0126925269,0.196909517,-2.29105335E-05,0.0126910042,0.152535349
2026-04-28T13:46:30.7825236Z,11,-1,Race,true,false,68,Garage Test Track,16,Bullet,0,0,0,-140.37915,1.32109034,190.698441,4.84984002E-06,-0.0181902498,-0.999834776,-1.00000024,4.53161601E-06,-4.93308789E-06,4.62060007E-06,0.999834538,-0.0181902498,0.000109777757,-5.31627738E-05,-0.00288719102,5.05804965E-05,-0.000281037122,4.92843646E-05,0,1,0,0,0,20,0.0200000014,0.00288976636,0.00288927718,3.14158773,179.99971,0.0181912482,1.04228175,4.53236589E-06,0.000259685417,-0.000281037122,-0.00909550022,2.28814861E-06,0.999958694,2.44583293E-06,-140.37915,2.82512403,195.697067,-8.97886821E-06,-0.198783517,-0.980043471,1.74532926,1,goal_runtime,0x006742EC,0x006742EC,0x0067459C,0x07D6855C,0x00673FF8,0x2B677180,0x2B677180,0x07D68C7C,0x00673FF8,0x07D6A95C,0x00673FF8,0x2B677180,0x2B677180,2.63999796,0,5,1,0x07D6842C,0x00673FF8,0x07D6855C,0x00673FF8,0x07D686E0,0x00673FF8,0x07D687D8,0x00673FF8,0x07D688D0,0x00673FF8,,,1,0x2B678E2C,0,0.600000024,0,0,0,-0.0175351761,-2.45536694E-06,-7.21637771E-05,0,0.000420221884,1,0x2B678E2C,0,0.600000024,0,0,0,0.0175443273,-1.91509912E-07,-7.08850712E-05,0,0.000410040695,1,0x2B678E2C,0,0.600000024,0,0,0,0.0174505711,-1.34088202E-06,-1.43723737E-05,6.28313494,0.00015913455,1,0x2B678E2C,0,0.600000024,0,0,0,-0.0174485054,-1.34652271E-06,-1.40378543E-05,5.57425265E-05,0.000157315051,1,0,0,0.0100000007,-0.166609973,0.00018635756,-5.01169998E-05,0.000445008714,2000,-0.00101001957,-0.000603829278,1,4845.56982,0,24.2278481,0.000420042663,0.979415119,9.79415131,-7.21637771E-05,-5.8454184E-06,-0.00101001957,-0.000603829278,0.000197845715,1,2000,-0.00158423535,-0.000603827997,1,4845.56982,0,24.2278481,0.000409797765,0.979415119,9.79415131,-7.08850712E-05,-4.67327823E-07,-0.00158423535,-0.000603827997,0.000310324831,1,2000,-0.00196455372,0.000387471548,1,3128.21191,-0.000274561869,15.6410589,0.000158975818,0.936205506,9.36205482,-1.43723737E-05,-8.43420275E-06,-0.00196455372,0.000387471548,0.000296574493,1,2000,-0.000629659742,0.000387475447,1,3128.21191,0.000274561869,15.6410589,0.000157187562,0.936205506,9.36205482,-1.40378543E-05,-8.56602946E-06,-0.000629659742,0.000387475447,0.000189168932,1,-7.02217149E-05,-0.0191988721,-1.05103159,-6.44475149E-05,-0.0191897061,-1.01900935,-1.67638045E-05,0.000730351836,-0.994658053,-1.657754E-05,0.000725537364,-1.00079513
2026-04-28T13:46:30.8832198Z,12,-0.89999989999999996,Race,true,false,68,Garage Test Track,16,Bullet,0,0,0,-140.37915,1.32108819,190.698135,1.79841868E-06,-0.018186599,-0.999834776,-1.00000012,9.18986643E-06,-1.96587621E-06,9.22409981E-06,0.999834597,-0.018186599,-0.000697561423,-5.13160421E-06,-0.00450928742,0.000290116877,4.764197E-05,-0.000546670868,0,1,0,0,0,20,0.0200000014,0.00456292555,0.00456292275,3.14159083,179.999893,0.0181875993,1.04207265,9.19138711E-06,0.000526627642,4.764197E-05,-0.00909367483,4.60368165E-06,0.999958694,9.41112603E-07,-140.37915,2.82512236,195.696762,-8.97886821E-06,-0.198783636,-0.980043471,1.74532926,1,goal_runtime,0x006742EC,0x006742EC,0x0067459C,0x07D6855C,0x00673FF8,0x2B677180,0x2B677180,0x07D68C7C,0x00673FF8,0x07D6A95C,0x00673FF8,0x2B677180,0x2B677180,2.73999786,0,5,1,0x07D6842C,0x00673FF8,0x07D6855C,0x00673FF8,0x07D686E0,0x00673FF8,0x07D687D8,0x00673FF8,0x07D688D0,0x00673FF8,,,1,0x2B678E2C,0,0.600000024,0,0,0,-0.0175305195,-0.0054769339,-0.000216894361,0,0.00792366546,1,0x2B678E2C,0,0.600000024,0,0,0,0.0175489839,-0.00559895672,-0.000215596927,0,0.00801029988,1,0x2B678E2C,0,0.600000024,0,0,0,0.017451534,-0.00482705748,-0.000118218719,6.28313351,0.00742933713,1,0x2B678E2C,0,0.600000024,0,0,0,-0.0174474269,-0.00527001312,-0.000117807911,5.71601049E-05,0.00775893312,1,0,0,0.0100000007,-0.0816446468,0.000306712696,-1.98045145E-05,-0.00287639443,2000,-0.00425563753,-4.52517015E-05,1,4844.18555,0,24.2209263,0.0057213353,0.979415119,9.79415131,-0.000216894361,-0.000691509573,-0.00425563753,-4.52517015E-05,0.000833607221,1,2000,-0.00408035051,-4.52503918E-05,1,4844.18555,0,24.2209263,0.0057238494,0.979415119,9.79415131,-0.000215596927,-0.000699264754,-0.00408035051,-4.52503918E-05,0.000799271453,1,2000,-0.00395667972,-0.000348112226,1,3130.19092,8.92764365E-05,15.6509542,0.00564333424,0.936205506,9.36205482,-0.000118218719,-0.000650008093,-0.00395667972,-0.000348112226,0.000764027529,1,2000,-0.00437932089,-0.000348113535,1,3130.19092,-8.92764438E-05,15.6509542,0.00569006428,0.936205506,9.36205482,-0.000117807911,-0.000679507619,-0.00437932089,-0.000348113535,0.000796814566,1,0.000232830629,-0.00723652868,0.375172138,0.000232830629,-0.00723559223,0.380012929,4.81493735E-05,-0.00519231707,0.363510102,5.39235734E-05,-0.00518850237,0.380080879
2026-04-28T13:46:30.9825452Z,13,-0.80000000000000004,Race,true,false,68,Garage Test Track,16,Bullet,0,0,0,-140.37915,1.32108974,190.697861,-4.5482243E-06,-0.0181840286,-0.999834776,-1.00000012,9.15682631E-06,4.38244069E-06,9.07562116E-06,0.999834657,-0.0181840286,0.000101927879,3.22023661E-05,-0.00252318196,1.76135586E-06,0.000191702158,0.000132560104,0,1,0,0,0,20,0.0200000014,0.00252544531,0.00252523972,-3.14158821,-179.999741,0.0181850288,1.04192531,9.15834062E-06,0.000524734263,0.000191702158,-0.00909238961,4.55830013E-06,0.999958694,-2.23275856E-06,-140.37915,2.82512426,195.696487,-8.97886821E-06,-0.198783681,-0.980043471,1.74532926,1,goal_runtime,0x006742EC,0x006742EC,0x0067459C,0x07D6855C,0x00673FF8,0x2B677180,0x2B677180,0x07D68C7C,0x00673FF8,0x07D6A95C,0x00673FF8,0x2B677180,0x2B677180,2.83999777,0,5,1,0x07D6842C,0x00673FF8,0x07D6855C,0x00673FF8,0x07D686E0,0x00673FF8,0x07D687D8,0x00673FF8,0x07D688D0,0x00673FF8,,,1,0x2B678E2C,0,0.600000024,0,0,0,-0.0175305549,-0.0174969025,0.0004716822,0,0.0177159309,1,0x2B678E2C,0,0.600000024,0,0,0,0.017548833,-0.0168439131,0.00047316798,0,0.0170718674,1,0x2B678E2C,0,0.600000024,0,0,0,0.0174515005,-0.0164787229,1.85380341E-05,6.28309584,0.0164875686,1,0x2B678E2C,0,0.600000024,0,0,0,-0.0174474604,-0.0163751151,1.88105332E-05,9.44405692E-05,0.0163838677,1,0,0,0.0100000007,0.0983980894,-0.000454093533,1.81245159E-05,-0.00449114386,2000,-0.00411790796,0.000536607753,1,4844.0498,0,24.2202492,-0.00272022421,0.979415119,9.79415131,0.00047168223,-0.00154693576,-0.00411790796,0.000536607753,0.000806628319,1,2000,-0.00354518346,0.000536603911,1,4844.0498,0,24.2202492,-0.00272842334,0.979415119,9.79415131,0.000473168009,-0.00148940715,-0.00354518346,0.000536603911,0.000694441318,1,2000,-0.00349624571,-0.000452193752,1,3130.11475,3.55252669E-05,15.6505737,-0.000163810051,0.936205506,9.36205482,1.85380341E-05,-0.00145699957,-0.00349624571,-0.000452193752,0.000663862564,1,2000,-0.00416688295,-0.000452195178,1,3130.11475,-3.55251395E-05,15.6505737,-0.000166278798,0.936205506,9.36205482,1.88105332E-05,-0.00144783175,-0.00416688295,-0.000452195178,0.000770990213,1,-1.76951278E-06,0.0344288237,0.489613235,-7.5437124E-06,0.0344382413,0.45307833,-1.67638052E-06,0.00683783693,0.452911556,-1.67638052E-06,0.00683092186,0.431246698
2026-04-28T13:46:31.0822457Z,14,-0.69999990000000001,Race,true,false,68,Garage Test Track,16,Bullet,0,0,0,-140.37915,1.32109272,190.697632,-2.47882184E-07,-0.0181881599,-0.999834776,-1.00000024,8.42965255E-06,9.45779774E-08,8.42653844E-06,0.999834597,-0.0181881599,3.92084621E-05,3.35072473E-05,0.000471478677,-0.00039456971,-0.000230219681,2.12425693E-05,0,1,0,0,0,20,0.0200000014,0.000474291242,0.000473106164,-3.1415925,-179.999985,0.0181891602,1.04216206,8.43104681E-06,0.00048306337,-0.000230219681,-0.00909445528,4.21422192E-06,0.999958694,-8.56185807E-08,-140.37915,2.82512712,195.696259,-8.97886821E-06,-0.198783651,-0.980043471,1.74532926,1,goal_runtime,0x006742EC,0x006742EC,0x0067459C,0x07D6855C,0x00673FF8,0x2B677180,0x2B677180,0x07D68C7C,0x00673FF8,0x07D6A95C,0x00673FF8,0x2B677180,0x2B677180,2.93999767,0,5,1,0x07D6842C,0x00673FF8,0x07D6855C,0x00673FF8,0x07D686E0,0x00673FF8,0x07D687D8,0x00673FF8,0x07D688D0,0x00673FF8,,,1,0x2B678E2C,0,0.600000024,0,0,0,-0.0175312795,-0.0214491989,0.000362857158,0,0.0215626527,1,0x2B678E2C,0,0.600000024,0,0,0,0.0175481047,-0.020620808,0.000364402571,0,0.0207385588,1,0x2B678E2C,0,0.600000024,0,0,0,0.0174513701,-0.0201630052,-7.71138584E-05,6.28307009,0.0201851465,1,0x2B678E2C,0,0.600000024,0,0,0,-0.01744771,-0.0200530328,-7.67861784E-05,0.000120246339,0.0200750548,1,0,0,0.0100000007,0.149660856,-0.000184117365,3.8086655E-05,-0.00252173864,2000,-0.0008310923,-2.61274963E-05,1,4845.08594,0,24.2254295,-0.00209192932,0.979415119,9.79415131,0.000362857187,-0.00189652573,-0.0008310923,-2.61274963E-05,0.000162796889,1,2000,-0.0010645669,-2.61261193E-05,1,4845.08594,0,24.2254295,-0.00210073125,0.979415119,9.79415131,0.0003644026,-0.00182336534,-0.0010645669,-2.61261193E-05,0.000208530604,1,2000,-0.00154139264,0.000377175049,1,3128.14453,-0.000344037078,15.6407223,0.000681582955,0.936205506,9.36205482,-7.71138584E-05,-0.00178281823,-0.00154139264,0.000377175049,0.00019930696,1,2000,-0.000354251475,0.000377175893,1,3128.14453,0.000344037078,15.6407223,0.000678673154,0.936205506,9.36205482,-7.67861784E-05,-0.00177309988,-0.000354251475,0.000377175893,0.000155635556,1,-3.62284445E-05,-0.00544125168,0.192336068,-3.6414709E-05,-0.00543827005,0.183334559,-6.51925757E-06,-0.00478259427,0.184878886,-1.24797216E-05,-0.00477983523,0.184559345
2026-04-28T13:46:31.1827301Z,15,-0.59999999999999998,Race,true,false,68,Garage Test Track,16,Bullet,0,0,0,-140.37915,1.32109475,190.697418,-1.19540164E-06,-0.0181896482,-0.999834776,-1.00000024,8.18410444E-06,1.0467088E-06,8.16371175E-06,0.999834538,-0.0181896482,-0.000498325913,1.02586846E-05,-0.000903929875,-0.000152827226,7.78638514E-06,-0.000381882943,0,1,0,0,0,20,0.0200000014,0.00103224185,0.00103219086,-3.14159155,-179.999924,0.0181906465,1.04224718,8.18545868E-06,0.000468992221,7.78638514E-06,-0.00909519941,4.08712276E-06,0.999958694,-5.60550745E-07,-140.37915,2.82512856,195.696045,-8.97886821E-06,-0.198783517,-0.980043471,1.74532926,1,goal_runtime,0x006742EC,0x006742EC,0x0067459C,0x07D6855C,0x00673FF8,0x2B677180,0x2B677180,0x07D68C7C,0x00673FF8,0x07D6A95C,0x00673FF8,0x2B677180,0x2B677180,3.03999758,0,5,1,0x07D6842C,0x00673FF8,0x07D6855C,0x00673FF8,0x07D686E0,0x00673FF8,0x07D687D8,0x00673FF8,0x07D688D0,0x00673FF8,,,1,0x2B678E2C,0,0.600000024,0,0,0,-0.0175315253,-0.0207902323,-6.22439547E-05,0,0.0208044313,1,0x2B678E2C,0,0.600000024,0,0,0,0.0175478589,0.000308173156,-6.07148977E-05,0,0.00188435719,1,0x2B678E2C,0,0.600000024,0,0,0,0.0174513608,0.000524575706,-0.000332786702,6.28309441,0.00342176901,1,0x2B678E2C,0,0.600000024,0,0,0,-0.0174477156,-0.00015353605,-0.000332403783,9.59377794E-05,0.00299144792,1,0,0,0.0100000007,0.00413306663,1.59684751E-05,2.37738586E-05,-0.000986591214,2000,-0.000473440799,0.000859740481,1,4845.38281,0,24.2269135,0.000358662684,0.979415119,9.79415131,-6.22439547E-05,-0.00183829712,-0.000473440799,0.000859740481,9.27390211E-05,1,2000,0.000373827963,0.000859741122,1,4845.38281,0,24.2269135,0.00185819995,0.979415119,9.79415131,-6.07148977E-05,0.000163610239,0.000373827963,0.000859741122,7.32265544E-05,1,2000,0.000373363553,-0.000602980494,1,3127.51953,0,15.6375971,0.00337983598,0.936205506,9.36205482,-0.000332786702,0.000153371147,0.000373363553,-0.000602980494,6.99090087E-05,1,2000,-0.00047303646,-0.000602981192,1,3127.51953,0,15.6375971,0.00298625324,0.936205506,9.36205482,-0.000332403783,-5.13464583E-05,-0.00047303646,-0.000602981192,8.85718764E-05,1,-1.22934571E-05,-0.0212550536,-0.0379110649,-1.22934571E-05,-0.0212558713,-0.942709982,-4.65661259E-07,-0.012783641,-0.838168859,-2.79396744E-07,-0.0127808796,-0.854180336
2026-04-28T13:46:31.2829367Z,16,-0.5,Race,true,false,68,Garage Test Track,16,Bullet,0,0,0,-140.37915,1.32109404,190.69725,-2.28717022E-06,-0.0181876458,-0.999834776,-1.00000024,9.24433698E-06,2.119388E-06,9.204261E-06,0.999834597,-0.0181876458,-0.000442539313,-1.31517027E-05,-0.00430357642,0.000399691198,0.00055947568,-0.00028575398,0,1,0,0,0,20,0.0200000014,0.00432628999,0.00432626996,-3.14159036,-179.999863,0.0181886461,1.04213262,9.24586584E-06,0.000529749086,0.00055947568,-0.00909419823,4.61234004E-06,0.999958694,-1.10168503E-06,-140.37915,2.82512712,195.695877,-8.97886821E-06,-0.198783368,-0.980043471,1.74532926,1,goal_runtime,0x006742EC,0x006742EC,0x0067459C,0x07D6855C,0x00673FF8,0x2B677180,0x2B677180,0x07D68C7C,0x00673FF8,0x07D6A95C,0x00673FF8,0x2B677180,0x2B677180,3.13999748,0,5,1,0x07D6842C,0x00673FF8,0x07D6855C,0x00673FF8,0x07D686E0,0x00673FF8,0x07D687D8,0x00673FF8,0x07D688D0,0x00673FF8,,,1,0x2B678E2C,0,0.600000024,0,0,0,-0.0175304655,-0.00143883692,-0.000183341559,0,0.00410533976,1,0x2B678E2C,0,0.600000024,0,0,0,0.0175489187,-0.00114690803,-0.000182126736,0,0.0036810746,1,0x2B678E2C,0,0.600000024,0,0,0,0.0174515881,-0.00102209917,2.06424247E-05,6.28312254,0.00340398843,1,0x2B678E2C,0,0.600000024,0,0,0,-0.0174474921,-0.00141587376,2.13149997E-05,6.85859486E-05,0.00400573201,1,0,0,0.0100000007,-0.130486146,-0.000265543553,-1.80862262E-05,-0.00169385318,2000,-0.00353024341,0.000884046254,1,4844.09277,0,24.2204628,0.0038430877,0.979415119,9.79415131,-0.000183341559,-0.000350627524,-0.00353024341,0.000884046254,0.000691514811,1,2000,-0.00298641226,0.000884048874,1,4844.09277,0,24.2204628,0.00349627226,0.979415119,9.79415131,-0.000182126736,-0.000311695301,-0.00298641226,0.000884048874,0.000584987516,1,2000,-0.00303733652,-5.44655777E-05,1,3129.94971,-3.65182059E-05,15.6497478,-0.00324539607,0.936205506,9.36205482,2.06424247E-05,-0.000300392974,-0.00303733652,-5.44655777E-05,0.000559234817,1,2000,-0.00347935548,-5.44680588E-05,1,3129.94971,3.65182023E-05,15.6497478,-0.00374537706,0.936205506,9.36205482,2.13149997E-05,-0.000353608979,-0.00347935548,-5.44680588E-05,0.000660957827,1,5.29922509E-05,-0.00605487963,-0.8349545,5.29922509E-05,-0.00607059151,0.0898358673,1.13621345E-05,0.0176714547,-0.00088902883,1.117587E-05,0.0176859386,0.0507142022
2026-04-28T13:46:31.3828089Z,17,-0.40000000000000002,Race,true,false,68,Garage Test Track,16,Bullet,0,0,0,-140.37915,1.32109439,190.696976,-6.23342089E-07,-0.0181763005,-0.999834776,-1,1.11539703E-06,6.03167905E-07,1.10424935E-06,0.999834776,-0.0181763005,0.000211225008,1.25209244E-05,-0.00377249462,0.000239285015,-4.96721696E-05,0.000120315992,0,1,0,0,0,20,0.0200000014,0.00377842411,0.00377840339,-3.14159203,-179.999954,0.0181773026,1.04148269,1.11558131E-06,6.39180944E-05,-4.96721696E-05,-0.00908852555,5.54934502E-07,0.999958694,-3.06640175E-07,-140.37915,2.82512712,195.695602,-8.97889458E-06,-0.198783889,-0.980043352,1.74532926,1,goal_runtime,0x006742EC,0x006742EC,0x0067459C,0x07D6855C,0x00673FF8,0x2B677180,0x2B677180,0x07D68C7C,0x00673FF8,0x07D6A95C,0x00673FF8,0x2B677180,0x2B677180,3.23999739,0,5,1,0x07D6842C,0x00673FF8,0x07D6855C,0x00673FF8,0x07D686E0,0x00673FF8,0x07D687D8,0x00673FF8,0x07D688D0,0x00673FF8,,,1,0x2B678E2C,0,0.600000024,0,0,0,-0.0175384767,-0.0128485039,-0.000144198217,0,0.0128812268,1,0x2B678E2C,0,0.600000024,0,0,0,0.0175407957,-0.012060605,-0.000143043857,0,0.012094168,1,0x2B678E2C,0,0.600000024,0,0,0,0.0174496621,-0.0108301202,-0.000427194551,6.28311443,0.0114740068,1,0x2B678E2C,0,0.600000024,0,0,0,-0.0174493063,-0.0129826339,-0.000426484679,7.66328521E-05,0.0135242073,1,0,0,0.0100000007,0.00599591248,-0.000157894232,-1.41119733E-06,-0.00389241287,2000,-0.00467203651,-0.000649003137,1,4843.25244,0,24.2162609,0.000831717742,0.979415119,9.79415131,-0.000144198217,-0.00113600073,-0.00467203651,-0.000649003137,0.000915172684,1,2000,-0.00438178098,-0.000649002497,1,4843.25244,0,24.2162609,0.000825086492,0.979415119,9.79415131,-0.000143043857,-0.0010663023,-0.00438178098,-0.000649002497,0.000858316547,1,2000,-0.0043819393,-0.00115114066,1,3131.06665,0,15.6553326,0.00377429649,0.936205506,9.36205482,-0.00042719458,-0.000957325334,-0.0043819393,-0.00115114066,0.000820479181,1,2000,-0.0046718996,-0.00115114136,1,3131.06665,0,15.6553326,0.00376662472,0.936205506,9.36205482,-0.000426484708,-0.00114802213,-0.0046718996,-0.00115114136,0.000874771678,1,-0.00040056181,0.00195716694,0.438794315,-0.000406149746,0.00195414387,0.420654625,-9.62987469E-05,-0.0223918464,0.403500885,-9.07108115E-05,-0.0223899819,0.475923717
2026-04-28T13:46:31.4832523Z,18,-0.29999999999999999,Race,true,false,68,Garage Test Track,16,Bullet,0,0,0,-140.37915,1.32109606,190.696716,6.99536167E-06,-0.0181752928,-0.999834776,-0.99999994,5.81038239E-06,-7.10213999E-06,5.93850564E-06,0.999834836,-0.0181752928,-0.000350237649,2.42186179E-05,-0.000954828749,-0.000238727356,4.68247781E-05,-0.000269441312,0,1,0,0,0,20,0.0200000014,0.00101732532,0.00101703708,3.14158559,179.999588,0.0181762949,1.04142487,5.81134236E-06,0.00033296537,4.68247781E-05,-0.0090880217,2.93734342E-06,0.999958694,3.52452093E-06,-140.37915,2.82512856,195.695343,-8.97889458E-06,-0.198783845,-0.980043352,1.74532926,1,goal_runtime,0x006742EC,0x006742EC,0x0067459C,0x07D6855C,0x00673FF8,0x2B677180,0x2B677180,0x07D68C7C,0x00673FF8,0x07D6A95C,0x00673FF8,0x2B677180,0x2B677180,3.33999729,0,5,1,0x07D6842C,0x00673FF8,0x07D6855C,0x00673FF8,0x07D686E0,0x00673FF8,0x07D687D8,0x00673FF8,0x07D688D0,0x00673FF8,,,1,0x2B678E2C,0,0.600000024,0,0,0,-0.0175337829,-0.0197289921,-0.000536568346,0,0.0199805684,1,0x2B678E2C,0,0.600000024,0,0,0,0.0175454896,-0.0205489565,-0.000535112806,0,0.0207904577,1,0x2B678E2C,0,0.600000024,0,0,0,0.0174507815,-0.020016266,0.00011932748,6.2830801,0.020054562,1,0x2B678E2C,0,0.600000024,0,0,0,-0.0174483061,-0.0184863489,0.000119796779,0.000110584777,0.0185259767,1,0,0,0.0100000007,0.140448093,8.75589612E-05,2.12506966E-05,-0.00376379071,2000,-0.00233394932,0.000125214036,1,4844.03418,0,24.220171,0.00309394766,0.979415119,9.79415131,-0.000536568405,-0.00174456323,-0.00233394932,0.000125214036,0.000457181101,1,2000,-0.00261728466,0.000125213322,1,4844.03418,0,24.220171,0.00308595574,0.979415119,9.79415131,-0.000535112864,-0.00181684387,-0.00261728466,0.000125213322,0.000512681669,1,2000,-0.00227206969,0.000614824006,1,3129.55908,0.000248901022,15.6477947,-0.00105432048,0.936205506,9.36205482,0.00011932748,-0.00176985608,-0.00227206969,0.000614824006,0.000490034581,1,2000,-0.0026791438,0.000614822144,1,3129.55908,-0.000248900877,15.6477947,-0.00105853553,0.936205506,9.36205482,0.000119796779,-0.00163452572,-0.0026791438,0.000614822144,0.000437036186,1,0.000234693274,-0.0196185056,0.354967058,0.000234693274,-0.0196034461,0.434814453,5.59724831E-05,0.0273260996,0.429027736,5.00120186E-05,0.0273140706,0.250088453
2026-04-28T13:46:31.5824745Z,19,-0.20000000000000001,Race,true,false,68,Garage Test Track,16,Bullet,0,0,0,-140.37915,1.32109666,190.696518,6.66445749E-06,-0.0181835387,-0.999834776,-1.00000012,6.39058771E-06,-6.7817823E-06,6.51284836E-06,0.999834657,-0.0181835387,0.000125884311,-4.48876222E-07,-0.000190029299,-0.000324388471,-0.000442116114,8.69919604E-05,0,1,0,0,0,20,0.0200000014,0.000227943412,0.000227942975,3.14158607,179.999619,0.0181845389,1.0418973,6.39164455E-06,0.000366214226,-0.000442116114,-0.00909214467,3.22599226E-06,0.999958694,3.36169887E-06,-140.37915,2.82512879,195.695145,-8.97886912E-06,-0.198783174,-0.98004353,1.74532926,1,goal_runtime,0x006742EC,0x006742EC,0x0067459C,0x07D6855C,0x00673FF8,0x2B677180,0x2B677180,0x07D68C7C,0x00673FF8,0x07D6A95C,0x00673FF8,0x2B677180,0x2B677180,3.4399972,0,5,1,0x07D6842C,0x00673FF8,0x07D6855C,0x00673FF8,0x07D686E0,0x00673FF8,0x07D687D8,0x00673FF8,0x07D688D0,0x00673FF8,,,1,0x2B678E2C,0,0.600000024,0,0,0,-0.0175332017,-0.0205688812,9.88200336E-05,0,0.0205876753,1,0x2B678E2C,0,0.600000024,0,0,0,0.017546067,-0.0204972308,0.000100253135,0,0.0205162223,1,0x2B678E2C,0,0.600000024,0,0,0,0.0174509995,-1.33777648E-05,0.000174016139,6.28307629,0.00153910927,1,0x2B678E2C,0,0.600000024,0,0,0,-0.0174480807,-0.0197876915,0.000174506131,0.000114403942,0.0198581107,1,0,0,0.0100000007,0.0823390856,-8.44750393E-05,8.27114673E-06,-0.00183681108,2000,-0.000655310578,-0.000378381897,1,4844.93311,0,24.2246647,-0.000569732394,0.979415119,9.79415131,9.88200336E-05,-0.0018187121,-0.000655310578,-0.000378381897,0.000128364234,1,2000,-0.00128485344,-0.00037838635,1,4844.93311,0,24.2246647,-0.000577973842,0.979415119,9.79415131,0.000100253135,-0.0018123826,-0.00128485344,-0.00037838635,0.000251680991,1,2000,-0.000641509134,0.000708745618,1,3128.2168,0.000463808276,15.6410837,-0.00153841253,0.936205506,9.36205482,0.000174016139,-8.69549604E-06,-0.000641509134,0.000708745618,0.000240512192,1,2000,-0.00129860872,0.000708744279,1,3128.2168,-0.000463808276,15.6410837,-0.00154242129,0.936205506,9.36205482,0.000174506131,-0.00174961169,-0.00129860872,0.000708744279,0.000122757643,1,2.90572625E-05,0.0317694172,0.0303553399,2.8870998E-05,0.0317682959,-0.0137117682,1.08964732E-05,0.0027344327,-0.925772548,1.12690022E-05,0.00273546739,0.066606693
2026-04-28T13:46:31.6826489Z,20,-0.10000000000000001,Race,true,false,68,Garage Test Track,16,Bullet,0,0,0,-140.37915,1.32109427,190.696381,1.50787957E-06,-0.0181919299,-0.999834776,-1.00000024,2.91215929E-06,-1.56111571E-06,2.94007714E-06,0.999834538,-0.0181919299,0.00045405596,-3.65398482E-05,-0.00315646734,0.000213387888,-0.000397035386,0.000321525615,0,1,0,0,0,20,0.0200000014,0.00318916724,0.00318895793,3.14159107,179.999893,0.0181929283,1.04237795,2.91264132E-06,0.000166882048,-0.000397035386,-0.00909634028,1.46311959E-06,0.999958694,7.6728054E-07,-140.37915,2.82512617,195.695007,-8.97886912E-06,-0.198783129,-0.98004353,1.74532926,1,goal_runtime,0x006742EC,0x006742EC,0x0067459C,0x07D6855C,0x00673FF8,0x2B677180,0x2B677180,0x07D68C7C,0x00673FF8,0x07D6A95C,0x00673FF8,0x2B677180,0x2B677180,3.5399971,0,5,1,0x07D6842C,0x00673FF8,0x07D6855C,0x00673FF8,0x07D686E0,0x00673FF8,0x07D687D8,0x00673FF8,0x07D688D0,0x00673FF8,,,1,0x2B678E2C,0,0.600000024,0,0,0,-0.0175367966,-3.64310581E-05,0.000400913996,0,0.00232603075,1,0x2B678E2C,0,0.600000024,0,0,0,0.0175427068,-9.90872741E-06,0.000402153033,0,0.00231346278,1,0x2B678E2C,0,0.600000024,0,0,0,0.0174501427,-1.37037068E-05,-4.11526926E-05,6.28303671,0.0004850064,1,0x2B678E2C,0,0.600000024,0,0,0,-0.0174489357,-3.84709801E-06,-4.03628983E-05,0.000154313777,0.000374713796,1,0,0,0.0100000007,-0.16361104,0.000127908104,-3.01440923E-05,0.000115753508,2000,-0.00137384422,-0.000868949457,1,4844.96973,0,24.2248478,-0.00232472667,0.979415119,9.79415131,0.000400914025,-1.56691913E-05,-0.00137384422,-0.000868949457,0.000269112759,1,2000,-0.00195802236,-0.000868950388,1,4844.96973,0,24.2248478,-0.00231247395,0.979415119,9.79415131,0.000402153062,-4.28486464E-06,-0.00195802236,-0.000868950388,0.000383543374,1,2000,-0.00192859676,0.000139272437,1,3128.6333,2.09910686E-05,15.6431665,0.000484586693,0.936205506,9.36205482,-4.11526926E-05,-2.82678629E-05,-0.00192859676,0.000139272437,0.000366561464,1,2000,-0.00140322547,0.000139267795,1,3128.6333,-2.09910686E-05,15.6431665,0.000374492112,0.936205506,9.36205482,-4.03628983E-05,-1.02722997E-05,-0.00140322547,0.000139267795,0.000257292646,1,-0.000179745242,0.015104698,-0.913082182,-0.000168010578,0.0150949946,-0.910137892,-4.28408348E-05,-0.0107584409,-0.0527051426,-4.27477025E-05,-0.0107434504,-0.974169791
2026-04-28T13:46:31.7828857Z,21,0,Race,true,false,68,Garage Test Track,16,Bullet,0,0,0,-140.379135,1.32109272,190.696075,7.86001146E-06,-0.0181812104,-0.999834776,-1.00000012,3.13611895E-06,-7.91833918E-06,3.27956536E-06,0.999834716,-0.0181812104,0.000277082261,-6.03258877E-06,-0.0044341418,0.000344034604,-0.000647946843,0.000129065331,0,1,0,0,0,20,0.0200000014,0.00444279471,0.00444279052,3.14158487,179.999542,0.0181822106,1.0417639,3.13663736E-06,0.000179716066,-0.000647946843,-0.00909098051,1.60398736E-06,0.999958694,3.94475046E-06,-140.379135,2.82512474,195.694702,-8.97886912E-06,-0.198783174,-0.98004353,1.74532926,1,goal_runtime,0x006742EC,0x006742EC,0x0067459C,0x07D6855C,0x00673FF8,0x2B677180,0x2B677180,0x07D68C7C,0x00673FF8,0x07D6A95C,0x00673FF8,0x2B677180,0x2B677180,3.63999701,0,5,1,0x07D6842C,0x00673FF8,0x07D6855C,0x00673FF8,0x07D686E0,0x00673FF8,0x07D687D8,0x00673FF8,0x07D688D0,0x00673FF8,,,1,0x2B678E2C,0,0.600000024,0,0,0,-0.0175364558,-0.00466655567,1.61412172E-05,0,0.00726850564,1,0x2B678E2C,0,0.600000024,0,0,0,0.017542813,-0.00528842863,1.73982262E-05,0,0.00773769058,1,0x2B678E2C,0,0.600000024,0,0,0,0.0174502507,-0.00496406155,-1.77376205E-06,6.28308392,0.00749635044,1,0x2B678E2C,0,0.600000024,0,0,0,-0.0174488351,-0.00414315751,-1.0770018E-06,0.00010702516,0.00684849638,1,0,0,0.0100000007,-0.0882325545,3.59733167E-05,-1.69529703E-05,-0.00266949064,2000,-0.0038060348,-0.000406932813,1,4843.75098,0,24.2187538,-0.00556867756,0.979415119,9.79415131,1.61412172E-05,-0.000642293249,-0.0038060348,-0.000406932813,0.000745537633,1,2000,-0.0042160023,-0.000406935957,1,4843.75098,0,24.2187538,-0.00564391026,0.979415119,9.79415131,1.73982262E-05,-0.00068375282,-0.0042160023,-0.000406935957,0.000825843366,1,2000,-0.00426794635,0.000300844666,1,3130.53809,-3.76320968E-05,15.6526899,0.00561295776,0.936205506,9.36205482,-1.77376205E-06,-0.000662480481,-0.00426794635,0.000300844666,0.000789366488,1,2000,-0.00375406165,0.000300844025,1,3130.53809,3.76320895E-05,15.6526899,0.00544946734,0.936205506,9.36205482,-1.0770018E-06,-0.000605227891,-0.00375406165,0.000300844025,0.000712683192,1,1.70432013E-05,-0.0192386378,0.247123733,5.30853822E-06,-0.0192377381,0.271211356,5.40167048E-06,0.00196894631,0.350567192,5.02914145E-06,0.00196429458,0.323689103
2026-04-28T13:46:31.8827512Z,22,0.10000000000000001,Race,true,false,68,Garage Test Track,16,Bullet,0,0,0,-140.379135,1.32109332,190.695831,-1.82287704E-06,-0.018178368,-0.999834776,-1,6.67861605E-06,1.7017519E-06,6.64657728E-06,0.999834776,-0.018178368,-0.000361307844,1.63723853E-05,-0.00300230505,9.74697541E-05,0.00012841601,-0.000277920772,0,0,0,0,0,20,0.0200000014,0.00302401185,0.00302396738,-3.14159083,-179.999893,0.0181793682,1.04160106,6.67971972E-06,0.000382719736,0.00012841601,-0.00908955932,3.33143589E-06,0.999958694,-8.81193614E-07,-140.379135,2.82512522,195.694458,-8.97889458E-06,-0.198783711,-0.980043352,1.74532926,1,goal_runtime,0x006742EC,0x006742EC,0x0067459C,0x07D6855C,0x00673FF8,0x2B677180,0x2B677180,0x07D68C7C,0x00673FF8,0x07D6A95C,0x00673FF8,0x2B677180,0x2B677180,3.73999691,0,5,1,0x07D6842C,0x00673FF8,0x07D6855C,0x00673FF8,0x07D686E0,0x00673FF8,0x07D687D8,0x00673FF8,0x07D688D0,0x00673FF8,,,1,0x2B678E2C,0,0.600000024,0,0,0,-0.0175329149,-0.0143462019,-6.0700695E-05,0,0.0143571896,1,0x2B678E2C,0,0.600000024,0,0,0,0.0175463576,-0.0141209196,-5.93822042E-05,0,0.0141315665,1,0x2B678E2C,0,0.600000024,0,0,0,0.0174509324,-0.0208785366,-0.0002750188,6.28300047,0.0210306365,1,0x2B678E2C,0,0.600000024,0,0,0,-0.0174480323,-0.00515151676,-0.00027423221,0.00019014295,0.00783050992,1,0,0,0.0100000007,0.0436517149,0.000622260908,4.68270355E-06,-0.0038753394,2000,-0.00402776711,0.000337117672,1,4843.65332,0,24.2182655,0.000350121874,0.979415119,9.79415131,-6.0700695E-05,-0.00126842572,-0.00402776711,0.000337117672,0.000788971258,1,2000,-0.00370207336,0.00033711773,1,4843.65332,0,24.2182655,0.000342495245,0.979415119,9.79415131,-5.93822042E-05,-0.00124849251,-0.00370207336,0.00033711773,0.000725173391,1,2000,-0.00370225194,-0.000225154567,1,3130.44482,0,15.6522236,0.00242951605,0.936205506,9.36205482,-0.0002750188,-0.0018460562,-0.00370225194,-0.000225154567,0.000693213777,1,2000,-0.00402761204,-0.000225154581,1,3130.44482,0,15.6522236,0.00589290122,0.936205506,9.36205482,-0.00027423221,-0.000658159261,-0.00402761204,-0.000225154581,0.000754134555,1,0.000177044407,-0.00384209538,0.354434162,0.000177230671,-0.00383902132,0.319693774,3.40864026E-05,-0.0136622507,0.676714242,4.01399993E-05,-0.0136577599,0.0491006747
2026-04-28T13:46:31.9829861Z,23,0.20000000000000001,Race,true,false,68,Garage Test Track,16,Bullet,0,0,0,-140.379135,1.32109404,190.695709,-6.21524441E-06,-0.0181898978,-0.999834776,-1.00000024,1.17664049E-05,6.00220801E-06,1.16552792E-05,0.999834538,-0.0181898978,-0.000252794765,-2.87789612E-06,-0.000461051881,-0.000193500367,-0.000265861396,-0.000159519201,0,0,0,0,0,20,0.0200000014,0.00052581582,0.000525807962,-3.14158654,-179.999634,0.0181908961,1.04226148,1.17683521E-05,0.000674276846,-0.000265861396,-0.0090953242,5.85566295E-06,0.999958694,-3.0544893E-06,-140.379135,2.82512617,195.694336,-8.97886912E-06,-0.198783174,-0.98004353,1.74532926,1,goal_runtime,0x006742EC,0x006742EC,0x0067459C,0x07D6855C,0x00673FF8,0x2B677180,0x2B677180,0x07D68C7C,0x00673FF8,0x07D6A95C,0x00673FF8,0x2B677180,0x2B677180,3.83999681,0,5,1,0x07D6842C,0x00673FF8,0x07D6855C,0x00673FF8,0x07D686E0,0x00673FF8,0x07D687D8,0x00673FF8,0x07D688D0,0x00673FF8,,,1,0x2B678E2C,0,0.600000024,0,0,0,-0.0175279435,-0.0103573464,0.000769158127,0,0.0112945968,1,0x2B678E2C,0,0.600000024,0,0,0,0.0175514407,-0.0297529232,0.000770440209,0,0.0301029123,1,0x2B678E2C,0,0.600000024,0,0,0,0.0174522027,-0.00867903791,-0.000355055061,6.2830925,0.0101647964,1,0x2B678E2C,0,0.600000024,0,0,0,-0.0174468756,-0.00778557966,-0.000353938376,9.82275014E-05,0.00965143647,1,0,0,0.0100000007,0.0653261989,-0.000361831131,6.87835609E-07,-0.00176757597,2000,-0.00100432604,0.000196035078,1,4844.95068,0,24.2247524,-0.0044921441,0.979415119,9.79415131,0.000769158301,-0.000917427649,-0.00100432604,0.000196035078,0.000196730427,1,2000,-0.00131324434,0.000196034569,1,4844.95068,0,24.2247524,-0.00444097631,0.979415119,9.79415131,0.000770440383,-0.00263133319,-0.00131324434,0.000196034569,0.000257242296,1,2000,-0.0019266468,0.000729918364,1,3128.45703,-0.000442582183,15.6422844,0.00528270239,0.936205506,9.36205482,-0.00035505509,-0.00085420697,-0.0019266468,0.000729918364,0.000245862029,1,2000,-0.000390904665,0.00072991912,1,3128.45703,0.000442582095,15.6422844,0.00569693279,0.936205506,9.36205482,-0.000353938405,-0.000807022094,-0.000390904665,0.00072991912,0.000188078862,1,0.000248569966,0.041492939,-0.153129637,0.000254157902,0.0414911173,0.798567235,6.35161923E-05,-0.00400181301,-0.543291986,5.78351282E-05,-0.00398530811,0.0910463184
