timestamp_utc,sample_index,race_time_seconds,game_state,is_racing,is_paused,level_id,level_name,car_id,car_name,player_steer,player_throttle,player_brake,position_x,position_y,position_z,forward_x,forward_y,forward_z,right_x,right_y,right_z,up_x,up_y,up_z,velocity_x,velocity_y,velocity_z,angular_velocity_x,angular_velocity_y,angular_velocity_z,vehicle_applied_throttle,vehicle_applied_brake,vehicle_applied_handbrake,vehicle_control_candidate_1dfc,vehicle_applied_steer,vehicle_frame_delta_ms,vehicle_frame_delta_seconds,speed_magnitude,planar_speed_magnitude,yaw_radians,yaw_degrees,pitch_radians,pitch_degrees,roll_radians,roll_degrees,yaw_rate,quat_x,quat_y,quat_z,quat_w,camera_position_x,camera_position_y,camera_position_z,camera_forward_x,camera_forward_y,camera_forward_z,camera_fov,camera_mode_index,camera_family,camera_tracker_vtable,camera_tracker_slot_a_vtable,camera_tracker_slot_b_vtable,camera_output_active_profile_ptr,camera_output_active_profile_vtable,camera_output_source_node_ptr,camera_output_target_node_ptr,camera_goal_view_active_profile_ptr,camera_goal_view_active_profile_vtable,camera_goal_view_active_clip_ptr,camera_goal_view_active_clip_vtable,camera_goal_view_source_node_ptr,camera_goal_view_target_node_ptr,camera_goal_view_runtime_seconds,camera_goal_view_dirty_flag,player_camera_list_count,player_camera_active_profile_index,player_camera_list_0_ptr,player_camera_list_0_vtable,player_camera_list_1_ptr,player_camera_list_1_vtable,player_camera_list_2_ptr,player_camera_list_2_vtable,player_camera_list_3_ptr,player_camera_list_3_vtable,player_camera_list_4_ptr,player_camera_list_4_vtable,player_camera_list_5_ptr,player_camera_list_5_vtable,wheel_0_contact_flag,wheel_0_contact_ptr,wheel_0_contact_surface_44_candidate,wheel_0_contact_surface_48_candidate,wheel_0_contact_surface_4c_candidate,wheel_0_contact_surface_50_candidate,wheel_0_contact_surface_54_candidate,wheel_0_suspension_length_candidate,wheel_0_tire_force_multiplier_candidate,wheel_0_load_or_spin_candidate,wheel_0_rotation_or_phase_candidate,wheel_0_vertical_load_candidate,wheel_1_contact_flag,wheel_1_contact_ptr,wheel_1_contact_surface_44_candidate,wheel_1_contact_surface_48_candidate,wheel_1_contact_surface_4c_candidate,wheel_1_contact_surface_50_candidate,wheel_1_contact_surface_54_candidate,wheel_1_suspension_length_candidate,wheel_1_tire_force_multiplier_candidate,wheel_1_load_or_spin_candidate,wheel_1_rotation_or_phase_candidate,wheel_1_vertical_load_candidate,wheel_2_contact_flag,wheel_2_contact_ptr,wheel_2_contact_surface_44_candidate,wheel_2_contact_surface_48_candidate,wheel_2_contact_surface_4c_candidate,wheel_2_contact_surface_50_candidate,wheel_2_contact_surface_54_candidate,wheel_2_suspension_length_candidate,wheel_2_tire_force_multiplier_candidate,wheel_2_load_or_spin_candidate,wheel_2_rotation_or_phase_candidate,wheel_2_vertical_load_candidate,wheel_3_contact_flag,wheel_3_contact_ptr,wheel_3_contact_surface_44_candidate,wheel_3_contact_surface_48_candidate,wheel_3_contact_surface_4c_candidate,wheel_3_contact_surface_50_candidate,wheel_3_contact_surface_54_candidate,wheel_3_suspension_length_candidate,wheel_3_tire_force_multiplier_candidate,wheel_3_load_or_spin_candidate,wheel_3_rotation_or_phase_candidate,wheel_3_vertical_load_candidate,vehicle_candidate_1de8,vehicle_candidate_1dec,vehicle_candidate_1df0,vehicle_candidate_1e08,vehicle_candidate_1e18,vehicle_candidate_1e1c,vehicle_candidate_1e20,vehicle_candidate_1e24,wheel_0_candidate_0320,wheel_0_candidate_0324,wheel_0_candidate_0328,wheel_0_candidate_0338,wheel_0_candidate_0344,wheel_0_candidate_036c,wheel_0_candidate_0370,wheel_0_candidate_0374,wheel_0_candidate_037c,wheel_0_candidate_0380,wheel_0_candidate_0384,wheel_0_candidate_038c,wheel_0_candidate_0390,wheel_0_candidate_0394,wheel_0_candidate_0398,wheel_0_candidate_039c,wheel_1_candidate_0320,wheel_1_candidate_0324,wheel_1_candidate_0328,wheel_1_candidate_0338,wheel_1_candidate_0344,wheel_1_candidate_036c,wheel_1_candidate_0370,wheel_1_candidate_0374,wheel_1_candidate_037c,wheel_1_candidate_0380,wheel_1_candidate_0384,wheel_1_candidate_038c,wheel_1_candidate_0390,wheel_1_candidate_0394,wheel_1_candidate_0398,wheel_1_candidate_039c,wheel_2_candidate_0320,wheel_2_candidate_0324,wheel_2_candidate_0328,wheel_2_candidate_0338,wheel_2_candidate_0344,wheel_2_candidate_036c,wheel_2_candidate_0370,wheel_2_candidate_0374,wheel_2_candidate_037c,wheel_2_candidate_0380,wheel_2_candidate_0384,wheel_2_candidate_038c,wheel_2_candidate_0390,wheel_2_candidate_0394,wheel_2_candidate_0398,wheel_2_candidate_039c,wheel_3_candidate_0320,wheel_3_candidate_0324,wheel_3_candidate_0328,wheel_3_candidate_0338,wheel_3_candidate_0344,wheel_3_candidate_036c,wheel_3_candidate_0370,wheel_3_candidate_0374,wheel_3_candidate_037c,wheel_3_candidate_0380,wheel_3_candidate_0384,wheel_3_candidate_038c,wheel_3_candidate_0390,wheel_3_candidate_0394,wheel_3_candidate_0398,wheel_3_candidate_039c,wheel_0_suspension_length_delta_per_sec,wheel_0_load_or_spin_delta_per_sec,wheel_0_vertical_load_delta_per_sec,wheel_1_suspension_length_delta_per_sec,wheel_1_load_or_spin_delta_per_sec,wheel_1_vertical_load_delta_per_sec,wheel_2_suspension_length_delta_per_sec,wheel_2_load_or_spin_delta_per_sec,wheel_2_vertical_load_delta_per_sec,wheel_3_suspension_length_delta_per_sec,wheel_3_load_or_spin_delta_per_sec,wheel_3_vertical_load_delta_per_sec
2026-04-28T17:11:52.6410868Z,1,-3,Race,true,false,68,Garage Test Track,16,Bullet,0,0,0,-140.379166,1.32057858,190.702454,4.24126301E-06,-0.0184752326,-0.999829531,-1.00000024,5.61833667E-06,-4.34580488E-06,5.69766735E-06,0.999829292,-0.0184752326,-4.63818396E-05,0.000458950177,-0.00170586957,-0.00204139622,-5.72276304E-06,-2.82596084E-05,0,1,0,0,0,20,0.0200000014,0.00176713825,0.00170649996,3.14158845,179.999756,0.0184762795,1.05861282,5.61929573E-06,0.00032196191,-5.72276304E-06,-0.00923801027,2.82912151E-06,0.999957383,2.14685838E-06,-140.379166,2.82444859,195.701126,-8.97861537E-06,-0.198742554,-0.980051756,1.74532926,1,goal_runtime,0x006742EC,0x006742EC,0x0067459C,0x07EA855C,0x00673FF8,0x2B7D2D58,0x2B7D2D58,0x07EA8C7C,0x00673FF8,0x07EAA95C,0x00673FF8,0x2B7D2D58,0x2B7D2D58,0.999999344,32,5,1,0x07EA842C,0x00673FF8,0x07EA855C,0x00673FF8,0x07EA86E0,0x00673FF8,0x07EA87D8,0x00673FF8,0x07EA88D0,0x00673FF8,,,1,0x2B7D4A04,0,0.600000024,0,0,0,-0.0175368581,-0.0209932141,-0.000218525864,0,0.0210416596,1,0x2B7D4A04,0,0.600000024,0,0,0,0.0175481811,-0.020837741,-0.000218573463,0,0.0208863914,1,0x2B7D4A04,0,0.600000024,0,0,0,0.017450612,-0.0205743928,7.11611719E-05,4.52071035E-05,0.020594921,1,0x2B7D4A04,0,0.600000024,0,0,0,-0.0174481627,-0.0194145199,7.15041824E-05,6.28314209,0.0194349028,1,0,0,0.0100000007,0.150455683,9.52375849E-05,-0.000138038318,-0.00471498352,2000,-0.00260528177,-0.000126810453,1,4877.57227,0,24.3878613,0.00124976609,0.979415119,9.79415131,-0.000218525864,-0.00185626687,-0.00260528177,-0.000126810453,0.000510330487,1,2000,-0.00278220768,-0.000126809711,1,4877.57227,0,24.3878613,0.00125008042,0.979415119,9.79415131,-0.000218573463,-0.00184248073,-0.00278220768,-0.000126809711,0.00054498727,1,2000,-0.00289614638,0.000178690825,1,3120.76758,-8.22572401E-05,15.603838,-0.000630106719,0.936205506,9.36205482,7.11611719E-05,-0.00181920407,-0.00289614638,0.000178690825,0.000520925329,1,2000,-0.00249133119,0.000178690083,1,3120.76758,8.22571092E-05,15.603838,-0.000633193762,0.936205506,9.36205482,7.15041824E-05,-0.0017166225,-0.00249133119,0.000178690083,0.000487831916,1,0,0,0,0,0,0,0,0,0,0,0,0
2026-04-28T17:11:52.7080722Z,2,-2.8999999999999999,Race,true,false,68,Garage Test Track,16,Bullet,0,0,0,-140.379166,1.32065403,190.702271,9.48958495E-06,-0.0185260531,-0.999828577,-1.00000024,4.21026198E-06,-9.56922759E-06,4.38681946E-06,0.999828398,-0.0185260531,0.000206545548,0.00174444297,-0.00406954996,-9.26299545E-05,-0.000287621689,0.000137839408,0,1,0,0,0,10,0.0100000007,0.00443249149,0.00407478819,3.1415832,179.999451,0.0185271092,1.06152511,4.21098457E-06,0.000241271628,-0.000287621689,-0.00926342327,2.14936244E-06,0.999957144,4.76490732E-06,-140.379166,2.8245697,195.700928,-8.9785708E-06,-0.198751375,-0.980049908,1.74532926,1,goal_runtime,0x006742EC,0x006742EC,0x0067459C,0x07EA855C,0x00673FF8,0x2B7D2D58,0x2B7D2D58,0x07EA8C7C,0x00673FF8,0x07EAA95C,0x00673FF8,0x2B7D2D58,0x2B7D2D58,1.05999935,32,5,1,0x07EA842C,0x00673FF8,0x07EA855C,0x00673FF8,0x07EA86E0,0x00673FF8,0x07EA87D8,0x00673FF8,0x07EA88D0,0x00673FF8,,,1,0x2B7D4A04,0,0.600000024,0,0,0,-0.0175382514,-0.0133747198,-0.000267525465,0,0.0134685272,1,0x2B7D4A04,0,0.600000024,0,0,0,0.0175466388,-0.0144181428,-0.000267539639,0,0.014506191,1,0x2B7D4A04,0,0.600000024,0,0,0,0.01745026,-0.0136448853,0.000279555155,6.50257425E-05,0.0138740763,1,0x2B7D4A04,0,0.600000024,0,0,0,-0.017448483,-0.0129576568,0.000279946777,6.28312254,0.0131988171,1,0,0,0.0100000007,0.0861175284,0.000187103171,0.00157367904,-0.00493072532,2000,-0.004386032,-0.000872140517,1,4868.7666,0,24.343832,0.0015333707,0.979415119,9.79415131,-0.000267525465,-0.00118256523,-0.004386032,-0.000872140517,0.000859149324,1,2000,-0.00534793921,-0.000872142904,1,4868.7666,0,24.343832,0.00153356045,0.979415119,9.79415131,-0.000267539639,-0.00127473671,-0.00534793921,-0.000872142904,0.00104757061,1,2000,-0.00534739904,0.000788619043,1,3119.65503,0,15.5982752,-0.00247606472,0.936205506,9.36205482,0.000279555155,-0.00120647682,-0.00534739904,0.000788619043,0.00100125291,1,2000,-0.00438649626,0.000788621488,1,3119.65503,0,15.5982752,-0.00247986126,0.936205506,9.36205482,0.000279946777,-0.00114556274,-0.00438649626,0.000788621488,0.000821332389,1,-0.000139325843,-0.00489996001,-0.757313192,-0.000154227004,-0.00489661749,-0.638019979,-3.52039897E-05,0.0208393969,-0.672084391,-3.20374929E-05,0.0208442584,-0.62360853
2026-04-28T17:11:52.8074905Z,3,-2.7999999,Race,true,false,68,Garage Test Track,16,Bullet,0,0,0,-140.379166,1.32087803,190.702042,4.76197556E-06,-0.018447848,-0.999830008,-1.00000024,3.12730003E-06,-4.8204879E-06,3.21569564E-06,0.999829829,-0.018447848,-0.000242130089,0.00240645348,-0.000587677467,0.00126210076,-0.000133471185,-0.000223834097,0,1,0,0,0,10,0.0100000007,0.00248897774,0.000635603501,3.14158797,179.999725,0.0184488911,1.05704355,3.12783231E-06,0.00017921158,-0.000133471185,-0.00922431611,1.58581634E-06,0.999957502,2.39571773E-06,-140.379166,2.82483864,195.700699,-8.97863265E-06,-0.198762447,-0.980047703,1.74532926,1,goal_runtime,0x006742EC,0x006742EC,0x0067459C,0x07EA855C,0x00673FF8,0x2B7D2D58,0x2B7D2D58,0x07EA8C7C,0x00673FF8,0x07EAA95C,0x00673FF8,0x2B7D2D58,0x2B7D2D58,1.15999925,32,5,1,0x07EA842C,0x00673FF8,0x07EA855C,0x00673FF8,0x07EA86E0,0x00673FF8,0x07EA87D8,0x00673FF8,0x07EA88D0,0x00673FF8,,,1,0x2B7D4A04,0,0.600000024,0,0,0,-0.0175381657,-0.0203960463,-0.00039664525,0,0.0205343012,1,0x2B7D4A04,0,0.600000024,0,0,0,0.017544508,-0.0210676454,-0.000396587799,0,0.021202283,1,0x2B7D4A04,0,0.600000024,0,0,0,0.0174500383,-0.0199989825,-0.000185646408,9.93673821E-05,0.02007691,1,0x2B7D4A04,0,0.600000024,0,0,0,-0.0174488761,-0.0196374934,-0.000185268116,6.28308821,0.0197161268,1,0,0,0.0100000007,0.160327509,4.43259378E-05,0.00241039321,-0.00219095265,2000,-0.00247263745,-0.000238316541,1,4852.22168,0,24.2611084,0.00228258548,0.979415119,9.79415131,-0.000396645279,-0.00180350349,-0.00247263745,-0.000238316541,0.000484347751,1,2000,-0.00276784017,-0.000238318244,1,4852.22168,0,24.2611084,0.00228241971,0.979415119,9.79415131,-0.000396587828,-0.00186276622,-0.00276784017,-0.000238318244,0.000542172929,1,2000,-0.00267694821,0.000271392637,1,3121.12256,6.54440955E-05,15.6056128,0.00164374057,0.936205506,9.36205482,-0.000185646408,-0.00176829007,-0.00267694821,0.000271392637,0.000518222689,1,2000,-0.00256350869,0.000271391618,1,3121.12256,-6.54440955E-05,15.6056128,0.00164034648,0.936205506,9.36205482,-0.000185268116,-0.001736367,-0.00256350869,0.000271391618,0.000463006232,1,8.56816678E-06,-0.0129119772,0.706577361,-0.000213086591,-0.0129048154,0.669609129,-2.21654755E-05,-0.0465201512,0.620283306,-3.9301809E-05,-0.0465214849,0.651730895
2026-04-28T17:11:52.9079484Z,4,-2.7000000000000002,Race,true,false,68,Garage Test Track,16,Bullet,0,0,0,-140.379166,1.32109225,190.701904,1.21892685E-06,-0.0182734318,-0.999833107,-1.00000012,7.34089235E-06,-1.35329606E-06,7.36439642E-06,0.999833047,-0.0182734318,-0.000184583769,0.00180408952,-0.000711731438,0.00170310179,0.0003730772,-0.000105144813,0,1,0,0,0,10,0.0100000007,0.00194817153,0.000735277368,3.14159155,179.999924,0.0182744469,1.04704857,7.34211835E-06,0.000420672382,0.0003730772,-0.00913709681,3.67647567E-06,0.999958277,6.43082558E-07,-140.379166,2.82506704,195.700546,-8.97881182E-06,-0.19876954,-0.980046272,1.74532926,1,goal_runtime,0x006742EC,0x006742EC,0x0067459C,0x07EA855C,0x00673FF8,0x2B7D2D58,0x2B7D2D58,0x07EA8C7C,0x00673FF8,0x07EAA95C,0x00673FF8,0x2B7D2D58,0x2B7D2D58,1.25999916,32,5,1,0x07EA842C,0x00673FF8,0x07EA855C,0x00673FF8,0x07EA86E0,0x00673FF8,0x07EA87D8,0x00673FF8,0x07EA88D0,0x00673FF8,,,1,0x2B7D4A04,0,0.600000024,0,0,0,-0.0175326988,0.000348271453,-0.000190588675,0,0.00214257883,1,0x2B7D4A04,0,0.600000024,0,0,0,0.0175473485,0.000360159291,-0.000190285704,0,0.00217474392,1,0x2B7D4A04,0,0.600000024,0,0,0,0.0174509697,0.00036713382,0.000180468167,0.000126443789,0.00236992771,1,0x2B7D4A04,0,0.600000024,0,0,0,-0.0174479354,0.00038235393,0.000180768038,6.2830615,0.00240820437,1,0,0,0.0100000007,-0.181566522,-0.000195563684,0.001904923,0.0011039339,2000,0.000466946716,0.000487814366,1,4839.72363,0,24.1986179,0.00211316161,0.979415119,9.79415131,-0.000190588675,0.000162616867,0.000466946716,0.000487814366,9.14669363E-05,1,2000,0.000833298138,0.000487815647,1,4839.72363,0,24.1986179,0.00214381237,0.979415119,9.79415131,-0.000190285704,0.000165677688,0.000833298138,0.000487815647,0.000163228964,1,2000,0.000903261534,-0.000144525562,1,3125.23047,5.06121214E-05,15.626152,-0.00234025856,0.936205506,9.36205482,0.000180468167,0.000154981957,0.000903261534,-0.000144525562,0.000155989808,1,2000,0.00039695602,-0.00014452677,1,3125.23047,-5.0612256E-05,15.626152,-0.00237658643,0.936205506,9.36205482,0.000180768038,0.000158841125,0.00039695602,-0.00014452677,8.74644102E-05,1,0.000546686293,0.0206056554,-1.83917212,0.000284053356,0.0206302088,-1.90275371,9.31322502E-05,0.0366114564,-1.77069819,9.40635728E-05,0.036603611,-1.73079205
2026-04-28T17:11:53.0079819Z,5,-2.5999998999999998,Race,true,false,68,Garage Test Track,16,Bullet,0,0,0,-140.379166,1.32121658,190.701706,-1.45621414E-06,-0.0181177258,-0.999835968,-1.00000012,7.00914325E-06,1.32944263E-06,6.98390659E-06,0.999835849,-0.0181177258,0.000223818497,0.00075995439,-0.00362885301,0.00140180252,0.000133517926,0.000193817701,0,1,0,0,0,10,0.0100000007,0.00371432351,0.00363574876,-3.14159131,-179.999908,0.0181187149,1.03812587,7.01029421E-06,0.000401660247,0.000133517926,-0.00905923452,3.49840593E-06,0.999958992,-6.96442726E-07,-140.379166,2.8251915,195.700348,-8.97894279E-06,-0.198772535,-0.980045617,1.74532926,1,goal_runtime,0x006742EC,0x006742EC,0x0067459C,0x07EA855C,0x00673FF8,0x2B7D2D58,0x2B7D2D58,0x07EA8C7C,0x00673FF8,0x07EAA95C,0x00673FF8,0x2B7D2D58,0x2B7D2D58,1.35999906,32,5,1,0x07EA842C,0x00673FF8,0x07EA855C,0x00673FF8,0x07EA86E0,0x00673FF8,0x07EA87D8,0x00673FF8,0x07EA88D0,0x00673FF8,,,1,0x2B7D4A04,0,0.600000024,0,0,0,-0.0175320078,-0.00102127367,0.000196431822,0,0.00349700195,1,0x2B7D4A04,0,0.600000024,0,0,0,0.0175461099,-0.000871152093,0.000196770488,0,0.00324456859,1,0x2B7D4A04,0,0.600000024,0,0,0,0.0174510423,-0.000598021434,1.01859623E-05,0.000177075126,0.0026026438,1,0x2B7D4A04,0,0.600000024,0,0,0,-0.0174479596,-0.00107846537,1.05091058E-05,6.28301144,0.00349466316,1,0,0,0.0100000007,-0.122051373,-0.000279536878,0.00086389418,-0.00240833918,2000,-0.00296500511,0.000522188377,1,4832.48047,0,24.1624012,-0.0033430052,0.979415119,9.79415131,0.000196431822,-0.000292166194,-0.00296500511,0.000522188377,0.000580794236,1,2000,-0.00269146427,0.000522187969,1,4832.48047,0,24.1624012,-0.00312396744,0.979415119,9.79415131,0.000196770488,-0.000268612261,-0.00269146427,0.000522187969,0.000527212222,1,2000,-0.00237983721,5.02216899E-05,1,3132.17358,0.000224892094,15.6608677,-0.00253191101,0.936205506,9.36205482,1.01859623E-05,-0.00022986882,-0.00237983721,5.02216899E-05,0.000503980787,1,2000,-0.00327665033,5.02222429E-05,1,3132.17358,-0.000224892108,15.6608677,-0.00332261436,0.936205506,9.36205482,1.05091058E-05,-0.000308727642,-0.00327665033,5.02222429E-05,0.000555146195,1,6.91041278E-05,0.0387020484,0.135442302,-0.000123865888,0.0387056172,0.106982462,7.26431563E-06,-0.01702822,0.0232716072,-2.42143847E-06,-0.0170258917,0.108645871
2026-04-28T17:11:53.1075409Z,6,-2.5,Race,true,false,68,Garage Test Track,16,Bullet,0,0,0,-140.379166,1.32124031,190.701447,7.04970807E-06,-0.0180520695,-0.99983716,-1.00000012,5.99630539E-06,-7.15912029E-06,6.12456506E-06,0.999837041,-0.0180520695,0.000179710041,-0.00013775668,-0.0036512122,0.000343890977,-0.000301595341,0.000129904642,0,1,0,0,0,10,0.0100000007,0.00365822669,0.00365563203,3.14158559,179.999588,0.0180530474,1.03436339,5.99728264E-06,0.000343618973,-0.000301595341,-0.00902640261,3.03034108E-06,0.99995929,3.5523517E-06,-140.379166,2.82521486,195.700089,-8.97899554E-06,-0.198773667,-0.980045438,1.74532926,1,goal_runtime,0x006742EC,0x006742EC,0x0067459C,0x07EA855C,0x00673FF8,0x2B7D2D58,0x2B7D2D58,0x07EA8C7C,0x00673FF8,0x07EAA95C,0x00673FF8,0x2B7D2D58,0x2B7D2D58,1.45999897,32,5,1,0x07EA842C,0x00673FF8,0x07EA855C,0x00673FF8,0x07EA86E0,0x00673FF8,0x07EA87D8,0x00673FF8,0x07EA88D0,0x00673FF8,,,1,0x2B7D4A04,0,0.600000024,0,0,0,-0.017532682,-0.0123166908,-8.17870023E-05,0,0.0123312538,1,0x2B7D4A04,0,0.600000024,0,0,0,0.0175447613,-0.0129205985,-8.13364604E-05,0,0.0129350396,1,0x2B7D4A04,0,0.600000024,0,0,0,0.0174508877,-0.0127542904,0.000183907221,0.000161556178,0.012863039,1,0x2B7D4A04,0,0.600000024,0,0,0,-0.0174482781,-0.0113701578,0.000184250501,6.28302765,0.0114910081,1,0,0,0.0100000007,0.0673848391,0.000121197518,-6.91914029E-05,-0.00432506064,2000,-0.00408125529,-0.000711001223,1,4833.38965,0,24.1669483,0.000472899381,0.979415119,9.79415131,-8.17870023E-05,-0.00108896359,-0.00408125529,-0.000711001223,0.000799448695,1,2000,-0.00491748238,-0.000710997614,1,4833.38965,0,24.1669483,0.000470276515,0.979415119,9.79415131,-8.13364604E-05,-0.00114235946,-0.00491748238,-0.000710997614,0.000963251339,1,2000,-0.0050276313,0.000732833694,1,3134.29736,-7.9780446E-05,15.6714869,-0.0016231481,0.936205506,9.36205482,0.000183907221,-0.00112769636,-0.0050276313,0.000732833694,0.000920669874,1,2000,-0.00397104863,0.000732837885,1,3134.29736,7.9780446E-05,15.6714869,-0.00162630528,0.936205506,9.36205482,0.000184250501,-0.00100523618,-0.00397104863,0.000732837885,0.000764252967,1,-6.74277471E-05,-0.0278218798,0.883425176,-0.000134855494,-0.0278106928,0.96904701,-1.54599529E-05,0.0173721239,1.02603948,-3.18512284E-05,0.0173741393,0.799634457
2026-04-28T17:11:53.2080582Z,7,-2.3999999999999999,Race,true,false,68,Garage Test Track,16,Bullet,0,0,0,-140.379166,1.32119513,190.701202,-1.84231976E-06,-0.018079171,-0.999836683,-1.00000012,6.03481703E-06,1.73349849E-06,6.00249086E-06,0.999836564,-0.018079171,-0.000116158932,-0.00063123455,-0.00193474966,-0.000589751347,-4.80793533E-05,-7.56509617E-05,0,1,0,0,0,10,0.0100000007,0.00203843229,0.0019382335,-3.14159083,-179.999893,0.0180801544,1.03591645,6.03580338E-06,0.000345826033,-4.80793533E-05,-0.00903995428,3.00944976E-06,0.999959171,-8.93991057E-07,-140.379166,2.82517576,195.699844,-8.97896734E-06,-0.198774323,-0.980045259,1.74532926,1,goal_runtime,0x006742EC,0x006742EC,0x0067459C,0x07EA855C,0x00673FF8,0x2B7D2D58,0x2B7D2D58,0x07EA8C7C,0x00673FF8,0x07EAA95C,0x00673FF8,0x2B7D2D58,0x2B7D2D58,1.55999887,32,5,1,0x07EA842C,0x00673FF8,0x07EA855C,0x00673FF8,0x07EA86E0,0x00673FF8,0x07EA87D8,0x00673FF8,0x07EA88D0,0x00673FF8,,,1,0x2B7D4A04,0,0.600000024,0,0,0,-0.0175328758,-0.0177629516,0.000175546593,0,0.0178006794,1,0x2B7D4A04,0,0.600000024,0,0,0,0.0175450295,-0.0169012193,0.000176059955,0,0.0169400629,1,0x2B7D4A04,0,0.600000024,0,0,0,0.0174509156,-0.0208542608,-0.000246638054,0.000162621815,0.020978909,1,0x2B7D4A04,0,0.600000024,0,0,0,-0.0174481124,-0.0131509667,-0.000246244046,6.2830267,0.013335607,1,0,0,0.0100000007,0.121694736,-6.97981668E-05,-0.00060590147,-0.00315169711,2000,-0.00306391367,0.000117815289,1,4839.56738,0,24.1978359,-0.00101346103,0.979415119,9.79415131,0.000175546593,-0.001570547,-0.00306391367,0.000117815289,0.000600168714,1,2000,-0.00300863921,0.000117814852,1,4839.56738,0,24.1978359,-0.00101640029,0.979415119,9.79415131,0.000176059955,-0.00149437576,-0.00300863921,0.000117814852,0.000589341391,1,2000,-0.000951568829,2.24555715E-05,1,3131.84814,0.00148383575,15.6592407,0.00217805523,0.936205506,9.36205482,-0.000246638054,-0.00184392103,-0.000951568829,2.24555715E-05,0.000563346723,1,2000,-0.00512098894,2.24555133E-05,1,3131.84814,-0.00148383575,15.6592407,0.00217458489,0.936205506,9.36205482,-0.000246244046,-0.00116278976,-0.00512098894,2.24555133E-05,0.000573685684,1,-1.93715077E-05,0.0257333573,0.546942532,2.68220883E-05,0.0257396419,0.400502294,2.7939675E-06,-0.0430545248,0.811586916,1.657754E-05,-0.043049451,0.18445988
2026-04-28T17:11:53.3074977Z,8,-2.2999999,Race,true,false,68,Garage Test Track,16,Bullet,0,0,0,-140.379166,1.32112455,190.701096,-5.16476075E-06,-0.0181549881,-0.999835253,-1.00000012,9.53560811E-06,4.99246516E-06,9.44339808E-06,0.999835193,-0.0181549881,-2.75088096E-05,-0.00070196524,-0.000138068674,-0.000903645181,-7.96968307E-05,2.63137827E-05,0,1,0,0,0,10,0.0100000007,0.000715943344,0.000140782431,-3.1415875,-179.999695,0.0181559846,1.04026127,9.53717972E-06,0.000546440133,-7.96968307E-05,-0.00907786749,4.74494709E-06,0.999958813,-2.53941107E-06,-140.379166,2.82511806,195.699738,-8.97888276E-06,-0.198775202,-0.98004508,1.74532926,1,goal_runtime,0x006742EC,0x006742EC,0x0067459C,0x07EA855C,0x00673FF8,0x2B7D2D58,0x2B7D2D58,0x07EA8C7C,0x00673FF8,0x07EAA95C,0x00673FF8,0x2B7D2D58,0x2B7D2D58,1.65999877,32,5,1,0x07EA842C,0x00673FF8,0x07EA855C,0x00673FF8,0x07EA86E0,0x00673FF8,0x07EA87D8,0x00673FF8,0x07EA88D0,0x00673FF8,,,1,0x2B7D4A04,0,0.600000024,0,0,0,-0.0175299458,-0.0106517961,0.000707574131,0,0.0114114285,1,0x2B7D4A04,0,0.600000024,0,0,0,0.0175489839,-0.0301684123,0.000707947067,0,0.0304637291,1,0x2B7D4A04,0,0.600000024,0,0,0,0.0174516514,-0.0104669761,-0.000115403411,0.000142205245,0.0109094176,1,0x2B7D4A04,0,0.600000024,0,0,0,-0.0174474474,8.90287265E-05,-0.00011481301,6.28304768,0.00128243945,1,0,0,0.0100000007,0.0499896556,-0.000275050232,-0.000710485212,-0.000637965277,2000,-0.000143636207,3.06130314E-05,1,4846.3291,0,24.2316456,-0.00407976471,0.979415119,9.79415131,0.000707574247,-0.000941408158,-0.000143636207,3.06130314E-05,2.81358971E-05,1,2000,-0.000592549972,3.06140391E-05,1,4846.3291,0,24.2316456,-0.00407940103,0.979415119,9.79415131,0.000707947183,-0.00266806036,-0.000592549972,3.06140391E-05,0.000116070492,1,2000,-0.00109435397,0.000806159864,1,3128.01636,-0.000362139603,15.6400814,0.00305839302,0.936205506,9.36205482,-0.000115403411,-0.000959863712,-0.00109435397,0.000806159864,0.000110903886,1,2000,0.000358200108,0.000806159049,1,3128.01636,0.000362139544,15.6400814,0.00127883744,0.936205506,9.36205482,-0.00011481301,6.94488335E-05,0.000358200108,0.000806159049,2.69343564E-05,1,0.000292994053,0.053202752,-0.638925076,0.000395439536,0.0531887077,1.35236657,7.35744761E-05,0.0131234638,-1.00694907,6.64964246E-05,0.0131431026,-1.20531666
2026-04-28T17:11:53.4079832Z,9,-2.2000000000000002,Race,true,false,68,Garage Test Track,16,Bullet,0,0,0,-140.37915,1.32106805,190.700821,1.95146939E-07,-0.0182033014,-0.999834299,-1,4.91222545E-06,-2.84612838E-07,4.91659284E-06,0.999834299,-0.0182033014,4.90684433E-05,-0.000434562186,-0.00280978135,-0.000312492775,-1.12001981E-05,2.01383027E-05,0,1,0,0,0,10,0.0100000007,0.00284361094,0.00281020976,3.1415925,179.999985,0.0182043072,1.0430299,4.91303945E-06,0.00028149641,-1.12001981E-05,-0.00910202786,2.45730644E-06,0.999958575,1.19944914E-07,-140.37915,2.8250773,195.699463,-8.97885093E-06,-0.198777854,-0.980044603,1.74532926,1,goal_runtime,0x006742EC,0x006742EC,0x0067459C,0x07EA855C,0x00673FF8,0x2B7D2D58,0x2B7D2D58,0x07EA8C7C,0x00673FF8,0x07EAA95C,0x00673FF8,0x2B7D2D58,0x2B7D2D58,1.75999868,32,5,1,0x07EA842C,0x00673FF8,0x07EA855C,0x00673FF8,0x07EA86E0,0x00673FF8,0x07EA87D8,0x00673FF8,0x07EA88D0,0x00673FF8,,,1,0x2B7D4A04,0,0.600000024,0,0,0,-0.0175349098,-2.65662243E-06,9.80731929E-05,0,0.000569277559,1,0x2B7D4A04,0,0.600000024,0,0,0,0.0175448209,-3.1721595E-06,9.83919817E-05,0,0.000568876334,1,0x2B7D4A04,0,0.600000024,0,0,0,0.0174505897,-2.38628786E-06,-6.52001399E-05,0.000184733275,0.000579646847,1,0x2B7D4A04,0,0.600000024,0,0,0,-0.0174484793,-3.36049834E-06,-6.46674889E-05,6.28300524,0.000574708101,1,0,0,0.0100000007,-0.156105965,5.60051703E-05,-0.000465828605,-0.00124872162,2000,-0.00110651681,-1.63624154E-05,1,4848.76465,0,24.2438221,-0.000569055206,0.979415119,9.79415131,9.80731929E-05,-4.66842812E-06,-0.00110651681,-1.63624154E-05,0.000216747867,1,2000,-0.00103210774,-1.63623699E-05,1,4848.76465,0,24.2438221,-0.00056857575,0.979415119,9.79415131,9.83919817E-05,-5.57904605E-06,-0.00103210774,-1.63623699E-05,0.000202172392,1,2000,-0.00106403581,-0.000144925376,1,3127.5542,-2.30007809E-05,15.6377707,0.000579308486,0.936205506,9.36205482,-6.52001399E-05,-4.11916608E-06,-0.00106403581,-0.000144925376,0.000193260712,1,2000,-0.00107459398,-0.000144925449,1,3127.5542,2.300079E-05,15.6377707,0.000574416015,0.936205506,9.36205482,-6.46674889E-05,-5.85018688E-06,-0.00107459398,-0.000144925449,0.000207178717,1,-0.000496394874,-0.0609500855,-1.08421504,-0.000416301162,-0.0609555058,-2.98948503,-0.000106170766,0.00502032693,-1.03297698,-0.000103190534,0.0050145518,-0.0707731321
2026-04-28T17:11:53.5084878Z,10,-2.0999998999999998,Race,true,false,68,Garage Test Track,16,Bullet,0,0,0,-140.37915,1.32104528,190.7005,-6.86707551E-07,-0.0182188042,-0.999834299,-1.00000024,9.00281157E-06,5.2277386E-07,8.99179213E-06,0.999834001,-0.0182188042,-0.000402825302,-7.42250559E-05,-0.00459492439,0.000205632008,0.000415520655,-0.00025786052,0,1,0,0,0,10,0.0100000007,0.00461314525,0.00461254781,-3.14159203,-179.999954,0.0182198063,1.04391789,9.00430587E-06,0.000515908701,0.000415520655,-0.00910977926,4.49883737E-06,0.999958575,-3.02382887E-07,-140.37915,2.82506895,195.699127,-8.97884456E-06,-0.19878082,-0.980043948,1.74532926,1,goal_runtime,0x006742EC,0x006742EC,0x0067459C,0x07EA855C,0x00673FF8,0x2B7D2D58,0x2B7D2D58,0x07EA8C7C,0x00673FF8,0x07EAA95C,0x00673FF8,0x2B7D2D58,0x2B7D2D58,1.85999858,32,5,1,0x07EA842C,0x00673FF8,0x07EA855C,0x00673FF8,0x07EA86E0,0x00673FF8,0x07EA87D8,0x00673FF8,0x07EA88D0,0x00673FF8,,,1,0x2B7D4A04,0,0.600000024,0,0,0,-0.0175309349,-0.00557749206,-6.05449604E-05,0,0.00794980396,1,0x2B7D4A04,0,0.600000024,0,0,0,0.0175490268,-0.00606637076,-6.02030777E-05,0,0.00829063635,1,0x2B7D4A04,0,0.600000024,0,0,0,0.0174514558,-0.00551564014,0.000151947592,0.000183367985,0.00795890484,1,0x2B7D4A04,0,0.600000024,0,0,0,-0.017447602,-0.00526946038,0.000152486929,6.28300762,0.00778272469,1,0,0,0.0100000007,-0.0363878421,-0.000317461352,-0.000111815709,-0.00423104595,2000,-0.00420146808,0.00029890443,1,4847.31689,0,24.2365837,0.00566022703,0.979415119,9.79415131,-6.05449604E-05,-0.000701881887,-0.00420146808,0.00029890443,0.000822996313,1,2000,-0.00435157446,0.000298904517,1,4847.31689,0,24.2365837,0.00564574031,0.979415119,9.79415131,-6.02030777E-05,-0.000732030021,-0.00435157446,0.000298904517,0.000852399622,1,2000,-0.00430135475,0.000558549771,1,3129.55371,3.61657221E-05,15.647768,-0.00573309464,0.936205506,9.36205482,0.000151947592,-0.00069330784,-0.00430135475,0.000558549771,0.000814778323,1,2000,-0.00425167661,0.000558549888,1,3129.55371,-3.61656967E-05,15.647768,-0.00572302705,0.936205506,9.36205482,0.000152486929,-0.000677354168,-0.00425167661,0.000558549888,0.00078670081,1,0.000397488446,-0.015861813,0.738052607,0.000420585246,-0.0158595052,0.772175908,8.66129922E-05,0.0217147712,0.737925768,8.77305793E-05,0.0217154399,0.720801592
2026-04-28T17:11:53.6079960Z,11,-2,Race,true,false,68,Garage Test Track,16,Bullet,0,0,0,-140.37915,1.32105303,190.700211,-4.35104448E-06,-0.0182141978,-0.999834299,-1.00000024,7.93487197E-06,4.20721517E-06,7.85692464E-06,0.99983412,-0.0182141978,-0.000255674153,0.00018171531,-0.0025189654,0.000108874854,7.84060467E-05,-0.000202556999,0,1,0,0,0,10,0.0100000007,0.00253842003,0.00253190752,-3.14158821,-179.999741,0.0182152018,1.04365408,7.93618801E-06,0.00045471004,7.84060467E-05,-0.0091074761,3.94811286E-06,0.999958575,-2.13965359E-06,-140.37915,2.82508612,195.698837,-8.97884183E-06,-0.198782787,-0.98004353,1.74532926,1,goal_runtime,0x006742EC,0x006742EC,0x0067459C,0x07EA855C,0x00673FF8,0x2B7D2D58,0x2B7D2D58,0x07EA8C7C,0x00673FF8,0x07EAA95C,0x00673FF8,0x2B7D2D58,0x2B7D2D58,1.95999849,32,5,1,0x07EA842C,0x00673FF8,0x07EA855C,0x00673FF8,0x07EA86E0,0x00673FF8,0x07EA87D8,0x00673FF8,0x07EA88D0,0x00673FF8,,,1,0x2B7D4A04,0,0.600000024,0,0,0,-0.0175320059,-0.0177342892,0.000232383405,0,0.017793728,1,0x2B7D4A04,0,0.600000024,0,0,0,0.0175478403,-0.016485896,0.000232857681,0,0.0165484399,1,0x2B7D4A04,0,0.600000024,0,0,0,0.017451223,-0.0162553713,-0.00031728606,0.000127361898,0.016503403,1,0x2B7D4A04,0,0.600000024,0,0,0,-0.0174477194,-0.0165103786,-0.000316693477,6.28306341,0.0167540219,1,0,0,0.0100000007,0.124033183,-0.000214054948,0.000161367221,-0.00375929731,2000,-0.00412446028,0.000641972932,1,4845.79688,0,24.2289829,-0.00133951835,0.979415119,9.79415131,0.000232383405,-0.00156800915,-0.00412446028,0.000641972932,0.000807911798,1,2000,-0.0035694337,0.000641974562,1,4845.79688,0,24.2289829,-0.00134223152,0.979415119,9.79415131,0.000232857681,-0.00145765557,-0.0035694337,0.000641974562,0.000699191529,1,2000,-0.00363760954,-0.000316137477,1,3129.58789,-4.89552367E-05,15.6479387,0.00280371169,0.936205506,9.36205482,-0.00031728606,-0.00143716997,-0.00363760954,-0.000316137477,0.000668402296,1,2000,-0.00405632332,-0.000316139078,1,3129.58789,4.89552367E-05,15.6479387,0.00279815262,0.936205506,9.36205482,-0.000316693477,-0.0014598791,-0.00405632332,-0.000316139078,0.000772218336,1,-0.000107102089,0.0292928349,0.984392345,-0.000118650489,0.0293060746,0.825780272,-2.32830625E-05,-0.0469233617,0.854449749,-1.17346635E-05,-0.0469180383,0.897129655
2026-04-28T17:11:53.7084567Z,12,-1.8999999000000001,Race,true,false,68,Garage Test Track,16,Bullet,0,0,0,-140.37915,1.32107615,190.699982,-1.00113562E-06,-0.0182029624,-0.999834299,-1,6.09141671E-06,8.90401338E-07,6.07419906E-06,0.999834299,-0.0182029624,0.000361231476,0.000251740537,0.000556228857,-0.000226424832,-2.69093507E-05,0.000266021001,0,1,0,0,0,10,0.0100000007,0.00070940255,0.000663233513,-3.14159155,-179.999924,0.0182039682,1.04301047,6.09242625E-06,0.000349070295,-2.69093507E-05,-0.00910185836,3.04152991E-06,0.999958575,-4.72903821E-07,-140.37915,2.82511353,195.698608,-8.97886639E-06,-0.198784247,-0.980043232,1.74532926,1,goal_runtime,0x006742EC,0x006742EC,0x0067459C,0x07EA855C,0x00673FF8,0x2B7D2D58,0x2B7D2D58,0x07EA8C7C,0x00673FF8,0x07EAA95C,0x00673FF8,0x2B7D2D58,0x2B7D2D58,2.05999851,32,5,1,0x07EA842C,0x00673FF8,0x07EA855C,0x00673FF8,0x07EA86E0,0x00673FF8,0x07EA87D8,0x00673FF8,0x07EA88D0,0x00673FF8,,,1,0x2B7D4A04,0,0.600000024,0,0,0,-0.0175337307,-0.0213924143,0.000290547498,0,0.0214695372,1,0x2B7D4A04,0,0.600000024,0,0,0,0.0175458807,-0.0208621807,0.000291077769,0,0.0209407918,1,0x2B7D4A04,0,0.600000024,0,0,0,0.0174509343,-0.0201648064,-2.00253853E-05,0.000108726017,0.0201761574,1,0x2B7D4A04,0,0.600000024,0,0,0,-0.0174481347,-0.0202280208,-1.94500317E-05,6.28308249,0.0202394295,1,0,0,0.0100000007,0.149270803,0.000316440535,0.000256495143,-0.00093647925,2000,-0.000978062162,-0.000326481444,1,4845.21094,0,24.2260532,-0.00167498656,0.979415119,9.79415131,0.000290547498,-0.00189152476,-0.000978062162,-0.000326481444,0.000191585787,1,2000,-0.000872136559,-0.000326480687,1,4845.21094,0,24.2260532,-0.0016779725,0.979415119,9.79415131,0.000291077769,-0.0018446974,-0.000872136559,-0.000326480687,0.000170836764,1,2000,-0.000976568554,-0.000509829959,1,3128.00635,-7.52878841E-05,15.6400318,0.00017696248,0.936205506,9.36205482,-2.00253853E-05,-0.00178297726,-0.000976568554,-0.000509829959,0.000163310557,1,2000,-0.000873637386,-0.000509831007,1,3128.00635,7.52878841E-05,15.6400318,0.00017187318,0.936205506,9.36205482,-1.94500317E-05,-0.00178857346,-0.000873637386,-0.000509831007,0.000183124052,1,-0.000172480926,0.0058164089,0.367580891,-0.000195950255,0.00582200848,0.439235151,-2.8870998E-05,0.0297260657,0.367275417,-4.15369832E-05,0.0297243427,0.348540753
2026-04-28T17:11:53.8079474Z,13,-1.7999999,Race,true,false,68,Garage Test Track,16,Bullet,0,0,0,-140.37915,1.32109809,190.699722,4.52259337E-06,-0.0181854106,-0.999834776,-1.00000012,5.14038402E-06,-4.61683703E-06,5.22349274E-06,0.999834657,-0.0181854106,0.000113362505,0.000175348207,-0.00283315172,0.00024213946,-0.000294904545,5.51055928E-05,0,1,0,0,0,10,0.0100000007,0.00284083583,0.0028354188,3.14158821,179.999741,0.0181864109,1.04200459,5.14123394E-06,0.000294570986,-0.000294904545,-0.00909308065,2.59107628E-06,0.999958694,2.28495196E-06,-140.37915,2.82513571,195.698349,-8.97886639E-06,-0.198784292,-0.980043232,1.74532926,1,goal_runtime,0x006742EC,0x006742EC,0x0067459C,0x07EA855C,0x00673FF8,0x2B7D2D58,0x2B7D2D58,0x07EA8C7C,0x00673FF8,0x07EAA95C,0x00673FF8,0x2B7D2D58,0x2B7D2D58,2.15999842,32,5,1,0x07EA842C,0x00673FF8,0x07EA855C,0x00673FF8,0x07EA86E0,0x00673FF8,0x07EA87D8,0x00673FF8,0x07EA88D0,0x00673FF8,,,1,0x2B7D4A04,0,0.600000024,0,0,0,-0.0175344516,-1.17108732E-06,-3.33108183E-05,0,0.000202508745,1,0x2B7D4A04,0,0.600000024,0,0,0,0.0175448172,-5.21702894E-08,-3.25825531E-05,0,0.000188558988,1,0x2B7D4A04,0,0.600000024,0,0,0,0.0174505841,-5.64328104E-07,-2.84926937E-05,7.51322368E-05,0.000253685139,1,0x2B7D4A04,0,0.600000024,0,0,0,-0.0174483769,-1.66606878E-06,-2.80122185E-05,6.28311634,0.000257834356,1,0,0,0.0100000007,-0.153237119,0.000173123553,0.000188691352,-0.00130078045,2000,-0.00102015445,-0.00059623149,1,4844.01514,0,24.2200756,0.000202370269,0.979415119,9.79415131,-3.33108183E-05,-5.78675781E-06,-0.00102015445,-0.00059623149,0.00019983096,1,2000,-0.00159762125,-0.000596230384,1,4844.01514,0,24.2200756,0.000188426173,0.979415119,9.79415131,-3.25825531E-05,-2.76873919E-07,-0.00159762125,-0.000596230384,0.000312946911,1,2000,-0.00177342538,0.000400694145,1,3128.4585,-0.000127041872,15.642292,0.000253513805,0.936205506,9.36205482,-2.84926937E-05,-2.22601966E-06,-0.00177342538,0.000400694145,0.000299080624,1,2000,-0.000844309398,0.00040069301,1,3128.4585,0.000127041872,15.642292,0.000257681386,0.936205506,9.36205482,-2.80122185E-05,-6.46548096E-06,-0.000844309398,0.00040069301,0.000191066953,1,-7.208436E-05,-0.0323858298,-2.12670279,-0.000106357031,-0.0323660299,-2.07522321,-3.50177252E-05,-0.000846730778,-1.9922471,-2.42143851E-05,-0.000856218627,-1.99815929
2026-04-28T17:11:53.9080356Z,14,-1.7,Race,true,false,68,Garage Test Track,16,Bullet,0,0,0,-140.37915,1.32110989,190.699417,1.57710951E-06,-0.0181698743,-0.999835253,-1.00000036,9.37723871E-06,-1.7477812E-06,9.40744849E-06,0.999834895,-0.0181698743,-0.00070936518,6.00298881E-05,-0.00447490299,0.000349511625,5.82724679E-05,-0.000549830089,0,1,0,0,0,10,0.0100000007,0.0045311763,0.00453077862,3.14159107,179.999893,0.018170869,1.04111409,9.37878758E-06,0.000537364918,5.82724679E-05,-0.00908531155,4.69636507E-06,0.999958813,8.31256898E-07,-140.37915,2.82514572,195.698044,-8.97889367E-06,-0.198784545,-0.980043232,1.74532926,1,goal_runtime,0x006742EC,0x006742EC,0x0067459C,0x07EA855C,0x00673FF8,0x2B7D2D58,0x2B7D2D58,0x07EA8C7C,0x00673FF8,0x07EAA95C,0x00673FF8,0x2B7D2D58,0x2B7D2D58,2.25999832,32,5,1,0x07EA842C,0x00673FF8,0x07EA855C,0x00673FF8,0x07EA86E0,0x00673FF8,0x07EA87D8,0x00673FF8,0x07EA88D0,0x00673FF8,,,1,0x2B7D4A04,0,0.600000024,0,0,0,-0.0175302178,-0.00542664388,-0.000209290942,0,0.00788420998,1,0x2B7D4A04,0,0.600000024,0,0,0,0.0175489392,-0.00551375514,-0.000208538579,0,0.00794670358,1,0x2B7D4A04,0,0.600000024,0,0,0,0.0174516086,-0.00510477694,-0.000125649938,4.89938757E-05,0.00764266355,1,0x2B7D4A04,0,0.600000024,0,0,0,-0.0174474809,-0.00488427794,-0.00012510753,6.28314161,0.00747693144,1,0,0,0.0100000007,-0.0428847931,0.000123556558,6.76261698E-05,-0.00404605502,2000,-0.00423876196,-2.21104183E-05,1,4842.48486,0,24.2124233,0.00571493013,0.979415119,9.79415131,-0.000209290942,-0.000688580039,-0.00423876196,-2.21104183E-05,0.000830301549,1,2000,-0.00405263761,-2.21107675E-05,1,4842.48486,0,24.2124233,0.00571802771,0.979415119,9.79415131,-0.000208538579,-0.000694131828,-0.00405263761,-2.21107675E-05,0.000793842948,1,2000,-0.00405274052,-0.000343668798,1,3130.4812,0,15.6524057,0.00568346959,0.936205506,9.36205482,-0.000125649938,-0.000668216206,-0.00405274052,-0.000343668798,0.000758839597,1,2000,-0.00423867302,-0.000343668478,1,3130.4812,0,15.6524057,0.00565687381,0.936205506,9.36205482,-0.00012510753,-0.000653527677,-0.00423867302,-0.000343668478,0.000793653831,1,0.000423379213,-0.0175980106,0.768170059,0.000412203342,-0.0175956022,0.775814414,0.000102445476,-0.00971572381,0.7388978,8.95932244E-05,-0.00970953051,0.721909642
2026-04-28T17:11:54.0075459Z,15,-1.6000000000000001,Race,true,false,68,Garage Test Track,16,Bullet,0,0,0,-140.37915,1.32111037,190.699142,-4.22476796E-06,-0.0181675106,-0.999835253,-1.00000024,9.1239599E-06,4.0596783E-06,9.04869921E-06,0.999834955,-0.0181675106,9.53352865E-05,-3.34404504E-05,-0.00253292918,-4.43992139E-05,0.000189560276,0.000122667363,0,1,0,0,0,10,0.0100000007,0.0025349434,0.00253472268,-3.14158845,-179.999756,0.0181685053,1.04097867,9.12546602E-06,0.000522850663,0.000189560276,-0.00908412971,4.54335168E-06,0.999958813,-2.07119683E-06,-140.37915,2.82514477,195.697769,-8.97889367E-06,-0.198784247,-0.980043292,1.74532926,1,goal_runtime,0x006742EC,0x006742EC,0x0067459C,0x07EA855C,0x00673FF8,0x2B7D2D58,0x2B7D2D58,0x07EA8C7C,0x00673FF8,0x07EAA95C,0x00673FF8,0x2B7D2D58,0x2B7D2D58,2.35999823,32,5,1,0x07EA842C,0x00673FF8,0x07EA855C,0x00673FF8,0x07EA86E0,0x00673FF8,0x07EA87D8,0x00673FF8,0x07EA88D0,0x00673FF8,,,1,0x2B7D4A04,0,0.600000024,0,0,0,-0.0175304729,-0.017448429,0.000447453756,0,0.0176471043,1,0x2B7D4A04,0,0.600000024,0,0,0,0.0175486878,-0.0168418381,0.000448397215,0,0.0170476623,1,0x2B7D4A04,0,0.600000024,0,0,0,0.0174514744,-0.016247917,2.46271375E-05,3.06260627E-05,0.0162572339,1,0x2B7D4A04,0,0.600000024,0,0,0,-0.0174476169,-0.0165308602,2.50298326E-05,6.28315973,0.0165403243,1,0,0,0.0100000007,0.124553047,-0.000137421011,-2.87289204E-05,-0.00377845974,2000,-0.00410512369,0.000528621546,1,4842.91748,0,24.2145863,-0.00258121709,0.979415119,9.79415131,0.000447453785,-0.00154265831,-0.00410512369,0.000528621546,0.000804124109,1,2000,-0.00354592688,0.00052862271,1,4842.91748,0,24.2145863,-0.0025863254,0.979415119,9.79415131,0.000448397244,-0.00148921262,-0.00354592688,0.00052862271,0.000694586895,1,2000,-0.00357869687,-0.000436820555,1,3130.29565,-2.34175186E-05,15.6514778,-0.000217738692,0.936205506,9.36205482,2.46271375E-05,-0.00143658731,-0.00357869687,-0.000436820555,0.000664000399,1,2000,-0.00407239143,-0.00043682172,1,3130.29565,2.34175186E-05,15.6514778,-0.000221120863,0.936205506,9.36205482,2.50298326E-05,-0.00146160217,-0.00407239143,-0.00043682172,0.000768597762,1,-2.55182367E-05,0.0656744689,0.976289392,-2.51457077E-05,0.0656935722,0.910095811,-1.34110442E-05,0.0150277065,0.861456931,-1.35973087E-05,0.0150137348,0.906339228
2026-04-28T17:11:54.1080465Z,16,-1.5,Race,true,false,68,Garage Test Track,16,Bullet,0,0,0,-140.37915,1.32110345,190.698914,-3.24703421E-07,-0.0181792639,-0.999834776,-1,8.65026414E-06,1.67475662E-07,8.64578942E-06,0.999834716,-0.0181792639,4.57885944E-05,-8.26403266E-05,0.000440214731,-0.000484374788,-0.000245506584,2.56418498E-05,0,1,0,0,0,10,0.0100000007,0.000450238847,0.000442589662,-3.14159226,-179.999969,0.0181802642,1.04165232,8.65169386E-06,0.000495705521,-0.000245506584,-0.00909000728,4.3241921E-06,0.999958694,-1.23049858E-07,-140.37915,2.8251369,195.69754,-8.97889367E-06,-0.198784038,-0.980043292,1.74532926,1,goal_runtime,0x006742EC,0x006742EC,0x0067459C,0x07EA855C,0x00673FF8,0x2B7D2D58,0x2B7D2D58,0x07EA8C7C,0x00673FF8,0x07EAA95C,0x00673FF8,0x2B7D2D58,0x2B7D2D58,2.45999813,32,5,1,0x07EA842C,0x00673FF8,0x07EA855C,0x00673FF8,0x07EA86E0,0x00673FF8,0x07EA87D8,0x00673FF8,0x07EA88D0,0x00673FF8,,,1,0x2B7D4A04,0,0.600000024,0,0,0,-0.0175309423,-0.0214303229,0.000382247468,0,0.0215550195,1,0x2B7D4A04,0,0.600000024,0,0,0,0.0175483264,-0.0205765907,0.000383256003,0,0.0207059029,1,0x2B7D4A04,0,0.600000024,0,0,0,0.0174513534,-0.0202127062,-8.51879449E-05,6.28317785,0.0202373154,1,0x2B7D4A04,0,0.600000024,0,0,0,-0.0174476113,-0.0199645385,-8.47333577E-05,1.30641083E-05,0.0199890435,1,0,0,0.0100000007,0.148032337,-0.000102072183,-7.61295159E-05,-0.00104010873,2000,-0.000822251837,-4.20800352E-05,1,4844.89941,0,24.2244968,-0.00220383215,0.979415119,9.79415131,0.000382247497,-0.00189485075,-0.000822251837,-4.20800352E-05,0.000161065196,1,2000,-0.00107374787,-4.20809265E-05,1,4844.89941,0,24.2244968,-0.00220951671,0.979415119,9.79415131,0.000383256032,-0.0018194631,-0.00107374787,-4.20809265E-05,0.000210328988,1,2000,-0.00138724665,0.000392336835,1,3128.15894,-0.000226234362,15.6407948,0.000752917258,0.936205506,9.36205482,-8.51879449E-05,-0.00178720674,-0.00138724665,0.000392336835,0.000201023722,1,2000,-0.0005087342,0.000392337824,1,3128.15894,0.000226234362,15.6407948,0.00074892526,0.936205506,9.36205482,-8.47333577E-05,-0.00176527316,-0.0005087342,0.000392337824,0.000153981848,1,-4.69386541E-05,-0.00652062846,0.390791506,-3.61353123E-05,-0.00651412085,0.365824044,-1.21071926E-05,-0.0109815076,0.398008138,5.58793488E-07,-0.0109763183,0.344871879
2026-04-28T17:11:54.2075567Z,17,-1.3999999000000001,Race,true,false,68,Garage Test Track,16,Bullet,0,0,0,-140.37915,1.32109499,190.698654,3.01656041E-06,-0.0181864202,-0.999834776,-1.00000012,3.91521371E-06,-3.08827498E-06,3.97073109E-06,0.999834597,-0.0181864202,9.62218401E-05,-8.46915937E-05,-0.00289139338,2.62435478E-05,-0.000224138319,1.78184928E-05,0,1,0,0,0,10,0.0100000007,0.00289423321,0.00289299386,3.14158964,179.999817,0.0181874204,1.0420624,3.91586127E-06,0.000224362317,-0.000224138319,-0.00909358542,1.9715676E-06,0.999958694,1.52627194E-06,-140.37915,2.82512856,195.697281,-8.97886821E-06,-0.198783472,-0.980043471,1.74532926,1,goal_runtime,0x006742EC,0x006742EC,0x0067459C,0x07EA855C,0x00673FF8,0x2B7D2D58,0x2B7D2D58,0x07EA8C7C,0x00673FF8,0x07EAA95C,0x00673FF8,0x2B7D2D58,0x2B7D2D58,2.55999804,32,5,1,0x07EA842C,0x00673FF8,0x07EA855C,0x00673FF8,0x07EA86E0,0x00673FF8,0x07EA87D8,0x00673FF8,0x07EA88D0,0x00673FF8,,,1,0x2B7D4A04,0,0.600000024,0,0,0,-0.0175357927,-2.79493702E-06,-9.88901447E-05,0,0.000571397599,1,0x2B7D4A04,0,0.600000024,0,0,0,0.0175435916,-8.26620521E-07,-9.77940799E-05,0,0.000565925729,1,0x2B7D4A04,0,0.600000024,0,0,0,0.0174504314,-2.52184327E-06,-0.000176031695,6.28316545,0.00155976042,1,0x2B7D4A04,0,0.600000024,0,0,0,-0.0174486488,-6.91296327E-06,-0.000175622525,2.52709069E-05,0.00155096711,1,0,0,0.0100000007,-0.153378144,0.00029522003,-8.37703919E-05,-0.00135761185,2000,-0.00112445711,-0.000583411194,1,4845.3374,0,24.2266865,0.000571081182,0.979415119,9.79415131,-9.88901447E-05,-4.89405693E-06,-0.00112445711,-0.000583411194,0.000220262067,1,2000,-0.00146442733,-0.000583410671,1,4845.3374,0,24.2266865,0.000565603783,0.979415119,9.79415131,-9.77940799E-05,-1.46148193E-06,-0.00146442733,-0.000583410671,0.000286856492,1,2000,-0.00145969423,3.24885491E-06,1,3128.20508,3.27866746E-06,15.6410246,0.00155909196,0.936205506,9.36205482,-0.000176031695,-1.61750575E-06,-0.00145969423,3.24885491E-06,0.000274165825,1,2000,-0.00112916704,3.24830194E-06,1,3128.20508,-3.27867497E-06,15.6410246,0.00155025709,0.936205506,9.36205482,-0.000175622525,-4.45919295E-06,-0.00112916704,3.24830194E-06,0.000210575425,1,-0.000485032768,-0.0481137559,-2.09836197,-0.000473484368,-0.0481050052,-2.01399755,-9.22009276E-05,-0.00908437464,-1.86775541,-0.000103749328,-0.00908891577,-1.84380758
2026-04-28T17:11:54.3080046Z,18,-1.2999999,Race,true,false,68,Garage Test Track,16,Bullet,0,0,0,-140.37915,1.32108951,190.698349,-7.82827328E-07,-0.0181854591,-0.999834776,-1.00000012,5.42979842E-06,6.84197062E-07,5.41645795E-06,0.999834657,-0.0181854591,-0.0001338906,-3.828638E-05,-0.00450576283,0.00026163811,0.000513019681,-8.48386189E-05,0,1,0,0,0,10,0.0100000007,0.00450791419,0.00450775167,-3.14159179,-179.999939,0.0181864593,1.04200733,5.43069655E-06,0.000311155978,0.000513019681,-0.00909310486,2.71167619E-06,0.999958694,-3.66771246E-07,-140.37915,2.82512331,195.696976,-8.97886821E-06,-0.198783532,-0.980043471,1.74532926,1,goal_runtime,0x006742EC,0x006742EC,0x0067459C,0x07EA855C,0x00673FF8,0x2B7D2D58,0x2B7D2D58,0x07EA8C7C,0x00673FF8,0x07EAA95C,0x00673FF8,0x2B7D2D58,0x2B7D2D58,2.65999794,32,5,1,0x07EA842C,0x00673FF8,0x07EA855C,0x00673FF8,0x07EA86E0,0x00673FF8,0x07EA87D8,0x00673FF8,0x07EA88D0,0x00673FF8,,,1,0x2B7D4A04,0,0.600000024,0,0,0,-0.0175342802,-0.00528308051,-0.000222533796,0,0.00778662693,1,0x2B7D4A04,0,0.600000024,0,0,0,0.017545227,-0.00578744244,-0.000221238413,0,0.00814495794,1,0x2B7D4A04,0,0.600000024,0,0,0,0.0174507555,-0.00611036457,8.85230547E-05,6.28312969,0.00833529979,1,0x2B7D4A04,0,0.600000024,0,0,0,-0.0174483247,-0.00417971797,8.88630311E-05,6.08226546E-05,0.00690116826,1,0,0,0.0100000007,-0.0414067395,2.36494452E-06,-4.79237715E-05,-0.00409169542,2000,-0.00419985922,5.31582227E-05,1,4844.28516,0,24.221426,0.00571565144,0.979415119,9.79415131,-0.000222533796,-0.000678772107,-0.00419985922,5.31582227E-05,0.000822681177,1,2000,-0.0041202195,5.31586047E-05,1,4844.28516,0,24.221426,0.00572621869,0.979415119,9.79415131,-0.000221238413,-0.00071085681,-0.0041202195,5.31586047E-05,0.000807081175,1,2000,-0.00429298775,-8.43631715E-05,1,3130.16895,-0.000124590166,15.6508446,-0.00566406129,0.936205506,9.36205482,8.85230547E-05,-0.000733382651,-0.00429298775,-8.43631715E-05,0.00077148265,1,2000,-0.00402709702,-8.43635644E-05,1,3130.16895,0.000124590122,15.6508446,-0.00548785646,0.936205506,9.36205482,8.88630311E-05,-0.000605905079,-0.00402709702,-8.43635644E-05,0.000786379271,1,0.000151246772,-0.0123643642,0.721522868,0.00016354023,-0.0123444321,0.757903159,3.2410022E-05,0.0264554732,0.677553892,3.2410022E-05,0.0264485516,0.535020113
2026-04-28T17:11:54.4080165Z,19,-1.2,Race,true,false,68,Garage Test Track,16,Bullet,0,0,0,-140.37915,1.32108831,190.698074,-3.66665518E-07,-0.0181850251,-0.999834776,-1.00000012,1.10713709E-05,1.65359722E-07,1.10665324E-05,0.999834657,-0.0181850251,3.58818434E-05,1.22234587E-05,-0.00253152498,-1.4197808E-05,0.000121481542,6.91346577E-05,0,1,0,0,0,10,0.0100000007,0.0025318088,0.00253177923,-3.14159226,-179.999969,0.0181860253,1.04198241,1.10732017E-05,0.000634447671,0.000121481542,-0.00909288786,5.53470454E-06,0.999958694,-1.3301181E-07,-140.37915,2.82512236,195.696701,-8.97886821E-06,-0.198783591,-0.980043471,1.74532926,1,goal_runtime,0x006742EC,0x006742EC,0x0067459C,0x07EA855C,0x00673FF8,0x2B7D2D58,0x2B7D2D58,0x07EA8C7C,0x00673FF8,0x07EAA95C,0x00673FF8,0x2B7D2D58,0x2B7D2D58,2.75999784,32,5,1,0x07EA842C,0x00673FF8,0x07EA855C,0x00673FF8,0x07EA86E0,0x00673FF8,0x07EA87D8,0x00673FF8,0x07EA88D0,0x00673FF8,,,1,0x2B7D4A04,0,0.600000024,0,0,0,-0.0175286401,-0.0172900837,0.000362207938,0,0.0174244419,1,0x2B7D4A04,0,0.600000024,0,0,0,0.0175507478,-0.0171221718,0.000363514613,0,0.0172584616,1,0x2B7D4A04,0,0.600000024,0,0,0,0.0174519885,-0.0161169525,0.000287252769,6.28313017,0.0163233895,1,0x2B7D4A04,0,0.600000024,0,0,0,-0.0174470954,-0.016779229,0.000287649746,6.048453E-05,0.0169788953,1,0,0,0.0100000007,0.125460133,-0.000373553339,3.85342628E-06,-0.00378612638,2000,-0.00391546218,0.000556417392,1,4844.24707,0,24.2212353,-0.00208872696,0.979415119,9.79415131,0.000362207968,-0.00152868778,-0.00391546218,0.000556417392,0.000766972662,1,2000,-0.00376463518,0.000556417857,1,4844.24707,0,24.2212353,-0.00209609186,0.979415119,9.79415131,0.000363514642,-0.00151396124,-0.00376463518,0.000556417857,0.000737428199,1,2000,-0.003764719,0.000296474376,1,3130.09766,0,15.6504879,-0.0025377688,0.936205506,9.36205482,0.000287252769,-0.00142507011,-0.003764719,0.000296474376,0.00070491014,1,2000,-0.00391538907,0.000296475599,1,3130.09766,0,15.6504879,-0.00254147034,0.936205506,9.36205482,0.000287649746,-0.00148350699,-0.00391538907,0.000296475599,0.000733121764,1,0.000564008893,0.0584741682,0.963781416,0.000552087964,0.0584752969,0.91135031,0.000123307094,0.0198729709,0.798808932,0.000122934565,0.0198786706,1.00777268
2026-04-28T17:11:54.5085271Z,20,-1.1000000000000001,Race,true,false,68,Garage Test Track,16,Bullet,0,0,0,-140.37915,1.32109034,190.697845,-2.01472221E-06,-0.0181900617,-0.999834776,-1.00000024,6.00685871E-06,1.90577248E-06,5.97119833E-06,0.999834538,-0.0181900617,0.000189364058,2.96529797E-05,0.000464672194,-0.000396130752,-0.000218973684,0.000138328134,0,1,0,0,0,10,0.0100000007,0.000502651266,0.000501775823,-3.1415906,-179.999878,0.0181910601,1.0422709,6.00785279E-06,0.000344224594,-0.000218973684,-0.00909540616,2.99463795E-06,0.999958694,-9.80164145E-07,-140.37915,2.82512474,195.696472,-8.97886821E-06,-0.198783681,-0.980043471,1.74532926,1,goal_runtime,0x006742EC,0x006742EC,0x0067459C,0x07EA855C,0x00673FF8,0x2B7D2D58,0x2B7D2D58,0x07EA8C7C,0x00673FF8,0x07EAA95C,0x00673FF8,0x2B7D2D58,0x2B7D2D58,2.85999775,32,5,1,0x07EA842C,0x00673FF8,0x07EA855C,0x00673FF8,0x07EA86E0,0x00673FF8,0x07EA87D8,0x00673FF8,0x07EA88D0,0x00673FF8,,,1,0x2B7D4A04,0,0.600000024,0,0,0,-0.0175337028,-0.0214868672,0.000385512569,0,0.0216132775,1,0x2B7D4A04,0,0.600000024,0,0,0,0.0175458007,-0.0205390025,0.000387047825,0,0.0206707884,1,0x2B7D4A04,0,0.600000024,0,0,0,0.0174508523,-0.0200106371,-0.000236548643,6.28309536,0.020130191,1,0x2B7D4A04,0,0.600000024,0,0,0,-0.0174482241,-0.0201898012,-0.000236272957,9.50485555E-05,0.0203082189,1,0,0,0.0100000007,0.148120552,0.000200864568,3.34030992E-05,-0.00101653347,2000,-0.000927888846,-0.000288202427,1,4845.21143,0,24.2260571,-0.00222247932,0.979415119,9.79415131,0.000385512598,-0.00189985579,-0.000927888846,-0.000288202427,0.000181757685,1,2000,-0.000975030765,-0.000288201845,1,4845.21143,0,24.2260571,-0.00223122281,0.979415119,9.79415131,0.000387047854,-0.0018161363,-0.000975030765,-0.000288201845,0.000190991996,1,2000,-0.000975004456,-0.000207081452,1,3128.08789,0,15.640439,0.00209088554,0.936205506,9.36205482,-0.000236548643,-0.00176931522,-0.000975004456,-0.000207081452,0.000182560922,1,2000,-0.00092791178,-0.000207082194,1,3128.08789,0,15.640439,0.00208835769,0.936205506,9.36205482,-0.000236272957,-0.00178522815,-0.00092791178,-0.000207082194,0.000173743232,1,-0.000506266893,0.00233046291,0.418883532,-0.000494718493,0.00235332106,0.341232657,-0.000113621347,-0.0523801409,0.380680114,-0.000112876289,-0.0523922704,0.332932323
2026-04-28T17:11:54.6080307Z,21,-1,Race,true,false,68,Garage Test Track,16,Bullet,0,0,0,-140.37915,1.3210932,190.697617,-1.01217972E-06,-0.0181905255,-0.999834776,-1.00000024,4.50566495E-06,9.30373233E-07,4.48799528E-06,0.999834538,-0.0181905255,0.00023396498,1.84637574E-05,-0.00173007674,-3.94782655E-05,0.000117773256,0.000171846172,0,1,0,0,0,10,0.0100000007,0.00174592272,0.00174582505,-3.14159155,-179.999924,0.0181915238,1.04229748,4.50641073E-06,0.000258198299,0.000117773256,-0.00909563806,2.24850783E-06,0.999958694,-4.8565829E-07,-140.37915,2.82512736,195.696243,-8.97886821E-06,-0.198783606,-0.980043471,1.74532926,1,goal_runtime,0x006742EC,0x006742EC,0x0067459C,0x07EA855C,0x00673FF8,0x2B7D2D58,0x2B7D2D58,0x07EA8C7C,0x00673FF8,0x07EAA95C,0x00673FF8,0x2B7D2D58,0x2B7D2D58,2.95999765,32,5,1,0x07EA842C,0x00673FF8,0x07EA855C,0x00673FF8,0x07EA86E0,0x00673FF8,0x07EA87D8,0x00673FF8,0x07EA88D0,0x00673FF8,,,1,0x2B7D4A04,0,0.600000024,0,0,0,-0.0175352022,-4.69151291E-06,8.76272097E-05,0,0.000517171924,1,0x2B7D4A04,0,0.600000024,0,0,0,0.0175443012,-4.31866829E-06,8.92135868E-05,0,0.000521555019,1,0x2B7D4A04,0,0.600000024,0,0,0,0.017450545,-0.0209308397,-5.88302064E-05,6.28315926,0.0209485292,1,0x2B7D4A04,0,0.600000024,0,0,0,-0.0174485315,-4.20495735E-06,-5.8501093E-05,3.09936004E-05,0.000524330768,1,0,0,0.0100000007,-0.0997513011,0.000292363839,2.38598041E-05,-0.000732563611,2000,-0.000642335857,-0.000399801269,1,4845.32568,0,24.2266273,-0.000516945671,0.979415119,9.79415131,8.76272097E-05,-9.07507274E-06,-0.000642335857,-0.000399801269,0.000125822698,1,2000,-0.000698868127,-0.000399800891,1,4845.32568,0,24.2266273,-0.00052124064,0.979415119,9.79415131,8.92135868E-05,-8.28508018E-06,-0.000698868127,-0.000399800891,0.000136896415,1,2000,-0.000698836579,-0.000302581961,1,3127.83276,0,15.639163,0.00052005949,0.936205506,9.36205482,-5.88302064E-05,-0.00185073039,-0.000698836579,-0.000302581961,0.000130850938,1,2000,-0.000642363506,-0.000302582514,1,3127.83276,0,15.639163,0.000524102652,0.936205506,9.36205482,-5.8501093E-05,-8.02289833E-06,-0.000642363506,-0.000302582514,0.000120276854,1,-0.00014994292,-0.0297885332,-2.10961032,-0.00014994292,-0.0297834203,-2.0149231,-3.07336413E-05,0.017771842,0.0818338171,-3.07336413E-05,0.0177771859,-1.97838867
2026-04-28T17:11:54.7070375Z,22,-0.89999989999999996,Race,true,false,68,Garage Test Track,16,Bullet,0,0,0,-140.37915,1.32109475,190.697388,8.06138814E-06,-0.0181900822,-0.999834776,-1.00000024,1.0576332E-05,-8.2551378E-06,1.07247433E-05,0.999834538,-0.0181900822,8.61889494E-05,2.42700867E-06,-0.00192114268,1.12777279E-05,-0.000535682775,5.9160815E-05,0,1,0,0,0,10,0.0100000007,0.00192307658,0.00192307506,3.14158463,179.999527,0.0181910805,1.04227209,1.05780819E-05,0.000606079411,-0.000535682775,-0.0090954164,5.32548893E-06,0.999958694,4.0793002E-06,-140.37915,2.82512808,195.696014,-8.97886821E-06,-0.198783427,-0.980043471,1.74532926,1,goal_runtime,0x006742EC,0x006742EC,0x0067459C,0x07EA855C,0x00673FF8,0x2B7D2D58,0x2B7D2D58,0x07EA8C7C,0x00673FF8,0x07EAA95C,0x00673FF8,0x2B7D2D58,0x2B7D2D58,3.05999756,32,5,1,0x07EA842C,0x00673FF8,0x07EA855C,0x00673FF8,0x07EA86E0,0x00673FF8,0x07EA87D8,0x00673FF8,0x07EA88D0,0x00673FF8,,,1,0x2B7D4A04,0,0.600000024,0,0,0,-0.0175291337,-0.0230305344,0.000198910624,0,0.0230720546,1,0x2B7D4A04,0,0.600000024,0,0,0,0.0175502505,-0.000440687174,0.000200387571,0,0.00238682562,1,0x2B7D4A04,0,0.600000024,0,0,0,0.0174518451,-0.000709221349,0.000327712682,6.28308392,0.00363811408,1,0x2B7D4A04,0,0.600000024,0,0,0,-0.0174472313,-0.000751279178,0.000328124559,0.000106833475,0.00370430201,1,0,0,0.0100000007,-0.0415774621,-0.000385004678,5.15550528E-06,-0.00150536804,2000,-0.00116432924,3.97882104E-05,1,4844.87793,0,24.22439,-0.00114679721,0.979415119,9.79415131,0.000198910624,-0.00203643041,-0.00116432924,3.97882104E-05,0.000228072342,1,2000,-0.00181205652,3.97830263E-05,1,4844.87793,0,24.22439,-0.00234475546,0.979415119,9.79415131,0.000200387571,-0.000184711869,-0.00181205652,3.97830263E-05,0.000354951131,1,2000,-0.00202931534,0.0011587902,1,3128.51025,-0.000156972266,15.6425505,-0.00356671819,0.936205506,9.36205482,0.000327712682,-0.000195026048,-0.00202931534,0.0011587902,0.000339224411,1,2000,-0.000947022229,0.0011587959,1,3128.51025,0.000156972266,15.6425505,-0.00362568931,0.936205506,9.36205482,0.000328124559,-0.000202899959,-0.000947022229,0.0011587959,0.000218068337,1,0.000606849731,0.0111283408,2.25548792,0.000594928802,0.0111173978,0.186527044,0.000130012617,0.0386542864,-1.73104131,0.000130012617,0.0386625603,0.317997098
2026-04-28T17:11:54.8075046Z,23,-0.80000000000000004,Race,true,false,68,Garage Test Track,16,Bullet,0,0,0,-140.37915,1.32109404,190.697174,-5.98918746E-07,-0.0181810204,-0.999834776,-1.00000012,1.06119387E-05,4.0605002E-07,1.06028019E-05,0.999834716,-0.0181810204,-1.99240476E-05,2.14236798E-06,-0.00365423737,0.00025844638,-0.000128325395,8.14424129E-06,0,1,0,0,0,10,0.0100000007,0.00365429232,0.00365429162,-3.14159203,-179.999954,0.0181820206,1.04175293,1.06136931E-05,0.000608119764,-0.000128325395,-0.00909088552,5.30390435E-06,0.999958694,-2.51252573E-07,-140.37915,2.82512712,195.695801,-8.97889367E-06,-0.198783949,-0.980043292,1.74532926,1,goal_runtime,0x006742EC,0x006742EC,0x0067459C,0x07EA855C,0x00673FF8,0x2B7D2D58,0x2B7D2D58,0x07EA8C7C,0x00673FF8,0x07EAA95C,0x00673FF8,0x2B7D2D58,0x2B7D2D58,3.15999746,32,5,1,0x07EA842C,0x00673FF8,0x07EA855C,0x00673FF8,0x07EA86E0,0x00673FF8,0x07EA87D8,0x00673FF8,0x07EA88D0,0x00673FF8,,,1,0x2B7D4A04,0,0.600000024,0,0,0,-0.0175291002,-0.0144719528,0.000353296724,0,0.0146216266,1,0x2B7D4A04,0,0.600000024,0,0,0,0.0175502878,-0.0130896401,0.000354509684,0,0.0132544003,1,0x2B7D4A04,0,0.600000024,0,0,0,0.0174517669,-0.013282286,-1.4899706E-05,6.28309107,0.0132889803,1,0x2B7D4A04,0,0.600000024,0,0,0,-0.0174471997,-0.0133003443,-1.42116623E-05,9.97399329E-05,0.0133070163,1,0,0,0.0100000007,0.0853748471,-0.000217956331,-5.50994264E-06,-0.0045079859,2000,-0.00459975237,0.000215664681,1,4843.29053,0,24.2164516,-0.00203789119,0.979415119,9.79415131,0.000353296753,-0.00127947424,-0.00459975237,0.000215664681,0.000901013438,1,2000,-0.00467018504,0.000215664753,1,4843.29053,0,24.2164516,-0.00204466004,0.979415119,9.79415131,0.000354509713,-0.00115738949,-0.00467018504,0.000215664753,0.000914810051,1,2000,-0.00520238327,0.000337577541,1,3130.99219,-0.000383914565,15.6549606,0.000131593231,0.936205506,9.36205482,-1.4899706E-05,-0.00117434142,-0.00520238327,0.000337577541,0.000874443504,1,2000,-0.00406754948,0.00033757824,1,3130.99219,0.000383914507,15.6549606,0.000125479768,0.936205506,9.36205482,-1.42116623E-05,-0.00117594097,-0.00406754948,0.00033757824,0.000861269014,1,3.35276104E-06,0.0154386088,-0.845042765,3.72529007E-06,0.0154122105,1.08675742,-7.82310872E-06,-0.0342612378,0.965086579,3.16649653E-06,-0.0342336185,0.960271358
