timestamp_utc,sample_index,race_time_seconds,game_state,is_racing,is_paused,level_id,level_name,car_id,car_name,player_steer,player_throttle,player_brake,position_x,position_y,position_z,forward_x,forward_y,forward_z,right_x,right_y,right_z,up_x,up_y,up_z,velocity_x,velocity_y,velocity_z,angular_velocity_x,angular_velocity_y,angular_velocity_z,vehicle_applied_throttle,vehicle_applied_brake,vehicle_applied_handbrake,vehicle_control_candidate_1dfc,vehicle_applied_steer,vehicle_frame_delta_ms,vehicle_frame_delta_seconds,speed_magnitude,planar_speed_magnitude,orig_speed_forward,orig_engine_rpm_candidate,orig_gear_candidate,orig_clutch_candidate,yaw_radians,yaw_degrees,pitch_radians,pitch_degrees,roll_radians,roll_degrees,yaw_rate,quat_x,quat_y,quat_z,quat_w,camera_position_x,camera_position_y,camera_position_z,camera_forward_x,camera_forward_y,camera_forward_z,camera_fov,camera_mode_index,camera_family,camera_tracker_vtable,camera_tracker_slot_a_vtable,camera_tracker_slot_b_vtable,camera_output_active_profile_ptr,camera_output_active_profile_vtable,camera_output_source_node_ptr,camera_output_target_node_ptr,camera_goal_view_active_profile_ptr,camera_goal_view_active_profile_vtable,camera_goal_view_active_clip_ptr,camera_goal_view_active_clip_vtable,camera_goal_view_source_node_ptr,camera_goal_view_target_node_ptr,camera_goal_view_runtime_seconds,camera_goal_view_dirty_flag,player_camera_list_count,player_camera_active_profile_index,player_camera_list_0_ptr,player_camera_list_0_vtable,player_camera_list_1_ptr,player_camera_list_1_vtable,player_camera_list_2_ptr,player_camera_list_2_vtable,player_camera_list_3_ptr,player_camera_list_3_vtable,player_camera_list_4_ptr,player_camera_list_4_vtable,player_camera_list_5_ptr,player_camera_list_5_vtable,wheel_0_contact_flag,wheel_0_contact_ptr,wheel_0_contact_surface_44_candidate,wheel_0_contact_surface_48_candidate,wheel_0_contact_surface_4c_candidate,wheel_0_contact_surface_50_candidate,wheel_0_contact_surface_54_candidate,wheel_0_suspension_length_candidate,wheel_0_tire_force_multiplier_candidate,wheel_0_load_or_spin_candidate,wheel_0_rotation_or_phase_candidate,wheel_0_vertical_load_candidate,wheel_1_contact_flag,wheel_1_contact_ptr,wheel_1_contact_surface_44_candidate,wheel_1_contact_surface_48_candidate,wheel_1_contact_surface_4c_candidate,wheel_1_contact_surface_50_candidate,wheel_1_contact_surface_54_candidate,wheel_1_suspension_length_candidate,wheel_1_tire_force_multiplier_candidate,wheel_1_load_or_spin_candidate,wheel_1_rotation_or_phase_candidate,wheel_1_vertical_load_candidate,wheel_2_contact_flag,wheel_2_contact_ptr,wheel_2_contact_surface_44_candidate,wheel_2_contact_surface_48_candidate,wheel_2_contact_surface_4c_candidate,wheel_2_contact_surface_50_candidate,wheel_2_contact_surface_54_candidate,wheel_2_suspension_length_candidate,wheel_2_tire_force_multiplier_candidate,wheel_2_load_or_spin_candidate,wheel_2_rotation_or_phase_candidate,wheel_2_vertical_load_candidate,wheel_3_contact_flag,wheel_3_contact_ptr,wheel_3_contact_surface_44_candidate,wheel_3_contact_surface_48_candidate,wheel_3_contact_surface_4c_candidate,wheel_3_contact_surface_50_candidate,wheel_3_contact_surface_54_candidate,wheel_3_suspension_length_candidate,wheel_3_tire_force_multiplier_candidate,wheel_3_load_or_spin_candidate,wheel_3_rotation_or_phase_candidate,wheel_3_vertical_load_candidate,vehicle_candidate_1de8,vehicle_candidate_1dec,vehicle_candidate_1df0,vehicle_candidate_1e08,vehicle_candidate_1e0c,vehicle_candidate_1e10,vehicle_candidate_1e14,vehicle_candidate_1e18,vehicle_candidate_1e1c,vehicle_candidate_1e20,vehicle_candidate_1e24,vehicle_candidate_1e28,wheel_0_candidate_0320,wheel_0_candidate_0324,wheel_0_candidate_0328,wheel_0_candidate_0338,wheel_0_candidate_0344,wheel_0_candidate_036c,wheel_0_candidate_0370,wheel_0_candidate_0374,wheel_0_candidate_037c,wheel_0_candidate_0380,wheel_0_candidate_0384,wheel_0_candidate_038c,wheel_0_candidate_0390,wheel_0_candidate_0394,wheel_0_candidate_0398,wheel_0_candidate_039c,wheel_1_candidate_0320,wheel_1_candidate_0324,wheel_1_candidate_0328,wheel_1_candidate_0338,wheel_1_candidate_0344,wheel_1_candidate_036c,wheel_1_candidate_0370,wheel_1_candidate_0374,wheel_1_candidate_037c,wheel_1_candidate_0380,wheel_1_candidate_0384,wheel_1_candidate_038c,wheel_1_candidate_0390,wheel_1_candidate_0394,wheel_1_candidate_0398,wheel_1_candidate_039c,wheel_2_candidate_0320,wheel_2_candidate_0324,wheel_2_candidate_0328,wheel_2_candidate_0338,wheel_2_candidate_0344,wheel_2_candidate_036c,wheel_2_candidate_0370,wheel_2_candidate_0374,wheel_2_candidate_037c,wheel_2_candidate_0380,wheel_2_candidate_0384,wheel_2_candidate_038c,wheel_2_candidate_0390,wheel_2_candidate_0394,wheel_2_candidate_0398,wheel_2_candidate_039c,wheel_3_candidate_0320,wheel_3_candidate_0324,wheel_3_candidate_0328,wheel_3_candidate_0338,wheel_3_candidate_0344,wheel_3_candidate_036c,wheel_3_candidate_0370,wheel_3_candidate_0374,wheel_3_candidate_037c,wheel_3_candidate_0380,wheel_3_candidate_0384,wheel_3_candidate_038c,wheel_3_candidate_0390,wheel_3_candidate_0394,wheel_3_candidate_0398,wheel_3_candidate_039c,wheel_0_suspension_length_delta_per_sec,wheel_0_load_or_spin_delta_per_sec,wheel_0_vertical_load_delta_per_sec,wheel_1_suspension_length_delta_per_sec,wheel_1_load_or_spin_delta_per_sec,wheel_1_vertical_load_delta_per_sec,wheel_2_suspension_length_delta_per_sec,wheel_2_load_or_spin_delta_per_sec,wheel_2_vertical_load_delta_per_sec,wheel_3_suspension_length_delta_per_sec,wheel_3_load_or_spin_delta_per_sec,wheel_3_vertical_load_delta_per_sec
2026-04-28T17:53:35.7588092Z,1,-2.1699999999999999,Race,true,false,68,Garage Test Track,16,Bullet,0,0,0,-140.379166,1.32113159,190.701096,-5.96677501E-06,-0.0181459468,-0.999835491,-1.00000012,9.79882861E-06,5.78991921E-06,9.69215216E-06,0.999835372,-0.0181459468,-0.000275050232,-0.000710485212,-0.000637965277,-0.000858133717,-0.000273093116,-0.0001902605,0,1,0,0,0,20,0.0200000014,0.000993700931,0.000694731832,0.000650754373,-0.00196590787,0.066397123,0.0100000007,-3.14158678,-179.999649,0.0181469396,1.03974295,9.80044206E-06,0.00056152395,-0.000273093116,-0.00907334685,4.87294574E-06,0.999958873,-2.93929452E-06,-140.379166,2.82512355,195.699738,-8.97891005E-06,-0.198775455,-0.980045021,1.74532926,1,goal_runtime,0x006742EC,0x006742EC,0x0067459C,0x07DD855C,0x00673FF8,0x2B6AF080,0x2B6AF080,0x07DD8C7C,0x00673FF8,0x07DDA95C,0x00673FF8,0x2B6AF080,0x2B6AF080,1.64999878,0,5,1,0x07DD842C,0x00673FF8,0x07DD855C,0x00673FF8,0x07DD86E0,0x00673FF8,0x07DD87D8,0x00673FF8,0x07DD88D0,0x00673FF8,,,1,0x2B6B0D2C,0,0.600000024,0,0,0,-0.0175295677,-0.0104174474,0.000695620431,0,0.0112384874,1,0x2B6B0D2C,0,0.600000024,0,0,0,0.0175492503,-0.0295142587,0.000696116476,0,0.0298056528,1,0x2B6B0D2C,0,0.600000024,0,0,0,0.0174516793,-0.0088993134,-0.000417355855,0.000142205245,0.0103832055,1,0x2B6B0D2C,0,0.600000024,0,0,0,-0.0174474269,-0.007908131,-0.000416719762,6.28304768,0.00982554536,1,0,0,0.0100000007,100,0.000894286437,0.000580787251,0.066397123,-0.000292935962,-0.000722100958,-0.00196590787,0.00390947983,2000,-0.000966614753,0.000166881306,1,4845.46094,0,24.2273045,-0.00420343876,0.979415119,9.79415131,0.000695620547,-0.000927353278,-0.000966614753,0.000166881306,0.000189343438,1,2000,-0.00129267038,0.000166880985,1,4845.46094,0,24.2273045,-0.00401214045,0.979415119,9.79415131,0.000696116593,-0.00261017657,-0.00129267038,0.000166880985,0.000253212202,1,2000,-0.00197403692,0.000730335247,1,3128.70093,-0.000491612824,15.6435041,0.00534042949,0.936205506,9.36205482,-0.000417355885,-0.000857457228,-0.00197403692,0.000730335247,0.000242008085,1,2000,-0.00028522755,0.000730335712,1,3128.70093,0.000491612824,15.6435041,0.00582409231,0.936205506,9.36205482,-0.000416719791,-0.000805199379,-0.00028522755,0.000730335712,0.000181019132,1,0,0,0,0,0,0,0,0,0,0,0,0
2026-04-28T17:53:35.8324030Z,2,-2.0699999,Race,true,false,68,Garage Test Track,16,Bullet,0,0,0,-140.37915,1.32109249,190.700912,6.19715502E-06,-0.018173255,-0.999834776,-0.99999994,3.04997843E-06,-6.25361554E-06,3.16312321E-06,0.999834836,-0.018173255,-0.000280729728,-0.000582148496,-0.00384528353,-0.000340954517,-7.3406125E-05,-0.000257696287,0,1,0,0,0,10,0.0100000007,0.00389921945,0.0038555176,0.00385522586,-0.004700955,0.0855671391,0.0100000007,3.14158654,179.999634,0.0181742571,1.04130816,3.05048229E-06,0.000174779751,-7.3406125E-05,-0.00908700284,1.55333953E-06,0.999958694,3.1128211E-06,-140.37915,2.82509375,195.699554,-8.97888094E-06,-0.198776811,-0.980044782,1.74532926,1,goal_runtime,0x006742EC,0x006742EC,0x0067459C,0x07DD855C,0x00673FF8,0x2B6AF080,0x2B6AF080,0x07DD8C7C,0x00673FF8,0x07DDA95C,0x00673FF8,0x2B6AF080,0x2B6AF080,1.70999873,0,5,1,0x07DD842C,0x00673FF8,0x07DD855C,0x00673FF8,0x07DD86E0,0x00673FF8,0x07DD87D8,0x00673FF8,0x07DD88D0,0x00673FF8,,,1,0x2B6B0D2C,0,0.600000024,0,0,0,-0.0175365433,-0.013159181,-0.000410521694,0,0.0133763226,1,0x2B6B0D2C,0,0.600000024,0,0,0,0.0175427292,-0.014409394,-0.000410189095,0,0.0146089531,1,0x2B6B0D2C,0,0.600000024,0,0,0,0.0174501669,-0.0134209786,1.80222705E-05,0.000172420012,0.0134280436,1,0x2B6B0D2C,0,0.600000024,0,0,0,-0.0174489226,-0.0131735625,1.85822282E-05,6.28301764,0.0131805995,1,0,0,0.0100000007,100,-0.0110980449,0.00344681297,0.0855671391,-0.00016974927,-0.000616616628,-0.004700955,-0.0110980459,2000,-0.00445118779,-1.50833803E-05,1,4846.12695,0,24.2306347,0.00236599823,0.979415119,9.79415131,-0.000410521723,-0.00116356765,-0.00445118779,-1.50833803E-05,0.000871912227,1,2000,-0.00481364317,-1.50847727E-05,1,4846.12695,0,24.2306347,0.00236445386,0.979415119,9.79415131,-0.000410189125,-0.00127391552,-0.00481364317,-1.50847727E-05,0.00094291108,1,2000,-0.00446540536,0.000611054071,1,3130.4624,0.000251048827,15.6523113,-0.000159215066,0.936205506,9.36205482,1.80222705E-05,-0.00118660554,-0.00446540536,0.000611054071,0.000901274674,1,2000,-0.00479939813,0.000611052092,1,3130.4624,-0.000251048827,15.6523113,-0.000164209312,0.936205506,9.36205482,1.85822282E-05,-0.00116473041,-0.00479939813,0.000611052092,0.000833477417,1,-0.00069756055,-0.110614195,0.213783503,-0.000652112009,-0.110630542,-1.51966989,-0.000151246772,0.0435378067,0.304483801,-0.000149570391,0.043530196,0.335505396
2026-04-28T17:53:35.9323591Z,3,-1.97,Race,true,false,68,Garage Test Track,16,Bullet,0,0,0,-140.37915,1.32105231,190.700638,-9.71575446E-07,-0.0182128567,-0.999834299,-1.00000012,7.02692023E-06,8.43735108E-07,7.01038744E-06,0.99983412,-0.0182128567,-5.54943726E-05,-0.000237478322,-0.00121648086,-0.000441309792,-8.74482939E-05,-5.2933854E-05,0,1,0,0,0,10,0.0100000007,0.00124068581,0.00121774594,0.00122060452,-0.00270320638,0.148672536,0.0100000007,-3.14159179,-179.999939,0.0182138607,1.04357731,7.0280862E-06,0.000402679667,-8.74482939E-05,-0.00910680555,3.50947221E-06,0.999958575,-4.53846411E-07,-140.37915,2.82506919,195.69928,-8.97882182E-06,-0.198778838,-0.980044365,1.74532926,1,goal_runtime,0x006742EC,0x006742EC,0x0067459C,0x07DD855C,0x00673FF8,0x2B6AF080,0x2B6AF080,0x07DD8C7C,0x00673FF8,0x07DDA95C,0x00673FF8,0x2B6AF080,0x2B6AF080,1.80999863,0,5,1,0x07DD842C,0x00673FF8,0x07DD855C,0x00673FF8,0x07DD86E0,0x00673FF8,0x07DD87D8,0x00673FF8,0x07DD88D0,0x00673FF8,,,1,0x2B6B0D2C,0,0.600000024,0,0,0,-0.017532913,-0.0199320614,0.000232862323,0,0.0199875738,1,0x2B6B0D2C,0,0.600000024,0,0,0,0.0175469331,-0.0195978023,0.000233191211,0,0.0196540374,1,0x2B6B0D2C,0,0.600000024,0,0,0,0.0174511503,-0.0189062003,-0.000136473711,0.000178579139,0.0189542826,1,0x2B6B0D2C,0,0.600000024,0,0,0,-0.0174479112,-0.0188833382,-0.000135927025,6.28301191,0.0189311244,1,0,0,0.0100000007,100,0.00472277915,0.00368472212,0.148672536,-0.000102722166,-0.000274325546,-0.00270320638,0.00472277915,2000,-0.00264012325,0.000156302776,1,4848.23047,0,24.2411518,-0.00134143978,0.979415119,9.79415131,0.000232862323,-0.00176237035,-0.00264012325,0.000156302776,0.000517155393,1,2000,-0.00260078907,0.000156302674,1,4848.23047,0,24.2411518,-0.00134332606,0.979415119,9.79415131,0.000233191211,-0.00173286197,-0.00260078907,0.000156302674,0.000509450445,1,2000,-0.00267399615,8.8523564E-05,1,3128.57275,-5.27903467E-05,15.6428633,0.00120616844,0.936205506,9.36205482,-0.000136473711,-0.00167165301,-0.00267399615,8.8523564E-05,0.000486978708,1,2000,-0.00256691873,8.8523695E-05,1,3128.57275,5.27902121E-05,15.6428633,0.0012013329,0.936205506,9.36205482,-0.000135927025,-0.00166965509,-0.00256691873,8.8523695E-05,0.000494336011,1,0.00036302951,0.0643383935,0.661125064,0.000420398981,0.0643380284,0.504508376,9.83476566E-05,-0.0154495975,0.552623868,0.000101141624,-0.0154509246,0.57505244
2026-04-28T17:53:36.0323683Z,4,-1.8700000000000001,Race,true,false,68,Garage Test Track,16,Bullet,0,0,0,-140.37915,1.32104635,190.700394,2.99697763E-06,-0.0182263702,-0.999834299,-1.00000036,4.55939198E-06,-3.08059066E-06,4.61478294E-06,0.999833882,-0.0182263702,0.000224233139,6.60881997E-05,-0.00127046939,-0.000118024713,-0.00037548691,0.000131842666,0,1,0,0,0,10,0.0100000007,0.0012917975,0.00129010587,0.00126905506,0.000538311375,-0.180878058,0.0100000007,3.14158964,179.999817,0.0182273723,1.04435146,4.56014959E-06,0.00026127731,-0.00037548691,-0.00911356229,2.29363877E-06,0.999958575,1.51945505E-06,-140.37915,2.82507539,195.69902,-8.97884365E-06,-0.198781937,-0.980043769,1.74532926,1,goal_runtime,0x006742EC,0x006742EC,0x0067459C,0x07DD855C,0x00673FF8,0x2B6AF080,0x2B6AF080,0x07DD8C7C,0x00673FF8,0x07DDA95C,0x00673FF8,0x2B6AF080,0x2B6AF080,1.90999854,0,5,1,0x07DD842C,0x00673FF8,0x07DD855C,0x00673FF8,0x07DD86E0,0x00673FF8,0x07DD87D8,0x00673FF8,0x07DD88D0,0x00673FF8,,,1,0x2B6B0D2C,0,0.600000024,0,0,0,-0.0175353754,0.000343996362,0.00015898241,0,0.00208304543,1,0x2B6B0D2C,0,0.600000024,0,0,0,0.0175445788,0.000330741314,0.000159473522,0,0.00204630219,1,0x2B6B0D2C,0,0.600000024,0,0,0,0.017450586,0.000324494846,-9.48527522E-05,0.000145152488,0.00201093685,1,0x2B6B0D2C,0,0.600000024,0,0,0,-0.0174484681,0.000287106814,-9.43299674E-05,6.28304577,0.00190148328,1,0,0,0.0100000007,100,0.00130571274,0.00168475474,-0.180878058,0.000211176011,4.92406507E-05,0.000538311375,0.00130571285,2000,0.000881733722,-0.000541458547,1,4848.76758,0,24.2438374,-0.00205357117,0.979415119,9.79415131,0.00015898241,0.000165209451,0.000881733722,-0.000541458547,0.000172716696,1,2000,0.000461091753,-0.000541458605,1,4848.76758,0,24.2438374,-0.00201855041,0.979415119,9.79415131,0.000159473522,0.00016169477,0.000461091753,-0.000541458605,9.03200489E-05,1,2000,0.000107371132,0.000184611068,1,3126.31543,-0.000255313818,15.6315765,0.00198369659,0.936205506,9.36205482,-9.48527522E-05,0.000161435251,0.000107371132,0.000184611068,8.63786263E-05,1,2000,0.00123548484,0.000184611068,1,3126.31543,0.000255313964,15.6315765,0.00187881803,0.936205506,9.36205482,-9.43299674E-05,0.000151058921,0.00123548484,0.000184611068,0.000165059188,1,-0.00024624166,-0.00738799106,-1.7904526,-0.000235438332,-0.00737176836,-1.76077342,-5.64381444E-05,0.00416209549,-1.69433451,-5.56930863E-05,0.00415970525,-1.70296395
2026-04-28T17:53:36.1333288Z,5,-1.7699999,Race,true,false,68,Garage Test Track,16,Bullet,0,0,0,-140.37915,1.32106364,190.700104,1.90407354E-06,-0.0182104688,-0.999834299,-1.00000012,4.02574278E-06,-1.97771215E-06,4.06109029E-06,0.99983418,-0.0182104688,0.000148918029,0.000225994634,-0.00407156767,0.000433711626,0.000119589822,9.07466892E-05,0,1,0,0,0,10,0.0100000007,0.00408055307,0.00407429039,0.00406677788,-0.00286199362,-0.120957397,0.0100000007,3.14159083,179.999893,0.0182114728,1.04344046,4.02641035E-06,0.000230696314,0.000119589822,-0.00910561159,2.02179194E-06,0.999958575,9.70486667E-07,-140.37915,2.82509947,195.69873,-8.97886639E-06,-0.198783934,-0.980043292,1.74532926,1,goal_runtime,0x006742EC,0x006742EC,0x0067459C,0x07DD855C,0x00673FF8,0x2B6AF080,0x2B6AF080,0x07DD8C7C,0x00673FF8,0x07DDA95C,0x00673FF8,0x2B6AF080,0x2B6AF080,2.00999856,0,5,1,0x07DD842C,0x00673FF8,0x07DD855C,0x00673FF8,0x07DD86E0,0x00673FF8,0x07DD87D8,0x00673FF8,0x07DD88D0,0x00673FF8,,,1,0x2B6B0D2C,0,0.600000024,0,0,0,-0.0175357945,-0.000921734492,-0.000160030977,0,0.00329644373,1,0x2B6B0D2C,0,0.600000024,0,0,0,0.0175439324,-0.00107300235,-0.000159542105,0,0.00354682025,1,0x2B6B0D2C,0,0.600000024,0,0,0,0.0174505357,-0.000950827089,9.6738986E-06,0.000118376593,0.00328134163,1,0x2B6B0D2C,0,0.600000024,0,0,0,-0.0174485315,-0.000805775519,1.02756676E-05,6.28307247,0.00302086794,1,0,0,0.0100000007,100,-0.0170834064,0.00100705214,-0.120957397,0.000319752115,0.000215924112,-0.00286199362,-0.0170834083,2000,-0.0028096966,-0.000567635929,1,4845.38281,0,24.2269135,0.00316346716,0.979415119,9.79415131,-0.000160030977,-0.000279736123,-0.0028096966,-0.000567635929,0.000550371886,1,2000,-0.00307904719,-0.000567634881,1,4845.38281,0,24.2269135,0.00337908091,0.979415119,9.79415131,-0.000159542105,-0.000302650442,-0.00307904719,-0.000567634881,0.000603133114,1,2000,-0.003081562,-0.00010294692,1,3129.11523,-1.92042717E-06,15.6455755,-0.00313915405,0.936205506,9.36205482,9.6738986E-06,-0.000289886841,-0.003081562,-0.00010294692,0.00057649659,1,2000,-0.00280716387,-0.000102948143,1,3129.11523,1.92043626E-06,15.6455755,-0.00291014859,0.936205506,9.36205482,1.02756676E-05,-0.000266844698,-0.00280716387,-0.000102948143,0.000526115007,1,-4.19095122E-05,-0.0319013335,0.12133982,-6.46337794E-05,-0.0319015607,0.150051802,-5.02914145E-06,0.0104526645,0.127040476,-6.33299305E-06,0.010460563,0.111938454
2026-04-28T17:53:36.2328389Z,6,-1.6699999000000001,Race,true,false,68,Garage Test Track,16,Bullet,0,0,0,-140.37915,1.32108784,190.699814,-2.24063933E-06,-0.0181867983,-0.999834776,-1.00000012,1.07575215E-05,2.04533262E-06,1.07185442E-05,0.999834597,-0.0181867983,-0.000140861142,0.000232078644,-0.00372033007,0.000357586978,0.000343551481,-4.60475276E-05,0,1,0,0,0,10,0.0100000007,0.00373022235,0.00372299575,0.00371549488,-0.00442895293,0.0708622783,0.0100000007,-3.14159036,-179.999863,0.0181877986,1.0420841,1.07593014E-05,0.000616462552,0.000343551481,-0.00909377448,5.36923835E-06,0.999958694,-1.07153721E-06,-140.37915,2.82512569,195.698441,-8.97886639E-06,-0.198784351,-0.980043232,1.74532926,1,goal_runtime,0x006742EC,0x006742EC,0x0067459C,0x07DD855C,0x00673FF8,0x2B6AF080,0x2B6AF080,0x07DD8C7C,0x00673FF8,0x07DDA95C,0x00673FF8,0x2B6AF080,0x2B6AF080,2.10999846,0,5,1,0x07DD842C,0x00673FF8,0x07DD855C,0x00673FF8,0x07DD86E0,0x00673FF8,0x07DD87D8,0x00673FF8,0x07DD88D0,0x00673FF8,,,1,0x2B6B0D2C,0,0.600000024,0,0,0,-0.0175289512,-0.0128758363,0.000225387019,0,0.0129471608,1,0x2B6B0D2C,0,0.600000024,0,0,0,0.0175505523,-0.0128772967,0.000225976168,0,0.0129489256,1,0x2B6B0D2C,0,0.600000024,0,0,0,0.0174519122,-0.0123985773,0.000188326681,0.000101211241,0.0125152823,1,0x2B6B0D2C,0,0.600000024,0,0,0,-0.017447168,-0.0122188572,0.000188826234,6.28309011,0.0123377768,1,0,0,0.0100000007,100,0.0297394916,3.82628023E-05,0.0708622783,-0.000438256073,0.000231696016,-0.00442895293,0.0297394935,2000,-0.00488270493,0.000938079727,1,4842.97754,0,24.2148876,-0.00130016275,0.979415119,9.79415131,0.000225387019,-0.00113836885,-0.00488270493,0.000938079727,0.000956439064,1,2000,-0.00427822769,0.000938078098,1,4842.97754,0,24.2148876,-0.00130349386,0.979415119,9.79415131,0.000225976168,-0.0011385628,-0.00427822769,0.000938078098,0.000838032283,1,2000,-0.0042785625,-0.00010512842,1,3130.68042,0,15.6534014,-0.00166363234,0.936205506,9.36205482,0.000188326681,-0.00109623722,-0.0042785625,-0.00010512842,0.000801122747,1,2000,-0.00488241343,-0.000105126586,1,3130.68042,0,15.6534014,-0.00166815275,0.936205506,9.36205482,0.000188826234,-0.00108027901,-0.00488241343,-0.000105126586,0.000914188568,1,0.00068433577,0.0385417975,0.965071559,0.000661984028,0.038551826,0.940210521,0.000137649462,0.0178652778,0.923393965,0.00013634561,0.0178550556,0.931690872
2026-04-28T17:53:36.3333150Z,7,-1.5700000000000001,Race,true,false,68,Garage Test Track,16,Bullet,0,0,0,-140.37915,1.3211056,190.699554,-2.93192466E-06,-0.0181744155,-0.999834776,-0.99999994,9.28730151E-06,2.76358992E-06,9.23554035E-06,0.999834836,-0.0181744155,-0.000103496845,0.000133141861,-0.000974887691,-0.000121485427,-0.000150867432,-8.01342612E-05,0,1,0,0,0,20,0.0200000014,0.000989365624,0.000980366021,0.000972307171,-0.00373435928,0.137973562,0.0100000007,-3.14158964,-179.999817,0.0181754176,1.04137468,9.28883583E-06,0.000532211037,-0.000150867432,-0.00908758305,4.63090191E-06,0.999958694,-1.42393742E-06,-140.37915,2.82514238,195.698181,-8.97889367E-06,-0.198784754,-0.980043232,1.74532926,1,goal_runtime,0x006742EC,0x006742EC,0x0067459C,0x07DD855C,0x00673FF8,0x2B6AF080,0x2B6AF080,0x07DD8C7C,0x00673FF8,0x07DDA95C,0x00673FF8,0x2B6AF080,0x2B6AF080,2.20999837,0,5,1,0x07DD842C,0x00673FF8,0x07DD855C,0x00673FF8,0x07DD86E0,0x00673FF8,0x07DD87D8,0x00673FF8,0x07DD88D0,0x00673FF8,,,1,0x2B6B0D2C,0,0.600000024,0,0,0,-0.0175303072,-0.020538982,0.000406266568,0,0.020683188,1,0x2B6B0D2C,0,0.600000024,0,0,0,0.0175489653,-0.0193950702,0.000407033629,0,0.0195467751,1,0x2B6B0D2C,0,0.600000024,0,0,0,0.0174516346,-0.0190742649,-0.000239181303,5.64882757E-05,0.0192008875,1,0x2B6B0D2C,0,0.600000024,0,0,0,-0.017447453,-0.0191323664,-0.000238635097,6.28313446,0.0192581024,1,0,0,0.0100000007,100,0.00376578141,-0.00102617918,0.137973562,-0.000178812479,0.000153665445,-0.00373435928,0.00814118236,2000,-0.00255878712,0.000289493473,1,4843.08008,0,24.2154007,-0.00234340434,0.979415119,9.79415131,0.000406266598,-0.00181600451,-0.00255878712,0.000289493473,0.000501222967,1,2000,-0.00246759458,0.000289492687,1,4843.08008,0,24.2154007,-0.0023476542,0.979415119,9.79415131,0.000407033658,-0.00171498,-0.00246759458,0.000289492687,0.000483359909,1,2000,-0.00271394011,0.000132273883,1,3129.4668,-0.000177658323,15.6473341,0.00211347314,0.936205506,9.36205482,-0.000239181303,-0.00168649771,-0.00271394011,0.000132273883,0.000462044613,1,2000,-0.00231244904,0.000132273912,1,3129.4668,0.000177658323,15.6473341,0.00210855808,0.936205506,9.36205482,-0.000238635097,-0.00169171009,-0.00231244904,0.000132273912,0.000479102047,1,-6.78002762E-05,0.00904397666,0.386801332,-7.93486761E-05,0.00905287266,0.329892457,-1.38767055E-05,-0.0213753972,0.334280252,-1.42492345E-05,-0.0213730652,0.346016258
2026-04-28T17:53:36.4328840Z,8,-1.47,Race,true,false,68,Garage Test Track,16,Bullet,0,0,0,-140.37915,1.32111156,190.699326,8.7753989E-07,-0.0181746799,-0.999834776,-0.99999994,3.98139446E-06,-9.50057427E-07,3.99800365E-06,0.999834836,-0.0181746799,0.000295555074,-7.09196684E-07,-0.00133355171,-0.000126781873,-0.00020102704,0.000188291786,0,1,0,0,0,20,0.0200000014,0.00136591122,0.0013659111,0.00133334449,-0.00101552764,-0.0159012023,0.0100000007,3.14159179,179.999939,0.0181756821,1.04138982,3.98205202E-06,0.000228154764,-0.00020102704,-0.0090877153,1.99493184E-06,0.999958694,4.56918201E-07,-140.37915,2.82514668,195.697952,-8.97889367E-06,-0.198784396,-0.980043292,1.74532926,1,goal_runtime,0x006742EC,0x006742EC,0x0067459C,0x07DD855C,0x00673FF8,0x2B6AF080,0x2B6AF080,0x07DD8C7C,0x00673FF8,0x07DDA95C,0x00673FF8,0x2B6AF080,0x2B6AF080,2.30999827,0,5,1,0x07DD842C,0x00673FF8,0x07DD855C,0x00673FF8,0x07DD86E0,0x00673FF8,0x07DD87D8,0x00673FF8,0x07DD88D0,0x00673FF8,,,1,0x2B6B0D2C,0,0.600000024,0,0,0,-0.017535612,0.000323205575,0.000115489704,0,0.00197198661,1,0x2B6B0D2C,0,0.600000024,0,0,0,0.0175436605,0.000307076814,0.000116306532,0,0.00192540314,1,0x2B6B0D2C,0,0.600000024,0,0,0,0.0174503829,0.000361548853,-0.000175382098,3.90166388E-05,0.00233990047,1,0x2B6B0D2C,0,0.600000024,0,0,0,-0.0174487047,0.000360874314,-0.000174875546,6.28315163,0.00233393651,1,0,0,0.0100000007,100,-0.000698768359,-0.00177002535,-0.0159012023,0.000309530442,3.46913148E-05,-0.00101552764,-0.00608276483,2000,0.000601939159,-0.000462997559,1,4844.63525,0,24.223175,-0.00194452226,0.979415119,9.79415131,0.000115489704,0.000163963894,0.000601939159,-0.000462997559,0.000117909673,1,2000,0.000570186647,-0.000462997123,1,4844.63525,0,24.223175,-0.00189993333,0.979415119,9.79415131,0.000116306532,0.000159554489,0.000570186647,-0.000462997123,0.000111689893,1,2000,0.000432590605,-0.000408655003,1,3127.2666,-9.92641872E-05,15.6363325,0.00231084717,0.936205506,9.36205482,-0.000175382098,0.000154576788,0.000432590605,-0.000408655003,0.000106765736,1,2000,0.000739537762,-0.000408655556,1,3127.2666,9.92643108E-05,15.6363325,0.00230491976,0.936205506,9.36205482,-0.000174875546,0.000154682581,0.000739537762,-0.000408655556,0.000112704845,1,-0.00026524064,-0.0145388423,-0.935560048,-0.00026524064,-0.0145363538,-0.881068528,-6.25848697E-05,0.00318996003,-0.843049347,-6.25848697E-05,0.00318797724,-0.846208215
2026-04-28T17:53:36.5323513Z,9,-1.3700000000000001,Race,true,false,68,Garage Test Track,16,Bullet,0,0,0,-140.37915,1.32110727,190.699036,4.3066143E-06,-0.0181741454,-0.999835253,-1.00000036,4.60092633E-06,-4.3909572E-06,4.6799687E-06,0.999834836,-0.0181741454,4.08317192E-06,-7.90962076E-05,-0.00409412617,0.000197161746,2.92810637E-05,-3.25577753E-06,0,1,0,0,0,20,0.0200000014,0.00409489218,0.00409412803,0.00409488939,-0.00135264872,-0.13707386,0.0100000007,3.14158845,179.999756,0.0181751382,1.04135871,4.60168621E-06,0.000263657188,2.92810637E-05,-0.00908744708,2.32031925E-06,0.999958813,2.17448246E-06,-140.37915,2.82514095,195.697662,-8.97889367E-06,-0.198784083,-0.980043292,1.74532926,1,goal_runtime,0x006742EC,0x006742EC,0x0067459C,0x07DD855C,0x00673FF8,0x2B6AF080,0x2B6AF080,0x07DD8C7C,0x00673FF8,0x07DDA95C,0x00673FF8,0x2B6AF080,0x2B6AF080,2.40999818,0,5,1,0x07DD842C,0x00673FF8,0x07DD855C,0x00673FF8,0x07DD86E0,0x00673FF8,0x07DD87D8,0x00673FF8,0x07DD88D0,0x00673FF8,,,1,0x2B6B0D2C,0,0.600000024,0,0,0,-0.0175349917,-0.000867506664,-0.000220691261,0,0.00326485885,1,0x2B6B0D2C,0,0.600000024,0,0,0,0.0175442807,-0.00114234095,-0.000219657028,0,0.00371004967,1,0x2B6B0D2C,0,0.600000024,0,0,0,0.0174505264,-0.00109095871,0.000114517519,1.13470378E-05,0.00358762662,1,0x2B6B0D2C,0,0.600000024,0,0,0,-0.0174485613,-0.000730063475,0.000114931187,6.28317928,0.00296630058,1,0,0,0.0100000007,100,-0.00859439,-0.000600469473,-0.13707386,0.000175970985,-6.70868176E-05,-0.00135264872,-0.0108253565,2000,-0.00265381578,-0.000459107658,1,4843.81641,0,24.2190819,0.00314613199,0.979415119,9.79415131,-0.000220691261,-0.000265817449,-0.00265381578,-0.000459107658,0.000519837486,1,2000,-0.00314123323,-0.000459109899,1,4843.81641,0,24.2190819,0.0035282278,0.979415119,9.79415131,-0.000219657028,-0.000308029092,-0.00314123323,-0.000459109899,0.000615314348,1,2000,-0.00323375477,0.000382416882,1,3129.50146,-6.69307774E-05,15.6475067,-0.00341614941,0.936205506,9.36205482,0.000114517519,-0.000304216868,-0.00323375477,0.000382416882,0.000588117982,1,2000,-0.00256125908,0.000382414524,1,3129.50146,6.69307774E-05,15.6475067,-0.00287376018,0.936205506,9.36205482,0.000114931187,-0.000246223441,-0.00256125908,0.000382414524,0.000496946857,1,3.10130381E-05,-0.0168090463,0.0646436065,3.10130381E-05,-0.0167981759,0.0892323181,7.17118337E-06,0.0144949798,0.0623863041,7.17118337E-06,0.0144903362,0.0316182002
2026-04-28T17:53:36.6328473Z,10,-1.2699999,Race,true,false,68,Garage Test Track,16,Bullet,0,0,0,-140.37915,1.3210988,190.698746,3.86717716E-07,-0.0181760602,-0.999834776,-1,1.18010094E-05,-6.01312877E-07,1.18099897E-05,0.999834776,-0.0181760602,-0.000385479099,-8.18544504E-05,-0.00380369439,0.000102551974,0.000105917497,-0.000265346549,0,1,0,0,0,20,0.0200000014,0.00382405357,0.00382317742,0.00380455353,-0.00410424173,0.0150273656,0.0100000007,3.14159226,179.999969,0.0181770623,1.04146886,1.18029593E-05,0.000676259689,0.000105917497,-0.00908840541,5.90299351E-06,0.999958694,2.47017852E-07,-140.37915,2.82513237,195.697372,-8.97889367E-06,-0.198784068,-0.980043292,1.74532926,1,goal_runtime,0x006742EC,0x006742EC,0x0067459C,0x07DD855C,0x00673FF8,0x2B6AF080,0x2B6AF080,0x07DD8C7C,0x00673FF8,0x07DDA95C,0x00673FF8,0x2B6AF080,0x2B6AF080,2.50999808,0,5,1,0x07DD842C,0x00673FF8,0x07DD855C,0x00673FF8,0x07DD86E0,0x00673FF8,0x07DD87D8,0x00673FF8,0x07DD88D0,0x00673FF8,,,1,0x2B6B0D2C,0,0.600000024,0,0,0,-0.0175277926,-0.012982226,0.000161152915,0,0.0130213844,1,0x2B6B0D2C,0,0.600000024,0,0,0,0.0175514799,-0.012897308,0.000162180528,0,0.0129370764,1,0x2B6B0D2C,0,0.600000024,0,0,0,0.0174521245,-0.0126070641,0.000158599461,6.28316355,0.0126904491,1,0x2B6B0D2C,0,0.600000024,0,0,0,-0.0174469631,-0.0121314079,0.000159065705,2.73705082E-05,0.0122180423,1,0,0,0.0100000007,100,-0.0255285278,0.000668972614,0.0150273656,0.000125091465,-9.52339033E-05,-0.00410424173,0.0322563909,2000,-0.00465149479,0.000958689605,1,4843.67432,0,24.2183704,-0.000929448463,0.979415119,9.79415131,0.000161152915,-0.00114779593,-0.00465149479,0.000958689605,0.000911148905,1,2000,-0.00453784131,0.000958688091,1,4843.67432,0,24.2183704,-0.000935355667,0.979415119,9.79415131,0.000162180528,-0.00114032277,-0.00453784131,0.000958688091,0.000888886163,1,2000,-0.00454389583,0.000763405289,1,3130.61499,-4.32128672E-06,15.6530743,-0.00140105374,0.936205506,9.36205482,0.000158599461,-0.00111466844,-0.00454389583,0.000763405289,0.000849682372,1,2000,-0.00464544911,0.000763407268,1,3130.61499,4.32127263E-06,15.6530743,-0.00140524353,0.936205506,9.36205482,0.000159065705,-0.00107255741,-0.00464544911,0.000763407268,0.000870940741,1,0.000359956146,0.0190922078,0.487826258,0.000359956146,0.0190918762,0.461351275,7.99074696E-05,0.00220409688,0.455141068,7.99074696E-05,0.00220672577,0.462587059
2026-04-28T17:53:36.7323291Z,11,-1.1699999000000001,Race,true,false,68,Garage Test Track,16,Bullet,0,0,0,-140.37915,1.32109189,190.698486,-3.55880343E-06,-0.018184362,-0.999834776,-1.00000012,7.4059667E-06,3.42469707E-06,7.34246578E-06,0.999834657,-0.018184362,0.000198323294,-4.94752749E-05,-0.00103795936,-0.000273933663,-3.02924691E-05,0.000168832659,0,1,0,0,0,10,0.0100000007,0.00105789397,0.00105673645,0.00103868684,-0.00254652603,0.150856659,0.0100000007,-3.14158916,-179.999786,0.0181853622,1.0419445,7.40719133E-06,0.000424400787,-3.02924691E-05,-0.00909255631,3.68726046E-06,0.999958694,-1.7459472E-06,-140.37915,2.82512546,195.697113,-8.97886821E-06,-0.198783472,-0.980043471,1.74532926,1,goal_runtime,0x006742EC,0x006742EC,0x0067459C,0x07DD855C,0x00673FF8,0x2B6AF080,0x2B6AF080,0x07DD8C7C,0x00673FF8,0x07DDA95C,0x00673FF8,0x2B6AF080,0x2B6AF080,2.60999799,0,5,1,0x07DD842C,0x00673FF8,0x07DD855C,0x00673FF8,0x07DD86E0,0x00673FF8,0x07DD87D8,0x00673FF8,0x07DD88D0,0x00673FF8,,,1,0x2B6B0D2C,0,0.600000024,0,0,0,-0.0175323058,-0.0204128791,0.000455235509,0,0.020591829,1,0x2B6B0D2C,0,0.600000024,0,0,0,0.0175470822,-0.019540051,0.000456500013,0,0.0197267625,1,0x2B6B0D2C,0,0.600000024,0,0,0,0.0174511801,-0.0182666034,-0.000132332934,6.28316784,0.0183131658,1,0x2B6B0D2C,0,0.600000024,0,0,0,-0.0174479,-0.019925518,-0.000132000496,2.29479083E-05,0.019970011,1,0,0,0.0100000007,100,0.00958830398,0.000380851969,0.150856659,0.000102440245,-5.32837948E-05,-0.00254652603,0.00958830491,2000,-0.00267260848,5.74663427E-05,1,4844.80713,0,24.2240353,-0.00262477784,0.979415119,9.79415131,0.000455235539,-0.00180483586,-0.00267260848,5.74663427E-05,0.000523518655,1,2000,-0.00237830169,5.74650439E-05,1,4844.80713,0,24.2240353,-0.00263182051,0.979415119,9.79415131,0.000456500042,-0.00172782049,-0.00237830169,5.74650439E-05,0.000465868972,1,2000,-0.00237846421,-0.000450890686,1,3129.14307,0,15.6457148,0.00116941473,0.936205506,9.36205482,-0.000132332934,-0.0016150875,-0.00237846421,-0.000450890686,0.000445346261,1,2000,-0.00267246692,-0.000450892287,1,3129.14307,0,15.6457148,0.00116643682,0.936205506,9.36205482,-0.000132000496,-0.00176182319,-0.00267246692,-0.000450892287,0.000500395661,1,-0.000451318891,0.0294082575,0.757044435,-0.000439770491,0.0294319447,0.678968549,-9.44361018E-05,-0.0290932376,0.562271595,-9.36910437E-05,-0.029106617,0.775196791
2026-04-28T17:53:36.8329226Z,12,-1.0700000000000001,Race,true,false,68,Garage Test Track,16,Bullet,0,0,0,-140.37915,1.32108855,190.698257,1.61799312E-06,-0.0181927457,-0.999834776,-1.00000024,6.57442934E-06,-1.73788771E-06,6.60495834E-06,0.999834478,-0.0181927457,0.000344458269,-2.05592296E-05,-0.00134168507,-0.00015024624,-0.000222981471,0.000244271185,0,1,0,0,0,10,0.0100000007,0.00138534943,0.00138519681,0.00134183804,0.000459011149,-0.18006961,0.0100000007,3.14159107,179.999893,0.0181937441,1.04242468,6.57551755E-06,0.000376749376,-0.000222981471,-0.0090967482,3.29498312E-06,0.999958694,8.39004883E-07,-140.37915,2.82512283,195.696884,-8.97886821E-06,-0.198783636,-0.980043471,1.74532926,1,goal_runtime,0x006742EC,0x006742EC,0x0067459C,0x07DD855C,0x00673FF8,0x2B6AF080,0x2B6AF080,0x07DD8C7C,0x00673FF8,0x07DDA95C,0x00673FF8,0x2B6AF080,0x2B6AF080,2.70999789,0,5,1,0x07DD842C,0x00673FF8,0x07DD855C,0x00673FF8,0x07DD86E0,0x00673FF8,0x07DD87D8,0x00673FF8,0x07DD88D0,0x00673FF8,,,1,0x2B6B0D2C,0,0.600000024,0,0,0,-0.0175331328,0.00040689006,0.000284987618,0,0.00248200796,1,0x2B6B0D2C,0,0.600000024,0,0,0,0.0175463669,0.000390404748,0.000286316179,0,0.002444905,1,0x2B6B0D2C,0,0.600000024,0,0,0,0.0174509436,0.00029415093,4.98107984E-05,6.28312635,0.00185151026,1,0x2B6B0D2C,0,0.600000024,0,0,0,-0.0174480136,0.000268308475,5.02100447E-05,6.44114771E-05,0.00177142513,1,0,0,0.0100000007,100,0.0302542765,-0.000502709881,-0.18006961,4.19154821E-05,-1.55321304E-05,0.000459011149,0.0302542783,2000,0.000808194454,-0.000337859645,1,4846.26562,0,24.2313271,-0.00244734366,0.979415119,9.79415131,0.000284987618,0.000164006589,0.000808194454,-0.000337859645,0.000158311581,1,2000,0.000382736238,-0.000337859849,1,4846.26562,0,24.2313271,-0.00241247867,0.979415119,9.79415131,0.000286316179,0.000159749005,0.000382736238,-0.000337859849,7.497154E-05,1,2000,0.000382969476,0.00039675078,1,3126.92383,0,15.6346188,-0.00182715338,0.936205506,9.36205482,4.98107984E-05,0.000158942144,0.000382969476,0.00039675078,7.17076255E-05,1,2000,0.00080798805,0.000396750955,1,3126.92383,0,15.6346188,-0.00175024406,0.936205506,9.36205482,5.02100447E-05,0.000151527638,0.00080798805,0.000396750955,0.000151288579,1,-8.27014373E-05,-0.0170247871,-1.81098199,-7.15255665E-05,-0.0170183815,-1.72818565,-2.36555916E-05,0.0182143711,-1.64616549,-1.13621345E-05,0.0182210524,-1.81985843
2026-04-28T17:53:36.9323347Z,13,-0.96999999999999997,Race,true,false,68,Garage Test Track,16,Bullet,0,0,0,-140.37915,1.32108891,190.697968,4.64101049E-06,-0.0181890037,-0.999834776,-1.00000024,7.22556251E-06,-4.77322556E-06,7.3111878E-06,0.999834538,-0.0181890037,-0.000399285229,1.08686772E-05,-0.00407661684,0.000265052164,-0.000171996187,-0.000329780742,0,1,0,0,0,20,0.0200000014,0.00409613876,0.00409612432,0.00407574372,-0.0013316886,-0.1372464,0.0100000007,3.14158797,179.999725,0.0181900021,1.04221034,7.22675804E-06,0.000414062699,-0.000171996187,-0.00909487717,3.63433765E-06,0.999958694,2.35365633E-06,-140.37915,2.82512331,195.696594,-8.97886821E-06,-0.198783681,-0.980043471,1.74532926,1,goal_runtime,0x006742EC,0x006742EC,0x0067459C,0x07DD855C,0x00673FF8,0x2B6AF080,0x2B6AF080,0x07DD8C7C,0x00673FF8,0x07DDA95C,0x00673FF8,0x2B6AF080,0x2B6AF080,2.8099978,0,5,1,0x07DD842C,0x00673FF8,0x07DD855C,0x00673FF8,0x07DD86E0,0x00673FF8,0x07DD87D8,0x00673FF8,0x07DD88D0,0x00673FF8,,,1,0x2B6B0D2C,0,0.600000024,0,0,0,-0.0175324827,-0.000911490526,-0.000237575063,0,0.00336068706,1,0x2B6B0D2C,0,0.600000024,0,0,0,0.0175470207,-0.00111539511,-0.000236200096,0,0.00368712936,1,0x2B6B0D2C,0,0.600000024,0,0,0,0.0174511187,-0.00112881733,-7.28517698E-05,6.28309441,0.00360393687,1,0x2B6B0D2C,0,0.600000024,0,0,0,-0.0174479578,-0.000656775024,-7.25158534E-05,9.58965684E-05,0.00276449299,1,0,0,0.0100000007,100,-0.0344934724,0.000114446346,-0.1372464,0.000290584285,8.5797501E-06,-0.0013316886,-0.0476475358,2000,-0.00272151572,-0.000318109785,1,4844.62012,0,24.2231007,0.00323324348,0.979415119,9.79415131,-0.000237575063,-0.000271336088,-0.00272151572,-0.000318109785,0.000533098762,1,2000,-0.00307316403,-0.000318111997,1,4844.62012,0,24.2231007,0.00351270684,0.979415119,9.79415131,-0.000236200096,-0.000302640779,-0.00307316403,-0.000318111997,0.000601980719,1,2000,-0.00332754245,0.000289023737,1,3129.27368,-0.000183627548,15.646368,0.00342102931,0.936205506,9.36205482,-7.28517698E-05,-0.000313346856,-0.00332754245,0.000289023737,0.000575386744,1,2000,-0.00246711401,0.000289025949,1,3129.27368,0.000183627548,15.646368,0.00268415944,0.936205506,9.36205482,-7.25158534E-05,-0.000237674089,-0.00246711401,0.000289025949,0.000509611156,1,3.25031542E-05,-0.02612813,0.0439339504,3.26894187E-05,-0.026125811,0.0621112138,8.75443129E-06,-0.00613312842,0.0876213238,2.7939675E-06,-0.00613629492,0.0496533886
2026-04-28T17:53:37.0323541Z,14,-0.87,Race,true,false,68,Garage Test Track,16,Bullet,0,0,0,-140.37915,1.32109165,190.697678,-3.34567903E-06,-0.0181822404,-0.999834776,-1.00000012,6.38875463E-06,3.23005133E-06,6.32896899E-06,0.999834716,-0.0181822404,-0.000175763329,3.40605402E-05,-0.00377461524,0.00019479508,0.000305703288,-0.00012438737,0,1,0,0,0,10,0.0100000007,0.00377885858,0.00377870514,0.00377337285,-0.00449672807,0.0722112805,0.0100000007,-3.1415894,-179.999802,0.0181832407,1.04182291,6.38981055E-06,0.000366109161,0.000305703288,-0.00909149554,3.17956233E-06,0.999958694,-1.64400046E-06,-140.37915,2.82512617,195.696304,-8.97886821E-06,-0.198783681,-0.980043471,1.74532926,1,goal_runtime,0x006742EC,0x006742EC,0x0067459C,0x07DD855C,0x00673FF8,0x2B6AF080,0x2B6AF080,0x07DD8C7C,0x00673FF8,0x07DDA95C,0x00673FF8,0x2B6AF080,0x2B6AF080,2.9099977,0,5,1,0x07DD842C,0x00673FF8,0x07DD855C,0x00673FF8,0x07DD86E0,0x00673FF8,0x07DD87D8,0x00673FF8,0x07DD88D0,0x00673FF8,,,1,0x2B6B0D2C,0,0.600000024,0,0,0,-0.0175333228,-0.0131639875,4.11170331E-05,0,0.0131720966,1,0x2B6B0D2C,0,0.600000024,0,0,0,0.0175460652,-0.0127414251,4.26605548E-05,0,0.0127496254,1,0x2B6B0D2C,0,0.600000024,0,0,0,0.0174508803,-0.0118074464,-0.000149200467,6.28310585,0.0118860546,1,0x2B6B0D2C,0,0.600000024,0,0,0,-0.0174482036,-0.0129558817,-0.000148906256,8.46027688E-05,0.0130284373,1,0,0,0.0100000007,100,-0.00532746594,0.000696415664,0.0722112805,-0.000122488666,2.70963828E-05,-0.00449672807,-0.00532746641,2000,-0.00499062566,0.00068118627,1,4843.60205,0,24.2180099,-0.0002371257,0.979415119,9.79415131,4.11170331E-05,-0.00116387988,-0.00499062566,0.00068118627,0.000977578922,1,2000,-0.00420182431,0.000681186328,1,4843.60205,0,24.2180099,-0.000246011012,0.979415119,9.79415131,4.26605548E-05,-0.00112652569,-0.00420182431,0.000681186328,0.000823066162,1,2000,-0.00406157551,-0.000680727535,1,3130.62134,0.000101477541,15.6531067,0.00131809793,0.936205506,9.36205482,-0.000149200467,-0.0010439083,-0.00406157551,-0.000680727535,0.000786835444,1,2000,-0.00513093313,-0.000680727593,1,3130.62134,-0.000101477584,15.6531067,0.00131541805,0.936205506,9.36205482,-0.000148906256,-0.00114550733,-0.00513093313,-0.000680727593,0.000934380107,1,-8.4005289E-05,0.0278692096,0.981140912,-9.55536889E-05,0.0278860629,0.906249523,-2.38418561E-05,-0.00763486931,0.828211725,-2.45869142E-05,-0.00763903977,1.02639437
2026-04-28T17:53:37.1331980Z,15,-0.76999989999999996,Race,true,false,68,Garage Test Track,16,Bullet,0,0,0,-140.37915,1.32109416,190.697449,7.67106667E-06,-0.0181835331,-0.999834776,-1.00000012,2.78499601E-06,-7.72298426E-06,2.92496679E-06,0.999834657,-0.0181835331,0.000197453701,2.6310654E-05,-0.00179662381,-6.91716996E-05,-2.50720059E-05,0.000113141177,0,1,0,0,0,10,0.0100000007,0.00180763309,0.00180744159,0.00179585,-0.00304673868,0.125011474,0.0100000007,3.14158487,179.999542,0.0181845333,1.04189694,2.78545667E-06,0.0001595949,-2.50720059E-05,-0.00909214187,1.42754971E-06,0.999958694,3.84867189E-06,-140.37915,2.82512808,195.696075,-8.97886821E-06,-0.198783562,-0.980043471,1.74532926,1,goal_runtime,0x006742EC,0x006742EC,0x0067459C,0x07DD855C,0x00673FF8,0x2B6AF080,0x2B6AF080,0x07DD8C7C,0x00673FF8,0x07DDA95C,0x00673FF8,0x2B6AF080,0x2B6AF080,3.00999761,0,5,1,0x07DD842C,0x00673FF8,0x07DD855C,0x00673FF8,0x07DD86E0,0x00673FF8,0x07DD87D8,0x00673FF8,0x07DD88D0,0x00673FF8,,,1,0x2B6B0D2C,0,0.600000024,0,0,0,-0.0175368059,-0.0169752799,-0.000444986828,0,0.0171765815,1,0x2B6B0D2C,0,0.600000024,0,0,0,0.0175424628,-0.0182824638,-0.000443348021,0,0.0184697509,1,0x2B6B0D2C,0,0.600000024,0,0,0,0.0174501371,-0.0133502064,0.000199247792,6.28311157,0.0134719405,1,0x2B6B0D2C,0,0.600000024,0,0,0,-0.0174488276,-0.0210373774,0.000199622809,7.86781311E-05,0.0211225338,1,0,0,0.0100000007,100,-0.0151981981,0.000130620349,0.125011474,0.000349435693,2.50044504E-05,-0.00304673868,-0.0151981991,2000,-0.00294061238,-0.000613027136,1,4844.07715,0,24.2203846,0.00256591639,0.979415119,9.79415131,-0.000444986857,-0.00150100957,-0.00294061238,-0.000613027136,0.000576016086,1,2000,-0.00322338752,-0.000613027369,1,4844.07715,0,24.2203846,0.00255674659,0.979415119,9.79415131,-0.00044334805,-0.00161642348,-0.00322338752,-0.000613027369,0.000631406961,1,2000,-0.00527871121,-0.000125197854,1,3129.65796,-0.00148266449,15.6482897,-0.00176052307,0.936205506,9.36205482,0.000199247792,-0.00118038722,-0.00527871121,-0.000125197854,0.000603521825,1,2000,-0.00088526844,-0.000125197606,1,3129.65796,0.00148266449,15.6482897,-0.00176379329,0.936205506,9.36205482,0.000199622809,-0.00186013035,-0.00088526844,-0.000125197606,0.000550628582,1,-0.000348314614,-0.0486103855,0.400448471,-0.000360235543,-0.0486008562,0.572012484,-7.43195342E-05,0.0348448232,0.158588573,-6.23986052E-05,0.0348529071,0.809409618
2026-04-28T17:53:37.2323672Z,16,-0.67000000000000004,Race,true,false,68,Garage Test Track,16,Bullet,0,0,0,-140.37915,1.32109463,190.697342,9.20045022E-06,-0.0181946419,-0.999834776,-1.00000036,8.64979711E-07,-9.21771425E-06,1.03254956E-06,0.999834478,-0.0181946419,7.36948778E-06,-1.15802459E-05,8.4414467E-05,-0.000225944386,2.78388907E-05,-4.11216497E-05,0,1,0,0,0,10,0.0100000007,8.55231774E-05,8.47355404E-05,-8.41897563E-05,-0.000424648024,0.0509062447,0.0100000007,3.14158344,179.999466,0.0181956403,1.04253328,8.651229E-07,4.95678869E-05,2.78388907E-05,-0.00909769721,4.74401901E-07,0.999958694,4.6047312E-06,-140.37915,2.82512784,195.695969,-8.97886821E-06,-0.198783398,-0.980043471,1.74532926,1,goal_runtime,0x006742EC,0x006742EC,0x0067459C,0x07DD855C,0x00673FF8,0x2B6AF080,0x2B6AF080,0x07DD8C7C,0x00673FF8,0x07DDA95C,0x00673FF8,0x2B6AF080,0x2B6AF080,3.10999751,0,5,1,0x07DD842C,0x00673FF8,0x07DD855C,0x00673FF8,0x07DD86E0,0x00673FF8,0x07DD87D8,0x00673FF8,0x07DD88D0,0x00673FF8,,,1,0x2B6B0D2C,0,0.600000024,0,0,0,-0.0175388418,-0.0304298606,-0.000784232048,0,0.0307849161,1,0x2B6B0D2C,0,0.600000024,0,0,0,0.0175406579,-0.0107161561,-0.000782850897,0,0.011633723,1,0x2B6B0D2C,0,0.600000024,0,0,0,0.0174496435,7.98492038E-05,8.69981304E-05,6.28312874,0.0011161057,1,0x2B6B0D2C,0,0.600000024,0,0,0,-0.0174493138,-0.0104161659,8.76867271E-05,6.19983548E-05,0.0108728595,1,0,0,0.0100000007,100,-0.0288420711,-0.000586140843,0.0509062447,0.000295790232,-5.7188372E-06,-0.000424648024,-0.0288420729,2000,-0.000533415412,-0.000138058458,1,4845.2998,0,24.2264977,0.00452005398,0.979415119,9.79415131,-0.000784232223,-0.00269122911,-0.000533415412,-0.000138058458,0.000104487037,1,2000,-0.000206387209,-0.000138058487,1,4845.2998,0,24.2264977,0.00451524323,0.979415119,9.79415131,-0.000782851072,-0.000947033579,-0.000206387209,-0.000138058487,4.04277525E-05,1,2000,0.000306478352,-0.000703159603,1,3127.81836,0.000370070746,15.6390915,-0.00111277471,0.936205506,9.36205482,8.69981304E-05,7.15728238E-05,0.000306478352,-0.000703159603,3.86775973E-05,1,2000,-0.00104630366,-0.000703159661,1,3127.81836,-0.000370070717,15.6390915,-0.00310130068,0.936205506,9.36205482,8.76867271E-05,-0.000958420627,-0.00104630366,-0.000703159661,9.9848141E-05,1,-0.0002035871,-0.03392452,1.36083341,-0.0001804903,-0.0339502841,-0.68360275,-4.93600928E-05,-0.0112249656,-1.23558342,-4.86150348E-05,-0.011193607,-1.02496731
2026-04-28T17:53:37.3328777Z,17,-0.5699999,Race,true,false,68,Garage Test Track,16,Bullet,0,0,0,-140.37915,1.32109427,190.697098,2.99512749E-06,-0.0181853157,-0.999834776,-1.00000012,6.82527707E-06,-3.11976328E-06,6.88088267E-06,0.999834657,-0.0181853157,-9.52709888E-05,-4.18195577E-06,-0.00263358327,0.000139300857,3.99225974E-06,-5.76063721E-05,0,1,0,0,0,10,0.0100000007,0.00263530924,0.00263530598,0.00263322378,-0.0010715496,-0.156203359,0.0100000007,3.14158964,179.999817,0.0181863159,1.0419991,6.82640575E-06,0.000391124224,3.99225974E-06,-0.00909303315,3.42668159E-06,0.999958694,1.52878579E-06,-140.37915,2.82512712,195.695724,-8.97886821E-06,-0.198783323,-0.980043471,1.74532926,1,goal_runtime,0x006742EC,0x006742EC,0x0067459C,0x07DD855C,0x00673FF8,0x2B6AF080,0x2B6AF080,0x07DD8C7C,0x00673FF8,0x07DDA95C,0x00673FF8,0x2B6AF080,0x2B6AF080,3.20999742,0,5,1,0x07DD842C,0x00673FF8,0x07DD855C,0x00673FF8,0x07DD86E0,0x00673FF8,0x07DD87D8,0x00673FF8,0x07DD88D0,0x00673FF8,,,1,0x2B6B0D2C,0,0.600000024,0,0,0,-0.0175328851,-3.90058904E-06,-0.000114247676,0,0.00066049688,1,0x2B6B0D2C,0,0.600000024,0,0,0,0.0175465029,-3.08862627E-06,-0.000113091097,0,0.000656409829,1,0x2B6B0D2C,0,0.600000024,0,0,0,0.0174510777,-4.15455861E-06,5.41188965E-05,6.28311491,0.000487297686,1,0x2B6B0D2C,0,0.600000024,0,0,0,-0.0174480025,-8.68773895E-07,5.48170392E-05,7.60393159E-05,0.00048606153,1,0,0,0.0100000007,100,0.000580219727,-0.000221982336,-0.156203359,-0.000101073187,-1.96213227E-06,-0.0010715496,0.000580219785,2000,-0.00100062357,6.49072754E-05,1,4844.86621,0,24.2243309,0.000660125748,0.979415119,9.79415131,-0.000114247676,-5.90875425E-06,-0.00100062357,6.49072754E-05,0.000196005189,1,2000,-0.00108856161,6.4906606E-05,1,4844.86621,0,24.2243309,0.000656076882,0.979415119,9.79415131,-0.000113091097,-4.70766827E-06,-0.00108856161,6.4906606E-05,0.000213230756,1,2000,-0.000718066236,0.000216894259,1,3128.56519,0.000267212599,15.6428251,-0.00048702769,0.936205506,9.36205482,5.41188965E-05,-8.53012625E-06,-0.000718066236,0.000216894259,0.000203814547,1,2000,-0.00137111312,0.000216894157,1,3128.56519,-0.00026721257,15.6428251,-0.000485852535,0.936205506,9.36205482,5.48170392E-05,-1.78814037E-06,-0.00137111312,0.000216894157,0.000187365702,1,0.000595673861,0.0669984296,-3.01244164,0.00058449799,0.0669759735,-1.09773123,0.000143423662,-0.00328792306,-0.0628807992,0.000131130204,-0.00328696845,-1.03867972
2026-04-28T17:53:37.4329443Z,18,-0.46999990000000003,Race,true,false,68,Garage Test Track,16,Bullet,0,0,0,-140.37915,1.32109535,190.696793,2.5643933E-06,-0.0181744732,-0.999834776,-0.99999994,7.49836659E-07,-2.57844727E-06,7.96574682E-07,0.999834836,-0.0181744732,0.000549083226,1.47606834E-05,-0.00452186633,0.000310355128,-0.000353568117,0.000361331739,0,1,0,0,0,10,0.0100000007,0.00455510523,0.00455508148,0.00452085258,-0.00415957533,-0.0362290964,0.0100000007,3.14159012,179.999847,0.0181754753,1.04137802,7.4996052E-07,4.2969572E-05,-0.000353568117,-0.00908761192,3.86618808E-07,0.999958694,1.28576323E-06,-140.37915,2.82512808,195.695419,-8.97889458E-06,-0.198783889,-0.980043352,1.74532926,1,goal_runtime,0x006742EC,0x006742EC,0x0067459C,0x07DD855C,0x00673FF8,0x2B6AF080,0x2B6AF080,0x07DD8C7C,0x00673FF8,0x07DDA95C,0x00673FF8,0x2B6AF080,0x2B6AF080,3.30999732,0,5,1,0x07DD842C,0x00673FF8,0x07DD855C,0x00673FF8,0x07DD86E0,0x00673FF8,0x07DD87D8,0x00673FF8,0x07DD88D0,0x00673FF8,,,1,0x2B6B0D2C,0,0.600000024,0,0,0,-0.0175388418,-0.00628288928,3.16213118E-06,0,0.00843353663,1,0x2B6B0D2C,0,0.600000024,0,0,0,0.0175404307,-0.00523565942,4.41193697E-06,0,0.0076986826,1,0x2B6B0D2C,0,0.600000024,0,0,0,0.0174496565,-0.00569659425,-0.000270755147,6.28305244,0.00821131933,1,0x2B6B0D2C,0,0.600000024,0,0,0,-0.017449433,-0.00530316774,-0.000270179939,0.000138340169,0.00793354586,1,0,0,0.0100000007,100,0.00190828566,0.000512233994,-0.0362290964,0.000530000369,9.63834282E-06,-0.00415957533,0.00190828578,2000,-0.00440621423,-0.000453360699,1,4843.33008,0,24.21665,-0.0056204861,0.979415119,9.79415131,3.16213118E-06,-0.000745302998,-0.00440621423,-0.000453360699,0.000863102672,1,2000,-0.00409171684,-0.000453359797,1,4843.33008,0,24.21665,-0.00563982315,0.979415119,9.79415131,4.41193697E-06,-0.00068035908,-0.00409171684,-0.000453359797,0.000801497896,1,2000,-0.00434765732,-0.000997159863,1,3130.73364,-0.000184492761,15.6536674,0.00590901729,0.936205506,9.36205482,-0.000270755147,-0.000694048009,-0.00434765732,-0.000997159863,0.000766169629,1,2000,-0.0041502947,-0.000997160911,1,3130.73364,0.000184492805,15.6536674,0.00589607656,0.936205506,9.36205482,-0.000270179939,-0.00066873472,-0.0041502947,-0.000997160911,0.000824996445,1,-0.000595673861,0.0117409797,0.777303934,-0.00060722226,0.0117503023,0.704227269,-0.00014211981,-0.0324873999,0.772402108,-0.000143051133,-0.0324996933,0.744748414
2026-04-28T17:53:37.5323557Z,19,-0.37,Race,true,false,68,Garage Test Track,16,Bullet,0,0,0,-140.37915,1.32109654,190.696548,-2.67379232E-06,-0.0181769822,-0.999834776,-1,6.52207882E-06,2.55566306E-06,6.47454681E-06,0.999834776,-0.0181769822,-0.000107222906,7.4796294E-06,-0.00307163922,6.87994179E-05,-4.47214625E-05,-6.21925938E-05,0,1,0,0,0,20,0.0200000014,0.0030735191,0.00307351002,0.00307099591,-0.00386141753,0.0394889116,0.0100000007,-3.14158988,-179.999832,0.0181779843,1.04152167,6.52315657E-06,0.000373749324,-4.47214625E-05,-0.00908886641,3.24929056E-06,0.999958694,-1.30741785E-06,-140.37915,2.82512879,195.695175,-8.97889458E-06,-0.1987838,-0.980043352,1.74532926,1,goal_runtime,0x006742EC,0x006742EC,0x0067459C,0x07DD855C,0x00673FF8,0x2B6AF080,0x2B6AF080,0x07DD8C7C,0x00673FF8,0x07DDA95C,0x00673FF8,0x2B6AF080,0x2B6AF080,3.40999722,0,5,1,0x07DD842C,0x00673FF8,0x07DD855C,0x00673FF8,0x07DD86E0,0x00673FF8,0x07DD87D8,0x00673FF8,0x07DD88D0,0x00673FF8,,,1,0x2B6B0D2C,0,0.600000024,0,0,0,-0.0175330713,-0.0145701841,0.00022613215,0,0.01463529,1,0x2B6B0D2C,0,0.600000024,0,0,0,0.0175462011,-0.0135229575,0.000227638258,0,0.0135928066,1,0x2B6B0D2C,0,0.600000024,0,0,0,0.0174510144,-0.0201872289,-0.000275024155,6.28295898,0.020343665,1,0x2B6B0D2C,0,0.600000024,0,0,0,-0.0174480695,-0.00531435572,-0.000274525693,0.000231423764,0.00794763863,1,0,0,0.0100000007,100,0.00601758761,0.000344430679,0.0394889116,-0.000227574666,5.91015009E-07,-0.00386141753,-0.0180406012,2000,-0.00396423088,-6.26026167E-06,1,4843.61914,0,24.2180958,-0.00130423042,0.979415119,9.79415131,0.00022613215,-0.00128819735,-0.00396423088,-6.26026167E-06,0.000776525587,1,2000,-0.00382593716,-6.2609729E-06,1,4843.61914,0,24.2180958,-0.001312849,0.979415119,9.79415131,0.000227638258,-0.00119566079,-0.00382593716,-6.2609729E-06,0.000749436207,1,2000,-0.00382601353,-0.000245171075,1,3130.30786,0,15.6515388,0.00242967764,0.936205506,9.36205482,-0.000275024155,-0.00178491953,-0.00382601353,-0.000245171075,0.000716387003,1,2000,-0.00396416383,-0.000245171716,1,3130.30786,0,15.6515388,0.00590493204,0.936205506,9.36205482,-0.000274525693,-0.000668958994,-0.00396416383,-0.000245171716,0.000742254488,1,0.000288523705,0.0111485003,0.310087651,0.000288523705,0.0111613153,0.294706196,6.78934084E-05,-0.000213450388,0.606617212,6.81728052E-05,-0.000217287728,0.000704638602
2026-04-28T17:53:37.6332597Z,20,-0.27000000000000002,Race,true,false,68,Garage Test Track,16,Bullet,0,0,0,-140.37915,1.32109535,190.696426,-7.59550358E-06,-0.0181913078,-0.999834776,-1.00000024,1.05791441E-05,7.4042805E-06,1.04426999E-05,0.999834538,-0.0181913078,-0.000178424947,-2.50401881E-05,-0.000380772864,-0.000226335513,-0.00031605555,-0.000101001737,0,1,0,0,0,20,0.0200000014,0.000421248697,0.000420503813,0.000381166814,-0.00173598225,0.0677604675,0.0100000007,-3.14158511,-179.999557,0.0181923062,1.04234231,1.05808949E-05,0.000606240588,-0.00031605555,-0.00909602921,5.25567793E-06,0.999958694,-3.75010086E-06,-140.37915,2.82512736,195.695053,-8.97886912E-06,-0.198783159,-0.98004353,1.74532926,1,goal_runtime,0x006742EC,0x006742EC,0x0067459C,0x07DD855C,0x00673FF8,0x2B6AF080,0x2B6AF080,0x07DD8C7C,0x00673FF8,0x07DDA95C,0x00673FF8,0x2B6AF080,0x2B6AF080,3.50999713,0,5,1,0x07DD842C,0x00673FF8,0x07DD855C,0x00673FF8,0x07DD86E0,0x00673FF8,0x07DD87D8,0x00673FF8,0x07DD88D0,0x00673FF8,,,1,0x2B6B0D2C,0,0.600000024,0,0,0,-0.01752913,-0.010654008,0.000928400259,0,0.011929784,1,0x2B6B0D2C,0,0.600000024,0,0,0,0.0175502542,-0.0295434669,0.000929880422,0,0.0300460123,1,0x2B6B0D2C,0,0.600000024,0,0,0,0.0174518488,-0.00882443506,-0.000404307968,6.28303289,0.0103208208,1,0x2B6B0D2C,0,0.600000024,0,0,0,-0.0174472276,-0.00777816912,-0.000403458223,0.000157946663,0.00972737651,1,0,0,0.0100000007,100,0.0089396704,-0.000226673714,0.0677604675,-0.000357218378,-2.05067136E-05,-0.00173598225,0.0132645378,2000,-0.000903119682,0.000158327384,1,4845.11621,0,24.2255802,-0.00535573112,0.979415119,9.79415131,0.00092840055,-0.000941408041,-0.000903119682,0.000158327384,0.000176905829,1,2000,-0.00122529035,0.000158326395,1,4845.11621,0,24.2255802,-0.00535964267,0.979415119,9.79415131,0.000929880713,-0.00261288439,-0.00122529035,0.000158326395,0.0002400136,1,2000,-0.0020381955,0.000715057773,1,3128.21338,-0.000586494745,15.6410666,0.00534365699,0.936205506,9.36205482,-0.000404307997,-0.000855390565,-0.0020381955,0.000715057773,0.000229391735,1,2000,-9.01907333E-05,0.000715058937,1,3128.21338,0.000586494862,15.6410666,0.00583428983,0.936205506,9.36205482,-0.000403458253,-0.000799967325,-9.01907333E-05,0.000715058937,0.000169129708,1,0.000197067842,0.0351134017,-0.135275289,0.000202655778,0.0351121053,0.822660267,4.17232477E-05,-0.00646419032,-0.501142144,4.20957767E-05,-0.00644662604,0.0889868885
2026-04-28T17:53:37.7329999Z,21,-0.17000000000000001,Race,true,false,68,Garage Test Track,16,Bullet,0,0,0,-140.379135,1.32109308,190.696198,-1.12954524E-06,-0.0181888267,-0.999834776,-1.00000024,5.16036107E-06,1.03585569E-06,5.14066596E-06,0.999834597,-0.0181888267,1.23229411E-05,-1.57221257E-05,-0.00111149065,-0.000101287907,0.000100289944,1.45342019E-05,0,1,0,0,0,10,0.0100000007,0.00111167016,0.00111155899,0.00111159298,0.000708525884,-0.182001635,0.0100000007,-3.14159155,-179.999924,0.0181898251,1.04220021,5.16121463E-06,0.000295715785,0.000100289944,-0.00909478869,2.57536317E-06,0.999958694,-5.41372572E-07,-140.379135,2.82512522,195.694824,-8.97886912E-06,-0.198783174,-0.98004353,1.74532926,1,goal_runtime,0x006742EC,0x006742EC,0x0067459C,0x07DD855C,0x00673FF8,0x2B6AF080,0x2B6AF080,0x07DD8C7C,0x00673FF8,0x07DDA95C,0x00673FF8,0x2B6AF080,0x2B6AF080,3.60999703,0,5,1,0x07DD842C,0x00673FF8,0x07DD855C,0x00673FF8,0x07DD86E0,0x00673FF8,0x07DD87D8,0x00673FF8,0x07DD88D0,0x00673FF8,,,1,0x2B6B0D2C,0,0.600000024,0,0,0,-0.0175345484,0.00032255167,0.000154518464,0,0.00201802817,1,0x2B6B0D2C,0,0.600000024,0,0,0,0.017544955,0.000331509887,0.000155784845,0,0.00204340881,1,0x2B6B0D2C,0,0.600000024,0,0,0,0.0174506046,0.000229464524,-2.61783571E-05,6.28308725,0.00162006728,1,0x2B6B0D2C,0,0.600000024,0,0,0,-0.0174483564,0.000321674946,-2.54740298E-05,0.000103735518,0.00191489584,1,0,0,0.0100000007,100,0.00698966114,-0.000699728902,-0.182001635,-5.7573674E-05,-8.72483633E-06,0.000708525884,0.0069896616,2000,0.00057806517,0.000403520622,1,4845.84131,0,24.2292061,-0.00199125963,0.979415119,9.79415131,0.000154518464,0.000159899559,0.00057806517,0.000403520622,0.00011323316,1,2000,0.00107990194,0.000403520622,1,4845.84131,0,24.2292061,-0.00201540394,0.979415119,9.79415131,0.000155784845,0.000162306998,0.00107990194,0.000403520622,0.000211534483,1,2000,0.00107962626,-0.000462965545,1,3127.17773,0,15.6358881,0.00160307414,0.936205506,9.36205482,-2.61783571E-05,0.000141696059,0.00107962626,-0.000462965545,0.000202150419,1,2000,0.000578303821,-0.000462965603,1,3127.17773,0,15.6358881,0.00188687537,0.936205506,9.36205482,-2.54740298E-05,0.000168055587,0.000578303821,-0.000462965603,0.000108282249,1,-0.000541843416,-0.0773881748,-0.991175532,-0.000529922487,-0.0774095505,-2.80026007,-0.000124424681,0.0378129557,-0.870075285,-0.000112876289,0.0377984159,-0.781247973
2026-04-28T17:53:37.8328266Z,22,-0.070000000000000007,Race,true,false,68,Garage Test Track,16,Bullet,0,0,0,-140.379135,1.32109308,190.695938,1.29222087E-06,-0.0181841683,-0.999834776,-1.00000012,7.54304574E-06,-1.42962119E-06,7.56779491E-06,0.999834657,-0.0181841683,0.000183419572,5.68271162E-07,-0.00314373313,0.000165944453,4.56772068E-05,0.000152444016,0,1,0,0,0,20,0.0200000014,0.00314907939,0.00314907939,0.00314320368,-0.000808426412,-0.116765328,0.0100000007,3.14159131,179.999908,0.0181851685,1.0419333,7.54429311E-06,0.000432256144,4.56772068E-05,-0.00909245946,3.77786614E-06,0.999958694,6.80488597E-07,-140.379135,2.82512522,195.694565,-8.97886912E-06,-0.198783174,-0.98004353,1.74532926,1,goal_runtime,0x006742EC,0x006742EC,0x0067459C,0x07DD855C,0x00673FF8,0x2B6AF080,0x2B6AF080,0x07DD8C7C,0x00673FF8,0x07DDA95C,0x00673FF8,0x2B6AF080,0x2B6AF080,3.70999694,0,5,1,0x07DD842C,0x00673FF8,0x07DD855C,0x00673FF8,0x07DD86E0,0x00673FF8,0x07DD87D8,0x00673FF8,0x07DD88D0,0x00673FF8,,,1,0x2B6B0D2C,0,0.600000024,0,0,0,-0.017532168,-0.000378846918,0.000182766526,0,0.00220998307,1,0x2B6B0D2C,0,0.600000024,0,0,0,0.01754722,-0.000449045881,0.000184101897,0,0.00238221139,1,0x2B6B0D2C,0,0.600000024,0,0,0,0.0174511988,-0.00273260521,0.00020240742,6.28296518,0.00570701621,1,0x2B6B0D2C,0,0.600000024,0,0,0,-0.0174478814,0.000415672606,0.000203173753,0.000225319469,0.00256828754,1,0,0,0.0100000007,100,0.0310030356,-0.000163097371,-0.116765328,-0.000436641218,3.8302187E-06,-0.000808426412,0.0494962148,2000,-0.00168384751,0.000286460563,1,4844.67578,0,24.2233791,-0.0021762934,0.979415119,9.79415131,0.000182766526,-0.000171499851,-0.00168384751,0.000286460563,0.000329837145,1,2000,-0.00183122919,0.000286458875,1,4844.67578,0,24.2233791,-0.00233843527,0.979415119,9.79415131,0.000184101897,-0.000188582868,-0.00183122919,0.000286458875,0.000358706748,1,2000,-0.00503704045,0.000541379559,1,3128.92554,-0.00231248536,15.6446276,-0.00500762509,0.936205506,9.36205482,0.00020240742,-0.000479010661,-0.00503704045,0.000541379559,0.000342866289,1,2000,0.00152197364,0.000541380141,1,3128.92554,0.00231248536,15.6446276,-0.0025333697,0.936205506,9.36205482,0.000203173753,0.000161913908,0.00152197364,0.000541380141,0.000315298676,1,0.000119023018,0.00141240295,0.00959774386,0.000113248818,0.00141585246,0.0169401281,2.97091883E-05,0.0114292884,0.204347432,2.37487238E-05,0.0114323888,0.0326695815
