timestamp_utc,sample_index,race_time_seconds,game_state,is_racing,is_paused,level_id,level_name,car_id,car_name,player_steer,player_throttle,player_brake,position_x,position_y,position_z,forward_x,forward_y,forward_z,right_x,right_y,right_z,up_x,up_y,up_z,velocity_x,velocity_y,velocity_z,angular_velocity_x,angular_velocity_y,angular_velocity_z,vehicle_applied_throttle,vehicle_applied_brake,vehicle_applied_handbrake,vehicle_control_candidate_1dfc,vehicle_applied_steer,vehicle_frame_delta_ms,vehicle_frame_delta_seconds,speed_magnitude,planar_speed_magnitude,orig_speed_forward,orig_engine_rpm_candidate,orig_gear_candidate,orig_clutch_candidate,orig_gear_applied_confirmed,orig_gear_requested_confirmed,orig_gear_shift_state_confirmed,orig_gear_shift_state_candidate_sync_flag,orig_gear_shift_state_candidate_mode_flag,orig_num_gears_confirmed,orig_engine_rpm_like_confirmed,orig_driven_speed_scale_confirmed,orig_auto_shift_speed_threshold_confirmed,yaw_radians,yaw_degrees,pitch_radians,pitch_degrees,roll_radians,roll_degrees,yaw_rate,quat_x,quat_y,quat_z,quat_w,camera_position_x,camera_position_y,camera_position_z,camera_forward_x,camera_forward_y,camera_forward_z,camera_fov,camera_mode_index,camera_family,camera_tracker_vtable,camera_tracker_slot_a_vtable,camera_tracker_slot_b_vtable,camera_output_active_profile_ptr,camera_output_active_profile_vtable,camera_output_source_node_ptr,camera_output_target_node_ptr,camera_goal_view_active_profile_ptr,camera_goal_view_active_profile_vtable,camera_goal_view_active_clip_ptr,camera_goal_view_active_clip_vtable,camera_goal_view_source_node_ptr,camera_goal_view_target_node_ptr,camera_goal_view_runtime_seconds,camera_goal_view_dirty_flag,player_camera_list_count,player_camera_active_profile_index,player_camera_list_0_ptr,player_camera_list_0_vtable,player_camera_list_1_ptr,player_camera_list_1_vtable,player_camera_list_2_ptr,player_camera_list_2_vtable,player_camera_list_3_ptr,player_camera_list_3_vtable,player_camera_list_4_ptr,player_camera_list_4_vtable,player_camera_list_5_ptr,player_camera_list_5_vtable,wheel_0_contact_flag,wheel_0_contact_ptr,wheel_0_contact_surface_44_candidate,wheel_0_contact_surface_48_candidate,wheel_0_contact_surface_4c_candidate,wheel_0_contact_surface_50_candidate,wheel_0_contact_surface_54_candidate,wheel_0_suspension_length_candidate,wheel_0_tire_force_multiplier_candidate,wheel_0_load_or_spin_candidate,wheel_0_rotation_or_phase_candidate,wheel_0_vertical_load_candidate,wheel_1_contact_flag,wheel_1_contact_ptr,wheel_1_contact_surface_44_candidate,wheel_1_contact_surface_48_candidate,wheel_1_contact_surface_4c_candidate,wheel_1_contact_surface_50_candidate,wheel_1_contact_surface_54_candidate,wheel_1_suspension_length_candidate,wheel_1_tire_force_multiplier_candidate,wheel_1_load_or_spin_candidate,wheel_1_rotation_or_phase_candidate,wheel_1_vertical_load_candidate,wheel_2_contact_flag,wheel_2_contact_ptr,wheel_2_contact_surface_44_candidate,wheel_2_contact_surface_48_candidate,wheel_2_contact_surface_4c_candidate,wheel_2_contact_surface_50_candidate,wheel_2_contact_surface_54_candidate,wheel_2_suspension_length_candidate,wheel_2_tire_force_multiplier_candidate,wheel_2_load_or_spin_candidate,wheel_2_rotation_or_phase_candidate,wheel_2_vertical_load_candidate,wheel_3_contact_flag,wheel_3_contact_ptr,wheel_3_contact_surface_44_candidate,wheel_3_contact_surface_48_candidate,wheel_3_contact_surface_4c_candidate,wheel_3_contact_surface_50_candidate,wheel_3_contact_surface_54_candidate,wheel_3_suspension_length_candidate,wheel_3_tire_force_multiplier_candidate,wheel_3_load_or_spin_candidate,wheel_3_rotation_or_phase_candidate,wheel_3_vertical_load_candidate,vehicle_candidate_1de8,vehicle_candidate_1dec,vehicle_candidate_1df0,vehicle_candidate_1e08,vehicle_candidate_1e0c,vehicle_candidate_1e10,vehicle_candidate_1e14,vehicle_candidate_1e18,vehicle_candidate_1e1c,vehicle_candidate_1e20,vehicle_candidate_1e24,vehicle_candidate_1e28,wheel_0_candidate_0320,wheel_0_candidate_0324,wheel_0_candidate_0328,wheel_0_candidate_0338,wheel_0_candidate_0344,wheel_0_candidate_036c,wheel_0_candidate_0370,wheel_0_candidate_0374,wheel_0_candidate_037c,wheel_0_candidate_0380,wheel_0_candidate_0384,wheel_0_candidate_038c,wheel_0_candidate_0390,wheel_0_candidate_0394,wheel_0_candidate_0398,wheel_0_candidate_039c,wheel_1_candidate_0320,wheel_1_candidate_0324,wheel_1_candidate_0328,wheel_1_candidate_0338,wheel_1_candidate_0344,wheel_1_candidate_036c,wheel_1_candidate_0370,wheel_1_candidate_0374,wheel_1_candidate_037c,wheel_1_candidate_0380,wheel_1_candidate_0384,wheel_1_candidate_038c,wheel_1_candidate_0390,wheel_1_candidate_0394,wheel_1_candidate_0398,wheel_1_candidate_039c,wheel_2_candidate_0320,wheel_2_candidate_0324,wheel_2_candidate_0328,wheel_2_candidate_0338,wheel_2_candidate_0344,wheel_2_candidate_036c,wheel_2_candidate_0370,wheel_2_candidate_0374,wheel_2_candidate_037c,wheel_2_candidate_0380,wheel_2_candidate_0384,wheel_2_candidate_038c,wheel_2_candidate_0390,wheel_2_candidate_0394,wheel_2_candidate_0398,wheel_2_candidate_039c,wheel_3_candidate_0320,wheel_3_candidate_0324,wheel_3_candidate_0328,wheel_3_candidate_0338,wheel_3_candidate_0344,wheel_3_candidate_036c,wheel_3_candidate_0370,wheel_3_candidate_0374,wheel_3_candidate_037c,wheel_3_candidate_0380,wheel_3_candidate_0384,wheel_3_candidate_038c,wheel_3_candidate_0390,wheel_3_candidate_0394,wheel_3_candidate_0398,wheel_3_candidate_039c,wheel_0_suspension_length_delta_per_sec,wheel_0_load_or_spin_delta_per_sec,wheel_0_vertical_load_delta_per_sec,wheel_1_suspension_length_delta_per_sec,wheel_1_load_or_spin_delta_per_sec,wheel_1_vertical_load_delta_per_sec,wheel_2_suspension_length_delta_per_sec,wheel_2_load_or_spin_delta_per_sec,wheel_2_vertical_load_delta_per_sec,wheel_3_suspension_length_delta_per_sec,wheel_3_load_or_spin_delta_per_sec,wheel_3_vertical_load_delta_per_sec
2026-04-28T18:21:41.4517732Z,1,-1.9299999000000001,Race,true,false,68,Garage Test Track,16,Bullet,0,0,0,-140.379166,1.32111096,190.70105,7.86598093E-07,-0.018165268,-0.999835253,-1.00000024,4.42017517E-06,-8.67034828E-07,4.43519548E-06,0.999835014,-0.018165268,0.000408020045,-0.00067327352,-0.00338692777,-0.000402025413,-0.000307874521,0.000302614615,0,1,0,0,0,10,0.0100000007,0.00347721973,0.00341141596,0.00339860027,-0.0019045308,-0.148239687,0.0100000007,0,0,0,0.100000001,0.100000001,4,985.382141,0.340000004,0,3.14159179,179.999939,0.0181662627,1.04085016,4.42090459E-06,0.000253299164,-0.000307874521,-0.00908300839,2.21393384E-06,0.999958813,4.13425255E-07,-140.379166,2.82510757,195.699692,-8.97888276E-06,-0.198775858,-0.980045021,1.74532926,1,goal_runtime,0x006742EC,0x006742EC,0x0067459C,0x07E5855C,0x00673FF8,0x2B721120,0x2B721120,0x07E58C7C,0x00673FF8,0x07E5A95C,0x00673FF8,0x2B721120,0x2B721120,1.67999876,11,5,1,0x07E5842C,0x00673FF8,0x07E5855C,0x00673FF8,0x07E586E0,0x00673FF8,0x07E587D8,0x00673FF8,0x07E588D0,0x00673FF8,,,1,0x2B722DCC,0,0.600000024,0,0,0,-0.0175350569,-4.70175401E-05,0.000435567868,0,0.00252753869,1,0x2B722DCC,0,0.600000024,0,0,0,0.0175439846,-1.12122043E-05,0.000435875234,0,0.0025064284,1,0x2B722DCC,0,0.600000024,0,0,0,0.0174504668,-9.10819472E-06,5.14038402E-06,0.000144601116,0.000322747335,1,0x2B722DCC,0,0.600000024,0,0,0,-0.0174485072,-2.72605484E-06,5.73007128E-06,6.28304529,0.000179422103,1,0,0,0.0100000007,100,0.015936831,0.00182384381,-0.148239687,0.000248651719,-0.000691511959,-0.0019045308,0.0159368329,2000,-0.00147925422,-0.00062377,1,4846.56348,0,24.2328167,-0.00252603786,0.979415119,9.79415131,0.000435567898,-1.86099351E-05,-0.00147925422,-0.00062377,0.000289760821,1,2000,-0.00193628436,-0.00062377064,1,4846.56348,0,24.2328167,-0.00250535016,0.979415119,9.79415131,0.000435875263,-4.47525963E-06,-0.00193628436,-0.00062377064,0.00037928528,1,2000,-0.00192076119,0.000165070378,1,3128.62354,1.10174306E-05,15.643117,-0.000322407985,0.936205506,9.36205482,5.14038402E-06,-2.82392593E-05,-0.00192076119,0.000165070378,0.00036250538,1,2000,-0.00149474689,0.000165070887,1,3128.62354,-1.10174306E-05,15.643117,-0.000179226321,0.936205506,9.36205482,5.73007128E-06,-1.52083658E-05,-0.00149474689,0.000165070887,0.000277018145,1,0,0,0,0,0,0,0,0,0,0,0,0
2026-04-28T18:21:41.5260731Z,2,-1.8500000000000001,Race,true,false,68,Garage Test Track,16,Bullet,0,0,0,-140.37915,1.32107234,190.700851,7.94401558E-08,-0.0182001758,-0.999834299,-0.99999994,5.11371036E-06,-1.7253916E-07,5.11600319E-06,0.999834359,-0.0182001758,5.60051703E-05,-0.000465828605,-0.00124872162,-0.0005705402,4.52709028E-05,3.43328793E-05,0,1,0,0,0,20,0.0200000014,0.00133395602,0.00124997692,0.00125699292,-0.000921553874,-0.0163583867,0.0100000007,0,0,0,0.100000001,0.100000001,4,984.984741,0.340000004,1.8189894E-11,3.1415925,179.999985,0.0182011817,1.04285085,5.11455755E-06,0.00029304254,4.52709028E-05,-0.0091004651,2.55753434E-06,0.999958575,6.29974366E-08,-140.37915,2.82507992,195.699493,-8.97885184E-06,-0.198777512,-0.980044663,1.74532926,1,goal_runtime,0x006742EC,0x006742EC,0x0067459C,0x07E5855C,0x00673FF8,0x2B721120,0x2B721120,0x07E58C7C,0x00673FF8,0x07E5A95C,0x00673FF8,0x2B721120,0x2B721120,1.74999869,11,5,1,0x07E5842C,0x00673FF8,0x07E5855C,0x00673FF8,0x07E586E0,0x00673FF8,0x07E587D8,0x00673FF8,0x07E588D0,0x00673FF8,,,1,0x2B722DCC,0,0.600000024,0,0,0,-0.0175347105,0.000306204631,0.000104527382,0,0.00191141211,1,0x2B722DCC,0,0.600000024,0,0,0,0.0175450239,0.000316471036,0.000104843326,0,0.0019412894,1,0x2B722DCC,0,0.600000024,0,0,0,0.0174506716,0.000239533008,-1.09426182E-05,0.000185914294,0.00164811779,1,0x2B722DCC,0,0.600000024,0,0,0,-0.0174483992,0.000310642063,-1.04107603E-05,6.28300428,0.00187637308,1,0,0,0.0100000007,100,0.00789003726,0.00258908374,-0.0163583867,-0.000101795587,-0.000517610286,-0.000921553874,0.00553985545,2000,0.000657759141,0.000257297826,1,4849.37549,0,24.2468777,-0.00188594556,0.979415119,9.79415131,0.000104527382,0.000160262731,0.000657759141,0.000257297826,0.000128843865,1,2000,0.00104408013,0.000257297652,1,4849.37549,0,24.2468777,-0.00191446301,0.979415119,9.79415131,0.000104843326,0.000163092089,0.00104408013,0.000257297652,0.000204517593,1,2000,0.0010438672,-0.000409795844,1,3126.34302,0,15.6317148,0.00162992103,0.936205506,9.36205482,-1.09426182E-05,0.000145398182,0.0010438672,-0.000409795844,0.000195454864,1,2000,0.000657946104,-0.00040979925,1,3126.34302,0,15.6317148,0.00184969045,0.936205506,9.36205482,-1.04107603E-05,0.000165623307,0.000657946104,-0.00040979925,0.000123194564,1,1.73225981E-05,-0.0165520217,-0.0308063272,5.1967796E-05,-0.0165515952,-0.0282569472,1.02445474E-05,-0.00080415007,0.0662685186,5.40167048E-06,-0.000807041535,0.0848475471
2026-04-28T18:21:41.6255239Z,3,-1.75,Race,true,false,68,Garage Test Track,16,Bullet,0,0,0,-140.37915,1.32104599,190.700546,3.51689368E-06,-0.0182208605,-0.999834299,-1.00000036,6.42291297E-06,-3.63452818E-06,6.48807099E-06,0.999834001,-0.0182208605,-0.000317461352,-0.000111815709,-0.00423104595,0.000144619131,-9.1429014E-05,-0.000264908886,0,1,0,0,0,20,0.0200000014,0.0042444123,0.00424293894,0.004232381,-0.00151369162,-0.1358677,0.0100000007,0,0,0,0.100000001,0.100000001,4,984.449524,0.340000004,5.82076609E-11,3.14158916,179.999786,0.0182218626,1.04403579,6.42397936E-06,0.000368066889,-9.1429014E-05,-0.00911080744,3.22787969E-06,0.999958575,1.78792948E-06,-140.37915,2.82506847,195.699173,-8.97884638E-06,-0.198780596,-0.980044067,1.74532926,1,goal_runtime,0x006742EC,0x006742EC,0x0067459C,0x07E5855C,0x00673FF8,0x2B721120,0x2B721120,0x07E58C7C,0x00673FF8,0x07E5A95C,0x00673FF8,0x2B721120,0x2B721120,1.84999859,11,5,1,0x07E5842C,0x00673FF8,0x07E5855C,0x00673FF8,0x07E586E0,0x00673FF8,0x07E587D8,0x00673FF8,0x07E588D0,0x00673FF8,,,1,0x2B722DCC,0,0.600000024,0,0,0,-0.0175335146,-0.00099963462,-0.000177844107,0,0.00344244204,1,0x2B722DCC,0,0.600000024,0,0,0,0.017546447,-0.00110436056,-0.000177508758,0,0.00361097651,1,0x2B722DCC,0,0.600000024,0,0,0,0.0174509026,-0.000967285829,-5.71462588E-05,0.000180353774,0.0033285087,1,0x2B722DCC,0,0.600000024,0,0,0,-0.0174481552,-0.000894044701,-5.66086164E-05,6.28301048,0.00320101785,1,0,0,0.0100000007,100,-0.0308404937,0.00336482609,-0.1358677,0.000299348554,-0.000179112234,-0.00151369162,-0.0513525791,2000,-0.0029362652,-0.000349126291,1,4847.9873,0,24.2399368,0.00329264649,0.979415119,9.79415131,-0.000177844107,-0.00029050326,-0.0029362652,-0.000349126291,0.000575164566,1,2000,-0.00311039225,-0.000349125708,1,4847.9873,0,24.2399368,0.00343639078,0.979415119,9.79415131,-0.000177508758,-0.000305960566,-0.00311039225,-0.000349125708,0.000609273091,1,2000,-0.00308988872,-4.87002762E-05,1,3128.69775,1.47208611E-05,15.6434889,0.00318336766,0.936205506,9.36205482,-5.71462588E-05,-0.000290731055,-0.00308988872,-4.87002762E-05,0.000582375447,1,2000,-0.00295675732,-4.87008947E-05,1,3128.69775,-1.47208611E-05,15.6434889,0.00307220244,0.936205506,9.36205482,-5.66086164E-05,-0.000279419764,-0.00295675732,-4.87008947E-05,0.000549805292,1,5.97909057E-05,-0.0141185727,0.0765514895,7.11530374E-05,-0.0141176032,0.0834843516,1.1548399E-05,-0.00231018197,0.0840195417,1.22003248E-05,-0.00230989256,0.0662322342
2026-04-28T18:21:41.7259187Z,4,-1.6499999000000001,Race,true,false,68,Garage Test Track,16,Bullet,0,0,0,-140.37915,1.32105124,190.700241,-3.52980828E-06,-0.0182152875,-0.999834299,-1.00000024,5.90829313E-06,3.42275484E-06,5.84496684E-06,0.999834061,-0.0182152875,-0.000214054948,0.000161367221,-0.00375929731,0.000278816675,0.000337380072,-0.000165505859,0,1,0,0,0,20,0.0200000014,0.00376884267,0.00376538653,0.00375573593,-0.00402870588,0.0134704271,0.0100000007,0,0,0,0.100000001,0.100000001,4,983.846191,0.340000004,0,-3.14158916,-179.999786,0.0182162914,1.04371655,5.90927357E-06,0.000338576414,0.000337380072,-0.00910802092,2.93843664E-06,0.999958575,-1.73821275E-06,-140.37915,2.82508373,195.698868,-8.97884183E-06,-0.198782638,-0.98004353,1.74532926,1,goal_runtime,0x006742EC,0x006742EC,0x0067459C,0x07E5855C,0x00673FF8,0x2B721120,0x2B721120,0x07E58C7C,0x00673FF8,0x07E5A95C,0x00673FF8,0x2B721120,0x2B721120,1.9499985,11,5,1,0x07E5842C,0x00673FF8,0x07E5855C,0x00673FF8,0x07E586E0,0x00673FF8,0x07E587D8,0x00673FF8,0x07E588D0,0x00673FF8,,,1,0x2B722DCC,0,0.600000024,0,0,0,-0.0175340287,-0.0131712724,-1.8952298E-05,0,0.0131776836,1,0x2B722DCC,0,0.600000024,0,0,0,0.0175459329,-0.01253701,-1.85005483E-05,0,0.0125431539,1,0x2B722DCC,0,0.600000024,0,0,0,0.0174508672,-0.0124078384,-0.000199241505,0.000132271889,0.0125377383,1,0x2B722DCC,0,0.600000024,0,0,0,-0.0174481943,-0.0122209424,-0.000198700785,6.28305864,0.0123519534,1,0,0,0.0100000007,100,-0.0129257804,0.00256755203,0.0134704271,4.44606703E-05,0.000110016175,-0.00402870588,-0.0114787892,2000,-0.0050101378,0.000699658995,1,4845.75098,0,24.228754,0.000109169676,0.979415119,9.79415131,-1.8952298E-05,-0.00116452365,-0.0050101378,0.000699658995,0.00098140107,1,2000,-0.00415754458,0.000699658936,1,4845.75098,0,24.228754,0.000106743384,0.979415119,9.79415131,-1.85005483E-05,-0.00110844732,-0.00415754458,0.000699658936,0.000814392464,1,2000,-0.0041580135,-0.000772442785,1,3130.07275,0,15.650363,0.00176042807,0.936205506,9.36205482,-0.000199241505,-0.00109698158,-0.0041580135,-0.000772442785,0.000778551097,1,2000,-0.00500973174,-0.000772442785,1,3130.07275,0,15.650363,0.00175551942,0.936205506,9.36205482,-0.000198700785,-0.00108054106,-0.00500973174,-0.000772442785,0.00093802769,1,-2.57045012E-05,0.00794458948,0.486762047,-2.57045012E-05,0.00795041025,0.446608812,-1.76951278E-06,-0.0071047619,0.460461438,-1.95577718E-06,-0.00710460823,0.457546741
2026-04-28T18:21:41.8260757Z,5,-1.5499999,Race,true,false,68,Garage Test Track,16,Bullet,0,0,0,-140.37915,1.32107365,190.699982,-1.31876391E-06,-0.0182006974,-0.999834299,-0.99999994,8.75295427E-06,1.15964622E-06,8.7303988E-06,0.999834359,-0.0182006974,0.000316440535,0.000256495143,-0.00093647925,-3.6175923E-05,6.45628534E-05,0.000260682922,0,1,0,0,0,20,0.0200000014,0.0010212335,0.000988497864,0.000931655231,-0.00373128266,0.139740154,0.0100000007,0,0,0,0.100000001,0.100000001,4,983.251343,0.340000004,0,-3.14159131,-179.999908,0.0182017032,1.04288077,8.75440401E-06,0.000501590373,6.45628534E-05,-0.00910072587,4.37101926E-06,0.999958575,-6.19628224E-07,-140.37915,2.82511091,195.698608,-8.97886639E-06,-0.198784217,-0.980043232,1.74532926,1,goal_runtime,0x006742EC,0x006742EC,0x0067459C,0x07E5855C,0x00673FF8,0x2B721120,0x2B721120,0x07E58C7C,0x00673FF8,0x07E5A95C,0x00673FF8,0x2B721120,0x2B721120,2.04999852,11,5,1,0x07E5842C,0x00673FF8,0x07E5855C,0x00673FF8,0x07E586E0,0x00673FF8,0x07E587D8,0x00673FF8,0x07E588D0,0x00673FF8,,,1,0x2B722DCC,0,0.600000024,0,0,0,-0.0175310727,-0.0203117151,0.000418588286,0,0.0204654317,1,0x2B722DCC,0,0.600000024,0,0,0,0.0175485425,-0.0198975969,0.000419103686,0,0.0200543292,1,0x2B722DCC,0,0.600000024,0,0,0,0.0174514502,-0.0191323049,0.000170922285,0.000112412883,0.0192017276,1,0x2B722DCC,0,0.600000024,0,0,0,-0.0174475014,-0.0193052553,0.000171501364,6.28307867,0.0193746164,1,0,0,0.0100000007,100,0.0341240652,0.000421705743,0.139740154,-0.000366040855,0.000248061027,-0.00373128266,0.0272260513,2000,-0.00259996648,4.869037E-05,1,4844.66455,0,24.2233219,-0.00241353107,0.979415119,9.79415131,0.000418588315,-0.0017959039,-0.00259996648,4.869037E-05,0.000509289326,1,2000,-0.00243086973,4.86906974E-05,1,4844.66455,0,24.2233219,-0.00241631479,0.979415119,9.79415131,0.000419103715,-0.00175942935,-0.00243086973,4.86906974E-05,0.000476166169,1,2000,-0.0024913419,-0.000243372881,1,3129.10547,-4.3553071E-05,15.6455269,-0.00151038892,0.936205506,9.36205482,0.000170922285,-0.00169168855,-0.0024913419,-0.000243372881,0.000455176167,1,2000,-0.00253950479,-0.000243373317,1,3129.10547,4.3553202E-05,15.6455269,-0.0015155538,0.936205506,9.36205482,0.000171501364,-0.00170693931,-0.00253950479,-0.000243373317,0.00048680522,1,0.000147800878,0.021877028,0.364387393,0.000130478278,0.0218802094,0.375558734,2.91503948E-05,0.0185081884,0.333199441,3.46451961E-05,0.018510107,0.351133138
2026-04-28T18:21:41.9256307Z,6,-1.46,Race,true,false,68,Garage Test Track,16,Bullet,0,0,0,-140.37915,1.32109439,190.699768,-1.9676429E-06,-0.018188091,-0.999834776,-1.00000024,6.70940108E-06,1.84591715E-06,6.6747175E-06,0.999834597,-0.018188091,0.000177498674,0.000207679055,0.000497582427,-0.000246140495,-0.000197590896,0.000128716521,0,1,0,0,0,20,0.0200000014,0.000567648327,0.000528293545,-0.000501277857,-0.00247991085,0.148874655,0.0100000007,0,0,0,0.100000001,0.100000001,4,982.684814,0.340000004,0,-3.1415906,-179.999878,0.0181890912,1.04215813,6.71051112E-06,0.000384483952,-0.000197590896,-0.00909442082,3.34616789E-06,0.999958694,-9.53429435E-07,-140.37915,2.82513213,195.698395,-8.97886639E-06,-0.198784336,-0.980043232,1.74532926,1,goal_runtime,0x006742EC,0x006742EC,0x0067459C,0x07E5855C,0x00673FF8,0x2B721120,0x2B721120,0x07E58C7C,0x00673FF8,0x07E5A95C,0x00673FF8,0x2B721120,0x2B721120,2.13999844,11,5,1,0x07E5842C,0x00673FF8,0x07E5855C,0x00673FF8,0x07E586E0,0x00673FF8,0x07E587D8,0x00673FF8,0x07E588D0,0x00673FF8,,,1,0x2B722DCC,0,0.600000024,0,0,0,-0.0175329987,-0.021456141,0.000372032489,0,0.0215748474,1,0x2B722DCC,0,0.600000024,0,0,0,0.0175463855,-0.0205093902,0.000372742681,0,0.0206327066,1,0x2B722DCC,0,0.600000024,0,0,0,0.0174510814,-0.0201525725,-0.000224703283,8.36408581E-05,0.0202608909,1,0x2B722DCC,0,0.600000024,0,0,0,-0.0174479987,-0.019963529,-0.000224224001,6.28310776,0.0200721417,1,0,0,0.0100000007,100,0.00450558495,-0.00105920469,0.148874655,8.73869649E-05,0.000228863151,-0.00247991085,-0.000709724554,2000,-0.000950667367,-0.000253530248,1,4844.16895,0,24.2208443,-0.00214531878,0.979415119,9.79415131,0.000372032518,-0.00189713994,-0.000950667367,-0.000253530248,0.000186219622,1,2000,-0.000977985677,-0.000253529754,1,4844.16895,0,24.2208443,-0.0021493102,0.979415119,9.79415131,0.00037274271,-0.0018135201,-0.000977985677,-0.000253529754,0.000191570813,1,2000,-0.00121575024,-0.000206616824,1,3128.28784,-0.000171516411,15.6414385,0.00198609126,0.936205506,9.36205482,-0.000224703283,-0.00178186945,-0.00121575024,-0.000206616824,0.000183116208,1,2000,-0.000712900597,-0.000206617173,1,3128.28784,0.000171516411,15.6414385,0.00198177109,0.936205506,9.36205482,-0.000224224001,-0.00176521018,-0.000712900597,-0.000206617173,0.000178006507,1,-9.62987469E-05,-0.00232778979,0.0554707795,-0.000107847147,-0.00231805001,0.0289188679,-1.84401852E-05,-0.0197812766,0.0529581644,-2.48663109E-05,-0.0197862666,0.0348762572
2026-04-28T18:21:42.0256195Z,7,-1.3500000000000001,Race,true,false,68,Garage Test Track,16,Bullet,0,0,0,-140.37915,1.32110929,190.699463,2.25999247E-06,-0.0181733705,-0.999835253,-1.00000036,3.87617956E-06,-2.33082073E-06,3.91789808E-06,0.999834836,-0.0181733705,0.000123556558,6.76261698E-05,-0.00404605502,0.00031687232,0.00011323022,7.86069795E-05,0,1,0,0,0,20,0.0200000014,0.0040485058,0.00404794095,0.00404415978,-0.00129469438,-0.137568027,0.0100000007,0,0,0,0.100000001,0.100000001,4,981.96521,0.340000004,0,3.14159036,179.999863,0.0181743633,1.04131424,3.87681985E-06,0.000222125396,0.00011323022,-0.00908705965,1.94859967E-06,0.999958813,1.1477506E-06,-140.37915,2.82514548,195.69809,-8.97889367E-06,-0.198784605,-0.980043232,1.74532926,1,goal_runtime,0x006742EC,0x006742EC,0x0067459C,0x07E5855C,0x00673FF8,0x2B721120,0x2B721120,0x07E58C7C,0x00673FF8,0x07E5A95C,0x00673FF8,0x2B721120,0x2B721120,2.24999833,11,5,1,0x07E5842C,0x00673FF8,0x07E5855C,0x00673FF8,0x07E586E0,0x00673FF8,0x07E587D8,0x00673FF8,0x07E588D0,0x00673FF8,,,1,0x2B722DCC,0,0.600000024,0,0,0,-0.0175357163,-0.00090347958,-0.000200969298,0,0.0033042538,1,0x2B722DCC,0,0.600000024,0,0,0,0.0175435562,-0.00105757185,-0.000200200651,0,0.00355837354,1,0x2B722DCC,0,0.600000024,0,0,0,0.0174502786,-0.000944097061,2.95718201E-06,4.86567005E-05,0.00326923584,1,0x2B722DCC,0,0.600000024,0,0,0,-0.017448809,-0.000745971804,3.49616312E-06,6.28314209,0.00290602958,1,0,0,0.0100000007,100,-0.0107291192,-0.00137403212,-0.137568027,0.000338138954,9.51068141E-05,-0.00129469438,-0.0166268926,2000,-0.00274223834,-0.000537499378,1,4843.0376,0,24.2151871,0.00317690941,0.979415119,9.79415131,-0.000200969298,-0.000273542799,-0.00274223834,-0.000537499378,0.00053715799,1,2000,-0.00301924534,-0.000537500717,1,4843.0376,0,24.2151871,0.00339605496,0.979415119,9.79415131,-0.000200200651,-0.00029732837,-0.00301924534,-0.000537500717,0.000591418997,1,2000,-0.003070103,-5.95523306E-05,1,3129.6106,-3.67943358E-05,15.6480522,-0.00312848599,0.936205506,9.36205482,2.95718201E-06,-0.000288906012,-0.003070103,-5.95523306E-05,0.000565298425,1,2000,-0.00269136182,-5.95535857E-05,1,3129.6106,3.67943358E-05,15.6480522,-0.00280742696,0.936205506,9.36205482,3.49616312E-06,-0.000256802683,-0.00269136182,-5.95535857E-05,0.000513484643,1,-0.000135879949,-0.0286500882,-0.913529575,-0.000141467885,-0.0286471657,-0.853716612,-4.01399993E-05,0.0113830222,-0.849582672,-4.05125284E-05,0.0113860071,-0.858305514
2026-04-28T18:21:42.1254718Z,8,-1.25,Race,true,false,68,Garage Test Track,16,Bullet,0,0,0,-140.37915,1.32111073,190.699173,-2.35082598E-06,-0.0181670673,-0.999835253,-1.00000024,1.03512448E-05,2.16313128E-06,1.03102393E-05,0.999834955,-0.0181670673,-0.000137421011,-2.87289204E-05,-0.00377845974,0.000149721265,0.00033996164,-3.95440511E-05,0,1,0,0,0,20,0.0200000014,0.00378106697,0.00378095778,0.00377835939,-0.00407604594,0.0148793086,0.0100000007,0,0,0,0.100000001,0.100000001,4,981.298584,0.340000004,0,-3.14159036,-179.999863,0.018168062,1.04095316,1.03529537E-05,0.000593180535,0.00033996164,-0.00908390805,5.16558384E-06,0.999958813,-1.12853581E-06,-140.37915,2.82514524,195.6978,-8.97889367E-06,-0.198784277,-0.980043292,1.74532926,1,goal_runtime,0x006742EC,0x006742EC,0x0067459C,0x07E5855C,0x00673FF8,0x2B721120,0x2B721120,0x07E58C7C,0x00673FF8,0x07E5A95C,0x00673FF8,0x2B721120,0x2B721120,2.34999824,11,5,1,0x07E5842C,0x00673FF8,0x07E5855C,0x00673FF8,0x07E586E0,0x00673FF8,0x07E587D8,0x00673FF8,0x07E588D0,0x00673FF8,,,1,0x2B722DCC,0,0.600000024,0,0,0,-0.0175292473,-0.012906272,0.000240907306,0,0.0129867503,1,0x2B722DCC,0,0.600000024,0,0,0,0.0175499134,-0.0129196476,0.000241776695,0,0.0130006075,1,0x2B722DCC,0,0.600000024,0,0,0,0.0174518656,-0.0124627724,0.000188352744,3.4628396E-05,0.0125789726,1,0x2B722DCC,0,0.600000024,0,0,0,-0.0174471065,-0.0122243343,0.000188779202,6.28315592,0.0123430826,1,0,0,0.0100000007,100,0.0125866346,-0.000314636854,0.0148793086,-0.00038915372,-2.24361829E-05,-0.00407604594,0.0305025578,2000,-0.00488291448,0.000940218219,1,4842.62695,0,24.2131348,-0.00138981733,0.979415119,9.79415131,0.000240907306,-0.00114105502,-0.00488291448,0.000940218219,0.0009564801,1,2000,-0.00428087497,0.000940216763,1,4842.62695,0,24.2131348,-0.00139474007,0.979415119,9.79415131,0.000241776695,-0.00114231592,-0.00428087497,0.000940216763,0.000838550855,1,2000,-0.00428120792,-9.87840322E-05,1,3130.79053,0,15.6539526,-0.00166381162,0.936205506,9.36205482,0.000188352744,-0.00110191351,-0.00428120792,-9.87840322E-05,0.000801618153,1,2000,-0.00488262437,-9.87823441E-05,1,3130.79053,0,15.6539526,-0.00166769477,0.936205506,9.36205482,0.000188779202,-0.00108075794,-0.00488262437,-9.87823441E-05,0.000914228032,1,0.000323448301,0.0220938288,0.48412481,0.000317860366,0.0220988654,0.472111702,7.93486761E-05,0.00926977769,0.465486825,8.5122876E-05,0.00926415157,0.471852601
2026-04-28T18:21:42.2255109Z,9,-1.1499999000000001,Race,true,false,68,Garage Test Track,16,Bullet,0,0,0,-140.37915,1.32110429,190.698914,-2.78525499E-06,-0.0181744173,-0.999834776,-0.99999994,8.9068044E-06,2.62381241E-06,8.85764621E-06,0.999834836,-0.0181744173,-0.000102072183,-7.61295159E-05,-0.00104010873,-0.000292919984,-0.000152971625,-8.3584302E-05,0,1,0,0,0,20,0.0200000014,0.00104787434,0.00104510528,0.00104132085,-0.00379637466,0.137813285,0.0100000007,0,0,0,0.100000001,0.100000001,4,980.593567,0.340000004,0,-3.14158988,-179.999832,0.0181754194,1.0413748,8.90827596E-06,0.000510406564,-0.000152971625,-0.00908758398,4.44129591E-06,0.999958694,-1.35232267E-06,-140.37915,2.82513785,195.69754,-8.97889367E-06,-0.198784038,-0.980043292,1.74532926,1,goal_runtime,0x006742EC,0x006742EC,0x0067459C,0x07E5855C,0x00673FF8,0x2B721120,0x2B721120,0x07E58C7C,0x00673FF8,0x07E5A95C,0x00673FF8,0x2B721120,0x2B721120,2.44999814,11,5,1,0x07E5842C,0x00673FF8,0x07E5855C,0x00673FF8,0x07E586E0,0x00673FF8,0x07E587D8,0x00673FF8,0x07E588D0,0x00673FF8,,,1,0x2B722DCC,0,0.600000024,0,0,0,-0.0175306872,-0.0205214508,0.000398858887,0,0.0206609741,1,0x2B722DCC,0,0.600000024,0,0,0,0.0175485853,-0.0193895064,0.000399906683,0,0.0195362065,1,0x2B722DCC,0,0.600000024,0,0,0,0.0174514931,-0.0187464096,-0.000232175647,6.28318501,0.0188679285,1,0x2B722DCC,0,0.600000024,0,0,0,-0.0174475946,-0.0194271449,-0.000231706188,5.7220459E-06,0.0195448454,1,0,0,0.0100000007,100,0.00384764397,-6.67438071E-05,0.137813285,-0.000179025068,-7.47946397E-05,-0.00379637466,0.00823217165,2000,-0.00256613968,0.000288711482,1,4844.08105,0,24.2204056,-0.00230008224,0.979415119,9.79415131,0.000398858916,-0.00181446422,-0.00256613968,0.000288711482,0.000502663257,1,2000,-0.00247676205,0.000288710697,1,4844.08105,0,24.2204056,-0.00230599009,0.979415119,9.79415131,0.000399906712,-0.00171447895,-0.00247676205,0.000288710697,0.000485155702,1,2000,-0.00268173777,0.000134625632,1,3129.34717,-0.000147818224,15.6467352,0.00205164053,0.936205506,9.36205482,-0.000232175647,-0.00165749853,-0.00268173777,0.000134625632,0.000463760894,1,2000,-0.00236117071,0.000134625676,1,3129.34717,0.000147818224,15.6467352,0.00204738043,0.936205506,9.36205482,-0.000231706188,-0.00171777746,-0.00236117071,0.000134625676,0.000480478862,1,-7.19912277E-05,0.00789757818,0.383711159,-6.64032923E-05,0.00790649839,0.326779932,-1.86264497E-05,-0.0210264195,0.314447761,-2.44006496E-05,-0.0210242681,0.36008811
2026-04-28T18:21:42.3257970Z,10,-1.0499999,Race,true,false,68,Garage Test Track,16,Bullet,0,0,0,-140.37915,1.32109582,190.698685,7.71184716E-07,-0.0181866828,-0.999834776,-1.00000012,4.09348695E-06,-8.45771581E-07,4.10819166E-06,0.999834597,-0.0181866828,0.00029522003,-8.37703919E-05,-0.00135761185,-0.000200915689,-0.000206581637,0.000184526827,0,1,0,0,0,20,0.0200000014,0.00139186287,0.00138933968,0.00135891128,-0.0010431686,-0.0157221612,0.0100000007,0,0,0,0.100000001,0.100000001,4,979.85144,0.340000004,-1.59161573E-11,3.14159179,179.999939,0.0181876831,1.04207742,4.09416407E-06,0.000234578314,-0.000206581637,-0.00909371674,2.05050446E-06,0.999958694,4.04255786E-07,-140.37915,2.82512951,195.697311,-8.97886821E-06,-0.198783517,-0.980043471,1.74532926,1,goal_runtime,0x006742EC,0x006742EC,0x0067459C,0x07E5855C,0x00673FF8,0x2B721120,0x2B721120,0x07E58C7C,0x00673FF8,0x07E5A95C,0x00673FF8,0x2B721120,0x2B721120,2.54999804,11,5,1,0x07E5842C,0x00673FF8,0x07E5855C,0x00673FF8,0x07E586E0,0x00673FF8,0x07E587D8,0x00673FF8,0x07E588D0,0x00673FF8,,,1,0x2B722DCC,0,0.600000024,0,0,0,-0.0175356157,0.000330082927,0.000129678592,0,0.00200710655,1,0x2B722DCC,0,0.600000024,0,0,0,0.0175437685,0.000312420016,0.000130777495,0,0.00195719278,1,0x2B722DCC,0,0.600000024,0,0,0,0.0174503718,0.000363621017,-0.000177345224,6.28316402,0.00235218531,1,0x2B722DCC,0,0.600000024,0,0,0,-0.0174487084,0.000364887674,-0.000176913192,2.64786122E-05,0.00235096226,1,0,0,0.0100000007,100,-0.000388688903,-0.00046212622,-0.0157221612,0.000302993809,-7.45278667E-05,-0.0010431686,-0.00590452086,2000,0.000611580501,-0.000464771525,1,4846.07227,0,24.23036,-0.00197890704,0.979415119,9.79415131,0.000129678592,0.000164527562,0.000611580501,-0.000464771525,0.000119798249,1,2000,0.000571617042,-0.000464770739,1,4846.07227,0,24.23036,-0.00193131168,0.979415119,9.79415131,0.000130777495,0.000159689822,0.000571617042,-0.000464770739,0.000111970083,1,2000,0.000571639393,-0.00039624708,1,3126.99097,0,15.6349545,0.00232295087,0.936205506,9.36205482,-0.000177345224,0.000154650872,0.000571639393,-0.00039624708,0.000107034393,1,2000,0.000611560943,-0.000396247633,1,3126.99097,0,15.6349545,0.00232142489,0.936205506,9.36205482,-0.000176913192,0.000155276182,0.000611560943,-0.000396247633,0.000114509348,1,-0.000246427924,-0.0134590128,-0.932693303,-0.000240840003,-0.0134564573,-0.878950596,-5.60656154E-05,0.00274152099,-0.825787067,-5.56930863E-05,0.0027396495,-0.859694123
2026-04-28T18:21:42.4254710Z,11,-0.94999990000000001,Race,true,false,68,Garage Test Track,16,Bullet,0,0,0,-140.37915,1.32108986,190.698395,4.36452501E-06,-0.0181880761,-0.999834776,-1.00000024,4.58098248E-06,-4.44858051E-06,4.66113624E-06,0.999834597,-0.0181880761,2.36494452E-06,-4.79237715E-05,-0.00409169542,0.000217343331,4.84255033E-05,-4.9331743E-06,0,1,0,0,0,20,0.0200000014,0.00409197668,0.00409169588,0.00409189099,-0.00135305058,-0.136932224,0.0100000007,0,0,0,0.100000001,0.100000001,4,979.085388,0.340000004,-8.73114914E-11,3.14158821,179.999741,0.0181890763,1.04215729,4.58174009E-06,0.000262514368,4.84255033E-05,-0.00909441337,2.31062518E-06,0.999958694,2.20336733E-06,-140.37915,2.82512379,195.697021,-8.97886821E-06,-0.198783562,-0.980043471,1.74532926,1,goal_runtime,0x006742EC,0x006742EC,0x0067459C,0x07E5855C,0x00673FF8,0x2B721120,0x2B721120,0x07E58C7C,0x00673FF8,0x07E5A95C,0x00673FF8,0x2B721120,0x2B721120,2.64999795,11,5,1,0x07E5842C,0x00673FF8,0x07E5855C,0x00673FF8,0x07E586E0,0x00673FF8,0x07E587D8,0x00673FF8,0x07E588D0,0x00673FF8,,,1,0x2B722DCC,0,0.600000024,0,0,0,-0.0175351277,-0.000892205629,-0.000243743401,0,0.00333623053,1,0x2B722DCC,0,0.600000024,0,0,0,0.0175443757,-0.0011527281,-0.000242438793,0,0.00375094614,1,0x2B722DCC,0,0.600000024,0,0,0,0.0174503829,-0.00129252241,0.00012027724,6.28312969,0.00389944529,1,0x2B722DCC,0,0.600000024,0,0,0,-0.017448578,-0.000641474151,0.000120621029,6.08226546E-05,0.00280263997,1,0,0,0.0100000007,100,-0.00896314997,0.000353766867,-0.136932224,0.000181627955,-5.49991091E-05,-0.00135305058,-0.0107412804,2000,-0.0026719789,-0.00043838087,1,4844.81738,0,24.2240868,0.00321326312,0.979415119,9.79415131,-0.000243743401,-0.00026754156,-0.0026719789,-0.00043838087,0.000523395371,1,2000,-0.00313424878,-0.000438382849,1,4844.81738,0,24.2240868,0.0035678423,0.979415119,9.79415131,-0.000242438793,-0.000307440292,-0.00313424878,-0.000438382849,0.000613946177,1,2000,-0.00345188053,0.00035972285,1,3129.25781,-0.000229298283,15.6462889,-0.00367731345,0.936205506,9.36205482,0.00012027724,-0.000331598683,-0.00345188053,0.00035972285,0.000586812675,1,2000,-0.00235431362,0.0003597248,1,3129.25781,0.000229298283,15.6462889,-0.00272706035,0.936205506,9.36205482,0.000120621029,-0.000228976045,-0.00235431362,0.0003597248,0.000500345544,1,2.44006496E-05,-0.0186710991,0.0664561912,3.03611141E-05,-0.0186608136,0.0896876603,5.58793488E-07,0.0148811219,0.0773629919,6.51925757E-06,0.0148767103,0.0225838833
2026-04-28T18:21:42.5255483Z,12,-0.84999999999999998,Race,true,false,68,Garage Test Track,16,Bullet,0,0,0,-140.37915,1.32108819,190.698105,8.35978483E-07,-0.0181848835,-0.999834776,-1.00000012,1.17630634E-05,-1.050062E-06,1.17802128E-05,0.999834657,-0.0181848835,-0.000373553339,3.85342628E-06,-0.00378612638,0.0001714932,9.15338169E-05,-0.000257190724,0,1,0,0,0,20,0.0200000014,0.00380451186,0.00380450976,0.00378543045,-0.00409062859,0.0152251087,0.0100000007,0,0,0,0.100000001,0.100000001,4,978.297729,0.340000004,0,3.14159179,179.999939,0.0181858838,1.04197431,1.17650088E-05,0.000674085342,9.15338169E-05,-0.00909281708,5.88606235E-06,0.999958694,4.71529603E-07,-140.37915,2.82512236,195.696732,-8.97886821E-06,-0.198783636,-0.980043471,1.74532926,1,goal_runtime,0x006742EC,0x006742EC,0x0067459C,0x07E5855C,0x00673FF8,0x2B721120,0x2B721120,0x07E58C7C,0x00673FF8,0x07E5A95C,0x00673FF8,0x2B721120,0x2B721120,2.74999785,11,5,1,0x07E5842C,0x00673FF8,0x07E5855C,0x00673FF8,0x07E586E0,0x00673FF8,0x07E587D8,0x00673FF8,0x07E588D0,0x00673FF8,,,1,0x2B722DCC,0,0.600000024,0,0,0,-0.0175279491,-0.0129577732,0.000144607169,0,0.0129905399,1,0x2B722DCC,0,0.600000024,0,0,0,0.0175514389,-0.0129578887,0.000145900733,0,0.0129910335,1,0x2B722DCC,0,0.600000024,0,0,0,0.0174520835,-0.0121357124,0.00017655344,6.28313351,0.0122410031,1,0x2B722DCC,0,0.600000024,0,0,0,-0.0174470004,-0.0126381675,0.000176963542,5.71601049E-05,0.0127402386,1,0,0,0.0100000007,100,-0.0255499538,0.000885530899,0.0152251087,0.00013744575,-1.38571922E-05,-0.00409062859,0.0324008092,2000,-0.00463996781,0.000922560459,1,4843.91797,0,24.2195892,-0.000833962986,0.979415119,9.79415131,0.000144607169,-0.00114564085,-0.00463996781,0.000922560459,0.00090889103,1,2000,-0.00456106057,0.000922559644,1,4843.91797,0,24.2195892,-0.000841415371,0.979415119,9.79415131,0.000145900733,-0.00114566961,-0.00456106057,0.000922559644,0.000893434451,1,2000,-0.0045210449,0.000787262688,1,3130.48047,2.88966112E-05,15.6524019,-0.00155971211,0.936205506,9.36205482,0.00017655344,-0.00107299327,-0.0045210449,0.000787262688,0.00085402641,1,2000,-0.00467999,0.000787264667,1,3130.48047,-2.88966239E-05,15.6524019,-0.00156341167,0.936205506,9.36205482,0.000176963542,-0.00111735566,-0.00467999,0.000787264667,0.000868785603,1,0.000358931691,0.0194175281,0.482715458,0.000353157491,0.0194169749,0.462004334,8.50297438E-05,0.00281380978,0.417077899,7.88830148E-05,0.00281712553,0.496879876
2026-04-28T18:21:42.6260254Z,13,-0.75,Race,true,false,68,Garage Test Track,16,Bullet,0,0,0,-140.37915,1.3210901,190.697845,-4.23036454E-06,-0.018186098,-0.999834776,-1.00000012,7.39081952E-06,4.09663153E-06,7.3150959E-06,0.999834597,-0.018186098,0.000200864568,3.34030992E-05,-0.00101653347,-0.000206934434,-2.85649148E-05,0.00017651316,0,1,0,0,0,20,0.0200000014,0.00103672687,0.00103618857,0.00101575721,-0.00377242989,0.137794808,0.0100000007,0,0,0,0.100000001,0.100000001,4,977.479309,0.340000004,0,-3.14158845,-179.999756,0.0181870982,1.04204392,7.39204233E-06,0.000423532794,-2.85649148E-05,-0.00909342431,3.67663074E-06,0.999958694,-2.08183496E-06,-140.37915,2.82512426,195.696472,-8.97886821E-06,-0.198783636,-0.980043471,1.74532926,1,goal_runtime,0x006742EC,0x006742EC,0x0067459C,0x07E5855C,0x00673FF8,0x2B721120,0x2B721120,0x07E58C7C,0x00673FF8,0x07E5A95C,0x00673FF8,0x2B721120,0x2B721120,2.84999776,11,5,1,0x07E5842C,0x00673FF8,0x07E5855C,0x00673FF8,0x07E586E0,0x00673FF8,0x07E587D8,0x00673FF8,0x07E588D0,0x00673FF8,,,1,0x2B722DCC,0,0.600000024,0,0,0,-0.0175323188,-0.0204617251,0.000498581678,0,0.0206736699,1,0x2B722DCC,0,0.600000024,0,0,0,0.0175470654,-0.0194605235,0.000500125461,0,0.0196832139,1,0x2B722DCC,0,0.600000024,0,0,0,0.017451046,-0.018980138,-0.000159072195,6.28309584,0.0190418363,1,0x2B722DCC,0,0.600000024,0,0,0,-0.0174479149,-0.0192094203,-0.000158792653,9.44405692E-05,0.0192705318,1,0,0,0.0100000007,100,0.0169279128,0.000373796007,0.137794808,-0.000137693714,2.59271783E-05,-0.00377242989,0.00989366882,2000,-0.00268131215,6.99620941E-05,1,4844.54541,0,24.2227268,-0.00287489011,0.979415119,9.79415131,0.000498581736,-0.00180914137,-0.00268131215,6.99620941E-05,0.000525223557,1,2000,-0.00236613303,6.99609373E-05,1,4844.54541,0,24.2227268,-0.00288348715,0.979415119,9.79415131,0.000500125519,-0.0017208046,-0.00236613303,6.99609373E-05,0.000463485339,1,2000,-0.00236605294,-0.000474443281,1,3129.18115,1.83310789E-07,15.6459055,0.00140569394,0.936205506,9.36205482,-0.000159072195,-0.00167818798,-0.00236605294,-0.000474443281,0.000443069934,1,2000,-0.00268141739,-0.000474445143,1,3129.18115,-1.83310789E-07,15.6459055,0.00140319683,0.936205506,9.36205482,-0.000158792653,-0.00169850409,-0.00268141739,-0.000474445143,0.000502024021,1,-0.000218488261,0.0176987257,0.384156466,-0.000218674526,0.0177112352,0.334609002,-5.18746638E-05,-0.0167812798,0.340041637,-4.57279348E-05,-0.0167878084,0.326514632
2026-04-28T18:21:42.7255351Z,14,-0.64999989999999996,Race,true,false,68,Garage Test Track,16,Bullet,0,0,0,-140.37915,1.32109296,190.697632,1.34672234E-07,-0.0181901306,-0.999834776,-1.00000024,6.22498601E-06,-2.47946559E-07,6.22846665E-06,0.999834538,-0.0181901306,0.000292363839,2.38598041E-05,-0.000732563611,-0.00019704162,-3.4233879E-05,0.000220356422,0,1,0,0,0,20,0.0200000014,0.000789110491,0.00078874972,0.000732008601,-0.00101191073,0.0139673548,0.0100000007,0,0,0,0.100000001,0.100000001,4,976.610596,0.340000004,0,3.1415925,179.999985,0.018191129,1.04227483,6.22601601E-06,0.000356724428,-3.4233879E-05,-0.00909544062,3.11349186E-06,0.999958694,9.5658649E-08,-140.37915,2.82512712,195.696259,-8.97886821E-06,-0.198783636,-0.980043471,1.74532926,1,goal_runtime,0x006742EC,0x006742EC,0x0067459C,0x07E5855C,0x00673FF8,0x2B721120,0x2B721120,0x07E58C7C,0x00673FF8,0x07E5A95C,0x00673FF8,0x2B721120,0x2B721120,2.94999766,11,5,1,0x07E5842C,0x00673FF8,0x07E5855C,0x00673FF8,0x07E586E0,0x00673FF8,0x07E587D8,0x00673FF8,0x07E588D0,0x00673FF8,,,1,0x2B722DCC,0,0.600000024,0,0,0,-0.0175334848,0.000381436927,0.000244298048,0,0.0023302529,1,0x2B722DCC,0,0.600000024,0,0,0,0.0175460186,0.000369316404,0.000245888426,0,0.00230179215,1,0x2B722DCC,0,0.600000024,0,0,0,0.0174509529,-0.0201923754,5.44811628E-05,6.28307009,0.0202087648,1,0x2B722DCC,0,0.600000024,0,0,0,-0.0174481235,0.00026230095,5.48105745E-05,0.000120246339,0.00175776111,1,0,0,0.0100000007,100,0.0198796485,-0.000710084685,0.0139673548,-0.000105229185,3.80614983E-05,-0.00101191073,0.0253155362,2000,0.000784870121,-0.000302387925,1,4845.74902,0,24.2287445,-0.0022978601,0.979415119,9.79415131,0.000244298048,0.000163755787,0.000784870121,-0.000302387925,0.000153742745,1,2000,0.000406220293,-0.000302388013,1,4845.74902,0,24.2287445,-0.00227097888,0.979415119,9.79415131,0.000245888426,0.000160515629,0.000406220293,-0.000302388013,7.95716696E-05,1,2000,-2.85334827E-05,0.000351399969,1,3127.04199,-0.000313747994,15.63521,-0.000481680123,0.936205506,9.36205482,5.44811628E-05,-0.00178542174,-2.85334827E-05,0.000351399969,7.61000338E-05,1,2000,0.00121964829,0.000351399969,1,3127.04199,0.000313748082,15.63521,-0.00173729123,0.936205506,9.36205482,5.48105745E-05,0.000149290718,0.00121964829,0.000351399969,0.000146925595,1,-5.83007895E-05,-0.0127141802,-0.917170763,-5.23403251E-05,-0.0127118509,-0.869071066,-4.65661242E-06,0.0106776673,0.0583464243,-1.04308119E-05,0.0106801605,-0.875638485
2026-04-28T18:21:42.8259899Z,15,-0.55000000000000004,Race,true,false,68,Garage Test Track,16,Bullet,0,0,0,-140.37915,1.32109475,190.697403,2.69199973E-06,-0.0181901958,-0.999834776,-1.00000024,1.11682357E-05,-2.89563104E-06,1.12190601E-05,0.999834538,-0.0181901958,-0.000385004678,5.15550528E-06,-0.00150536804,-5.46914926E-05,-0.000394036295,-0.000298263942,0,1,0,0,0,20,0.0200000014,0.00155383011,0.00155382161,0.0015050245,-0.000138265401,-0.0683551282,0.0100000007,0,0,0,0.100000001,0.100000001,4,975.715271,0.340000004,2.91038305E-11,3.14158988,179.999832,0.0181911942,1.04227865,1.11700838E-05,0.000639998645,-0.000394036295,-0.00909547321,5.59705495E-06,0.999958694,1.39696544E-06,-140.37915,2.82512856,195.69603,-8.97886821E-06,-0.198783517,-0.980043471,1.74532926,1,goal_runtime,0x006742EC,0x006742EC,0x0067459C,0x07E5855C,0x00673FF8,0x2B721120,0x2B721120,0x07E58C7C,0x00673FF8,0x07E5A95C,0x00673FF8,0x2B721120,0x2B721120,3.04999757,11,5,1,0x07E5842C,0x00673FF8,0x07E5855C,0x00673FF8,0x07E586E0,0x00673FF8,0x07E587D8,0x00673FF8,0x07E588D0,0x00673FF8,,,1,0x2B722DCC,0,0.600000024,0,0,0,-0.0175285414,-0.0217437353,0.000183410069,0,0.0217812955,1,0x2B722DCC,0,0.600000024,0,0,0,0.0175508428,-7.7173363E-06,0.000184938574,0,0.0010667668,1,0x2B722DCC,0,0.600000024,0,0,0,0.0174520817,-4.74861781E-06,-0.000106162101,6.28308821,0.000942364917,1,0x2B722DCC,0,0.600000024,0,0,0,-0.0174469966,-0.000182119693,-0.000105777755,0.000102338279,0.00159473007,1,0,0,0.0100000007,100,-0.00751020713,-0.000672860304,-0.0683551282,-0.000234800522,1.86127127E-05,-0.000138265401,0.0113321235,2000,-0.000862470013,0.00062709226,1,4845.12695,0,24.2256336,-0.00105735264,0.979415119,9.79415131,0.000183410069,-0.00192261348,-0.000862470013,0.00062709226,0.000168943254,1,2000,-0.000849270145,0.000627091387,1,4845.12695,0,24.2256336,-0.00106625527,0.979415119,9.79415131,0.000184938574,-7.23760468E-06,-0.000849270145,0.000627091387,0.000166357611,1,2000,-0.00103978021,0.000604979054,1,3128.0564,-0.000137413546,15.6402817,0.000941935985,0.936205506,9.36205482,-0.000106162101,-5.04127411E-06,-0.00103978021,0.000604979054,0.000159019808,1,2000,-0.000671960879,0.000604980218,1,3128.0564,0.000137413546,15.6402817,0.00158358435,0.936205506,9.36205482,-0.000105777755,-0.00011425167,-0.000671960879,0.000604980218,0.000161488497,1,0.000247172982,-0.00304439873,0.972552061,0.000241212532,-0.00304749236,-0.0617512651,5.64381444E-05,-0.00803216267,-0.963319957,5.63450121E-05,-0.0080294162,-0.00815155171
2026-04-28T18:21:42.9254195Z,16,-0.44999990000000001,Race,true,false,68,Garage Test Track,16,Bullet,0,0,0,-140.37915,1.32109404,190.697205,-1.8840841E-06,-0.0181836057,-0.999834776,-1.00000012,1.0693424E-05,1.68991858E-06,1.06609277E-05,0.999834657,-0.0181836057,-0.000217956331,-5.50994264E-06,-0.0045079859,0.000403788814,-4.29294923E-05,-0.000144837089,0,1,0,0,0,20,0.0200000014,0.00451325532,0.0045132516,0.00450734142,-0.00317808613,-0.0664949864,0.0100000007,0,0,0,0.100000001,0.100000001,4,974.784668,0.340000004,-1.16415322E-10,-3.14159083,-179.999893,0.018184606,1.04190111,1.0695192E-05,0.000612789358,-4.29294923E-05,-0.0090921782,5.33880848E-06,0.999958694,-8.9353756E-07,-140.37915,2.82512712,195.695831,-8.97886821E-06,-0.198783368,-0.980043471,1.74532926,1,goal_runtime,0x006742EC,0x006742EC,0x0067459C,0x07E5855C,0x00673FF8,0x2B721120,0x2B721120,0x07E58C7C,0x00673FF8,0x07E5A95C,0x00673FF8,0x2B721120,0x2B721120,3.14999747,11,5,1,0x07E5842C,0x00673FF8,0x07E5855C,0x00673FF8,0x07E586E0,0x00673FF8,0x07E587D8,0x00673FF8,0x07E588D0,0x00673FF8,,,1,0x2B722DCC,0,0.600000024,0,0,0,-0.0175290182,-0.00788612105,0.000269365846,0,0.009513041,1,0x2B722DCC,0,0.600000024,0,0,0,0.0175503697,-0.00565311499,0.000270589575,0,0.00807582121,1,0x2B722DCC,0,0.600000024,0,0,0,0.0174519662,-0.00541639933,-0.000141455894,6.2831068,0.00788065698,1,0x2B722DCC,0,0.600000024,0,0,0,-0.0174471159,-0.00722502219,-0.000140764838,8.42399531E-05,0.00908650551,1,0,0,0.0100000007,100,0.00992065575,0.000624903652,-0.0664949864,-0.000416369468,-1.80080169E-05,-0.00317808613,0.0224582981,2000,-0.00488946354,0.00115573918,1,4843.47949,0,24.2173977,-0.00531302765,0.979415119,9.79415131,0.000269365846,-0.000829341065,-0.00488946354,0.00115573918,0.000957762939,1,2000,-0.0039690081,0.00115573197,1,4843.47949,0,24.2173977,-0.00576240849,0.979415119,9.79415131,0.000270589575,-0.000700304809,-0.0039690081,0.00115573197,0.000777461333,1,2000,-0.00413702661,-0.00043309186,1,3130.80322,-0.00012083249,15.6540155,0.00571971759,0.936205506,9.36205482,-0.000141455894,-0.000687592081,-0.00413702661,-0.00043309186,0.000743255718,1,2000,-0.0047215079,-0.000433092966,1,3130.80322,0.000120832447,15.6540155,0.00550392037,0.936205506,9.36205482,-0.000140764838,-0.000795477303,-0.0047215079,-0.000433092966,0.000915426062,1,-2.38418561E-05,0.00429778872,-0.613412678,-2.36555916E-05,0.00428254995,0.350452691,-5.77419951E-06,-0.00176468957,0.346914589,-5.96046402E-06,-0.00174935395,0.374588728
2026-04-28T18:21:43.0258296Z,17,-0.34999989999999997,Race,true,false,68,Garage Test Track,16,Bullet,0,0,0,-140.37915,1.32109451,190.696945,1.53476969E-06,-0.018175764,-0.999834776,-0.99999994,3.4052498E-06,-1.59692661E-06,3.43371244E-06,0.999834836,-0.018175764,-0.000233209619,1.7715116E-05,-0.00258812727,5.35338731E-05,-0.000219899564,-0.000228870718,0,1,0,0,0,20,0.0200000014,0.00259867334,0.00259861303,0.00258737733,-0.00441492582,0.0913399234,0.0100000007,0,0,0,0.100000001,0.100000001,4,973.821411,0.340000004,-2.32830644E-10,3.14159107,179.999893,0.0181767661,1.04145193,3.40581232E-06,0.000195138666,-0.000219899564,-0.00908825733,1.70981116E-06,0.999958694,7.8295642E-07,-140.37915,2.82512712,195.695572,-8.97889458E-06,-0.198783845,-0.980043352,1.74532926,1,goal_runtime,0x006742EC,0x006742EC,0x0067459C,0x07E5855C,0x00673FF8,0x2B721120,0x2B721120,0x07E58C7C,0x00673FF8,0x07E5A95C,0x00673FF8,0x2B721120,0x2B721120,3.24999738,11,5,1,0x07E5842C,0x00673FF8,0x07E5855C,0x00673FF8,0x07E586E0,0x00673FF8,0x07E587D8,0x00673FF8,0x07E588D0,0x00673FF8,,,1,0x2B722DCC,0,0.600000024,0,0,0,-0.0175361875,-0.0170598514,-0.000263152702,0,0.0171356648,1,0x2B722DCC,0,0.600000024,0,0,0,0.0175430849,-0.016363306,-0.000261993584,0,0.0164409354,1,0x2B722DCC,0,0.600000024,0,0,0,0.017450165,-0.0153086325,-0.000487699086,6.2830987,0.0159111395,1,0x2B722DCC,0,0.600000024,0,0,0,-0.0174488053,-0.0166428927,-0.000487004203,9.22151448E-05,0.0171982832,1,0,0,0.0100000007,100,-0.0456957705,0.000663921353,0.0913399234,0.000680705823,4.43668796E-06,-0.00441492582,-0.0444434658,2000,-0.00380682107,-0.000304406334,1,4843.44336,0,24.2172165,0.00151770306,0.979415119,9.79415131,-0.000263152702,-0.00150842301,-0.00380682107,-0.000304406334,0.000745691708,1,2000,-0.00388867082,-0.000304406305,1,4843.44336,0,24.2172165,0.00151111127,0.979415119,9.79415131,-0.000261993584,-0.00144675851,-0.00388867082,-0.000304406305,0.000761724717,1,2000,-0.00423379848,-0.000163344535,1,3130.6272,-0.000248981582,15.6531353,0.00430886215,0.936205506,9.36205482,-0.000487699115,-0.00135334744,-0.00423379848,-0.000163344535,0.00072811055,1,2000,-0.00346168689,-0.000163344535,1,3130.6272,0.000248981727,15.6531353,0.00430157129,0.936205506,9.36205482,-0.000487004232,-0.00147169805,-0.00346168689,-0.000163344535,0.000712800771,1,-0.00035846603,-0.0266259257,0.381131172,-0.00036424023,-0.0266291555,0.418255687,-9.00588857E-05,-0.0173121598,0.401524097,-8.44709502E-05,-0.0173119679,0.405588865
2026-04-28T18:21:43.1255010Z,18,-0.25,Race,true,false,68,Garage Test Track,16,Bullet,0,0,0,-140.37915,1.3210963,190.696716,4.64582217E-06,-0.0181796402,-0.999834776,-1,7.57325597E-06,-4.78429183E-06,7.6589813E-06,0.999834716,-0.0181796402,-0.000278182735,1.93176893E-05,0.000532772276,-0.000434507878,0.000231671875,-0.000176201793,0,1,0,0,0,20,0.0200000014,0.000601336127,0.000601025764,-0.000533036771,-0.00248208665,0.150742933,0.0100000007,0,0,0,0.100000001,0.100000001,4,972.816711,0.340000004,0,3.14158797,179.999725,0.0181806404,1.0416739,7.57450789E-06,0.000433987298,0.000231671875,-0.00909019541,3.80821666E-06,0.999958694,2.35762582E-06,-140.37915,2.82512856,195.695343,-8.97889458E-06,-0.1987838,-0.980043352,1.74532926,1,goal_runtime,0x006742EC,0x006742EC,0x0067459C,0x07E5855C,0x00673FF8,0x2B721120,0x2B721120,0x07E58C7C,0x00673FF8,0x07E5A95C,0x00673FF8,0x2B721120,0x2B721120,3.34999728,11,5,1,0x07E5842C,0x00673FF8,0x07E5855C,0x00673FF8,0x07E586E0,0x00673FF8,0x07E587D8,0x00673FF8,0x07E588D0,0x00673FF8,,,1,0x2B722DCC,0,0.600000024,0,0,0,-0.0175320189,-0.0207450762,-0.000345561391,0,0.0208516885,1,0x2B722DCC,0,0.600000024,0,0,0,0.0175472498,-0.0214778781,-0.00034411985,0,0.0215810928,1,0x2B722DCC,0,0.600000024,0,0,0,0.0174511112,-0.020271102,0.000251900026,6.28309822,0.0204037447,1,0x2B722DCC,0,0.600000024,0,0,0,-0.0174478535,-0.0200908929,0.000252364262,9.24647902E-05,0.0202249773,1,0,0,0.0100000007,100,-0.00170257979,-0.000261516892,0.150742933,-0.000244131137,2.45480278E-05,-0.00248208665,0.00720549142,2000,-0.000918391393,0.000487146463,1,4844.77539,0,24.223877,0.00199227291,0.979415119,9.79415131,-0.000345561391,-0.00183435495,-0.000918391393,0.000487146463,0.000179897295,1,2000,-0.000841106987,0.000487146201,1,4844.77539,0,24.223877,0.00198404607,0.979415119,9.79415131,-0.00034411985,-0.00189907348,-0.000841106987,0.000487146201,0.000164758589,1,2000,-0.000242527807,0.000354170304,1,3128.42334,0.000431800028,15.6421165,-0.00222629332,0.936205506,9.36205482,0.000251900026,-0.00179242226,-0.000242527807,0.000354170304,0.00015749778,1,2000,-0.00151697616,0.00035417144,1,3128.42334,-0.000431800028,15.6421165,-0.00223049894,0.936205506,9.36205482,0.000252364262,-0.00177640538,-0.00151697616,0.00035417144,0.000171953696,1,0.000208429978,-0.00412043417,0.185801163,0.000208243713,-0.00410631299,0.257007867,4.73111832E-05,0.0369799547,0.224630237,4.75905799E-05,0.0369684212,0.151334688
2026-04-28T18:21:43.2255283Z,19,-0.14999999999999999,Race,true,false,68,Garage Test Track,16,Bullet,0,0,0,-140.37915,1.32109654,190.696503,4.88549631E-06,-0.0181855261,-0.999834776,-1.00000012,4.2306051E-06,-4.96325265E-06,4.32016486E-06,0.999834657,-0.0181855261,0.000237917557,-8.25767347E-06,-0.00094434846,-0.000198577938,0.000181763084,0.0002158891,0,1,0,0,0,20,0.0200000014,0.000973892689,0.000973857706,0.000944343745,-0.00103901338,0.00473324582,0.0100000007,0,0,0,0.100000001,0.100000001,4,971.773376,0.340000004,0,3.14158773,179.99971,0.0181865264,1.04201114,4.2313045E-06,0.000242435883,0.000181763084,-0.00909313839,2.13778071E-06,0.999958694,2.46228888E-06,-140.37915,2.82512856,195.695129,-8.97886912E-06,-0.198783159,-0.98004353,1.74532926,1,goal_runtime,0x006742EC,0x006742EC,0x0067459C,0x07E5855C,0x00673FF8,0x2B721120,0x2B721120,0x07E58C7C,0x00673FF8,0x07E5A95C,0x00673FF8,0x2B721120,0x2B721120,3.44999719,11,5,1,0x07E5842C,0x00673FF8,0x07E5855C,0x00673FF8,0x07E586E0,0x00673FF8,0x07E587D8,0x00673FF8,0x07E588D0,0x00673FF8,,,1,0x2B722DCC,0,0.600000024,0,0,0,-0.0175354797,0.000326988171,-0.000154190478,0,0.00202869694,1,0x2B722DCC,0,0.600000024,0,0,0,0.0175439082,-0.0209965501,-0.000152756591,0,0.0210263226,1,0x2B722DCC,0,0.600000024,0,0,0,0.0174503904,-0.000183204029,0.00040229669,6.28308201,0.00359790633,1,0x2B722DCC,0,0.600000024,0,0,0,-0.0174485706,0.000616853242,0.000402806065,0.000108667387,0.00397776207,1,0,0,0.0100000007,100,0.0138404947,-0.000664107618,0.00473324582,-3.88923363E-05,5.02447938E-06,-0.00103901338,0.0112033244,2000,0.000275552709,-0.000645827153,1,4845.35352,0,24.2267666,0.00200128695,0.979415119,9.79415131,-0.000154190478,0.000161250762,0.000275552709,-0.000645827153,5.39761022E-05,1,2000,-0.000451643602,-0.000645828783,1,4845.35352,0,24.2267666,0.000880575564,0.979415119,9.79415131,-0.000152756591,-0.00185653707,-0.000451643602,-0.000645828783,8.84693145E-05,1,2000,-0.000451249158,0.000609718671,1,3127.5957,0,15.6379786,-0.00359170418,0.936205506,9.36205482,0.000402296719,-5.09413258E-05,-0.000451249158,0.000609718671,8.44923925E-05,1,2000,0.000275208964,0.0006097203,1,3127.5957,0,15.6379786,-0.00392791163,0.936205506,9.36205482,0.000402806094,0.00015514213,0.000275208964,0.0006097203,5.15304309E-05,1,-0.00017303972,0.00956854504,-0.941149533,-0.000167079255,0.00956816226,-0.0277385097,-3.604218E-05,0.00751983281,-0.840291858,-3.58559155E-05,0.00752208941,-0.812360704
2026-04-28T18:21:43.3259886Z,20,-0.050000000000000003,Race,true,false,68,Garage Test Track,16,Bullet,0,0,0,-140.379135,1.32109392,190.696335,4.79328219E-06,-0.0181883033,-0.999834776,-1.00000024,-3.04846776E-06,-4.73861974E-06,-2.96177609E-06,0.999834597,-0.0181883033,0.000875651662,-3.21287589E-05,-0.00429600058,0.000362506456,-0.000317591417,0.000595765712,0,1,0,0,0,20,0.0200000014,0.00438445201,0.0043843342,0.00429587951,-0.00166620605,-0.131489724,0.0100000007,0,0,0,0.100000001,0.100000001,4,970.683228,0.340000004,0,3.14158797,179.999725,0.0181893036,1.04217029,-3.04897208E-06,-0.000174693225,-0.000317591417,-0.00909452699,-1.50262304E-06,0.999958694,2.38307393E-06,-140.379135,2.82512593,195.694962,-8.97886912E-06,-0.198783159,-0.98004353,1.74532926,1,goal_runtime,0x006742EC,0x006742EC,0x0067459C,0x07E5855C,0x00673FF8,0x2B721120,0x2B721120,0x07E58C7C,0x00673FF8,0x07E5A95C,0x00673FF8,0x2B721120,0x2B721120,3.54999709,11,5,1,0x07E5842C,0x00673FF8,0x07E5855C,0x00673FF8,0x07E586E0,0x00673FF8,0x07E587D8,0x00673FF8,0x07E588D0,0x00673FF8,,,1,0x2B722DCC,0,0.600000024,0,0,0,-0.0175427552,-0.00101402891,9.88112879E-06,0,0.00338830589,1,0x2B722DCC,0,0.600000024,0,0,0,0.0175367482,-0.00140163046,1.10651599E-05,0,0.00398359494,1,0x2B722DCC,0,0.600000024,0,0,0,0.017448714,-0.00139975734,7.55305518E-06,6.28304338,0.003980943,1,0x2B722DCC,0,0.600000024,0,0,0,-0.017450247,-0.000953804643,8.33953527E-06,0.000147522966,0.00328631746,1,0,0,0.0100000007,100,0.0248036906,0.0002086397,-0.131489724,0.000379577803,-3.63015533E-05,-0.00166620605,0.0421595685,2000,-0.00289693777,-0.000997519703,1,4844.2417,0,24.2212086,-0.00323156314,0.979415119,9.79415131,9.88112879E-06,-0.000299395237,-0.00289693777,-0.000997519703,0.000567461015,1,2000,-0.00355025707,-0.000997518538,1,4844.2417,0,24.2212086,-0.00372705143,0.979415119,9.79415131,1.10651599E-05,-0.000352000963,-0.00355025707,-0.000997518538,0.000695435156,1,2000,-0.00345547823,0.000129999826,1,3129.76221,6.81056554E-05,15.6488104,-0.00372495339,0.936205506,9.36205482,7.55305518E-06,-0.000351762254,-0.00345547823,0.000129999826,0.000664686435,1,2000,-0.00299167098,0.000130004599,1,3129.76221,-6.81056554E-05,15.6488104,-0.00314348331,0.936205506,9.36205482,8.33953527E-06,-0.000290351425,-0.00299167098,0.000130004599,0.000542484922,1,-0.000363774569,0.00820358004,0.0679804459,-0.000358000369,0.00819108728,-0.852136374,-8.38190244E-05,-0.0197371803,0.0191518329,-8.38190244E-05,-0.019723326,-0.0345722288
2026-04-28T18:21:43.4256208Z,21,0.050000000000000003,Race,true,false,68,Garage Test Track,16,Bullet,0,0,0,-140.379135,1.32109272,190.696045,1.07765954E-05,-0.0181789286,-0.999834776,-1,1.9561237E-06,-1.08139429E-05,2.15238629E-06,0.999834776,-0.0181789286,0.000236963955,2.74601143E-06,-0.00377959246,0.000227997662,-0.000289416144,0.00011794264,0,0,0,0,0,20,0.0200000014,0.00378701463,0.00378701347,0.00377892074,-0.00391907711,0.00697423192,0.0100000007,0,0,0,0.100000001,0.100000001,4,969.549316,0.340000004,0,3.14158177,179.999359,0.0181799289,1.04163313,1.95644702E-06,0.000112096153,-0.000289416144,-0.00908983964,1.0271699E-06,0.999958694,5.39785742E-06,-140.379135,2.82512474,195.694672,-8.97889458E-06,-0.198783755,-0.980043352,1.74532926,1,goal_runtime,0x006742EC,0x006742EC,0x0067459C,0x07E5855C,0x00673FF8,0x2B721120,0x2B721120,0x07E58C7C,0x00673FF8,0x07E5A95C,0x00673FF8,0x2B721120,0x2B721120,3.649997,11,5,1,0x07E5842C,0x00673FF8,0x07E5855C,0x00673FF8,0x07E586E0,0x00673FF8,0x07E587D8,0x00673FF8,0x07E588D0,0x00673FF8,,,1,0x2B722DCC,0,0.600000024,0,0,0,-0.0175376367,-0.0117021678,-0.000390832109,0,0.0119225746,1,0x2B722DCC,0,0.600000024,0,0,0,0.0175416358,-0.0133528346,-0.000389501831,0,0.0135467835,1,0x2B722DCC,0,0.600000024,0,0,0,0.0174499061,-0.0128618767,0.000297735271,6.28309488,0.0131339915,1,0x2B722DCC,0,0.600000024,0,0,0,-0.0174491815,-0.0110901389,0.00029848906,9.59589743E-05,0.0114044165,1,0,0,0.0100000007,100,0.00621067174,0.000824981777,0.00697423192,0.000112750509,-1.37536254E-05,-0.00391907711,-0.00401183078,2000,-0.00400946988,-0.00103954854,1,4843.46143,0,24.2173061,0.00225399225,0.979415119,9.79415131,-0.000390832138,-0.00103473465,-0.00400946988,-0.00103954854,0.000785387121,1,2000,-0.00507527636,-0.00103954982,1,4843.46143,0,24.2173061,0.0022466979,0.979415119,9.79415131,-0.00038950186,-0.00118049327,-0.00507527636,-0.00103954982,0.000994160539,1,2000,-0.00507469615,0.000800527632,1,3130.91797,0,15.6545897,-0.00262982096,0.936205506,9.36205482,0.000297735271,-0.00113726151,-0.00507469615,0.000800527632,0.000950191752,1,2000,-0.0040099714,0.000800529087,1,3130.91797,0,15.6545897,-0.00263698236,0.936205506,9.36205482,0.00029848906,-0.000980416429,-0.0040099714,0.000800529087,0.000750831503,1,0.000255927414,-0.0200356599,0.426713407,0.000244379014,-0.020028349,0.478159428,5.96046411E-05,0.0145091098,0.45765239,5.32716476E-05,0.0145074753,0.405904889
2026-04-28T18:21:43.5258550Z,22,0.14999999999999999,Race,true,false,68,Garage Test Track,16,Bullet,0,0,0,-140.379135,1.32109356,190.695816,-2.54435895E-06,-0.0181792341,-0.999834776,-1,8.93184006E-06,2.38237885E-06,8.88705472E-06,0.999834716,-0.0181792341,-0.000317343278,1.9854122E-05,-0.0017507904,-8.64827816E-05,6.80293451E-05,-0.000225209675,0,0,0,0,0,20,0.0200000014,0.00177942915,0.00177931832,0.00175014103,-0.0037938673,0.10215383,0.0100000007,0,0,0,0.100000001,0.100000001,4,968.36322,0.340000004,0,-3.14159012,-179.999847,0.0181802344,1.04165065,8.93331617E-06,0.000511841266,6.80293451E-05,-0.00908999238,4.45490787E-06,0.999958694,-1.23173538E-06,-140.379135,2.82512569,195.694443,-8.97889458E-06,-0.19878377,-0.980043352,1.74532926,1,goal_runtime,0x006742EC,0x006742EC,0x0067459C,0x07E5855C,0x00673FF8,0x2B721120,0x2B721120,0x07E58C7C,0x00673FF8,0x07E5A95C,0x00673FF8,0x2B721120,0x2B721120,3.7499969,11,5,1,0x07E5842C,0x00673FF8,0x07E5855C,0x00673FF8,0x07E586E0,0x00673FF8,0x07E587D8,0x00673FF8,0x07E588D0,0x00673FF8,,,1,0x2B722DCC,0,0.600000024,0,0,0,-0.0175307784,-0.0178183019,0.000171073189,0,0.0178544819,1,0x2B722DCC,0,0.600000024,0,0,0,0.0175486095,-0.0173587408,0.000172393731,0,0.017395746,1,0x2B722DCC,0,0.600000024,0,0,0,0.0174515173,-0.0215919595,-0.000189720391,6.28310204,0.0216687061,1,0x2B722DCC,0,0.600000024,0,0,0,-0.0174475666,-0.0131448461,-0.000188916165,8.8682631E-05,0.013256452,1,0,0,0.0100000007,100,-0.0113666123,0.000450005668,0.10215383,-9.00110099E-05,1.0854008E-05,-0.0037938673,0.00439645676,2000,-0.00313868932,0.000591777323,1,4844.01221,0,24.2200603,-0.000986569561,0.979415119,9.79415131,0.000171073189,-0.00157544378,-0.00313868932,0.000591777323,0.000614815974,1,2000,-0.00292720995,0.000591775286,1,4844.01221,0,24.2200603,-0.000994151342,0.979415119,9.79415131,0.000172393731,-0.00153482996,-0.00292720995,0.000591775286,0.000573390804,1,2000,-0.000679686433,0.000227093624,1,3129.91016,0.00162127533,15.6495504,0.0016761591,0.936205506,9.36205482,-0.000189720391,-0.00190918287,-0.000679686433,0.000227093624,0.000548115757,1,2000,-0.00538622681,0.000227093944,1,3129.91016,-0.00162127533,15.6495504,0.0016691382,0.936205506,9.36205482,-0.000188916165,-0.00116222748,-0.00538622681,0.000227093944,0.000587672635,1,0.000342912943,0.028095264,0.296595335,0.000348687143,0.028094776,0.192448109,8.05593954E-05,-0.0243727807,0.426735699,8.07456599E-05,-0.0243702587,0.0926017687
