timestamp_utc,sample_index,race_time_seconds,game_state,is_racing,is_paused,level_id,level_name,car_id,car_name,player_steer,player_throttle,player_brake,position_x,position_y,position_z,forward_x,forward_y,forward_z,right_x,right_y,right_z,up_x,up_y,up_z,velocity_x,velocity_y,velocity_z,angular_velocity_x,angular_velocity_y,angular_velocity_z,vehicle_applied_throttle,vehicle_applied_brake,vehicle_applied_handbrake,vehicle_control_candidate_1dfc,vehicle_applied_steer,vehicle_frame_delta_ms,vehicle_frame_delta_seconds,speed_magnitude,planar_speed_magnitude,orig_speed_forward,orig_engine_rpm_candidate,orig_gear_candidate,orig_clutch_candidate,yaw_radians,yaw_degrees,pitch_radians,pitch_degrees,roll_radians,roll_degrees,yaw_rate,quat_x,quat_y,quat_z,quat_w,camera_position_x,camera_position_y,camera_position_z,camera_forward_x,camera_forward_y,camera_forward_z,camera_fov,camera_mode_index,camera_family,camera_tracker_vtable,camera_tracker_slot_a_vtable,camera_tracker_slot_b_vtable,camera_output_active_profile_ptr,camera_output_active_profile_vtable,camera_output_source_node_ptr,camera_output_target_node_ptr,camera_goal_view_active_profile_ptr,camera_goal_view_active_profile_vtable,camera_goal_view_active_clip_ptr,camera_goal_view_active_clip_vtable,camera_goal_view_source_node_ptr,camera_goal_view_target_node_ptr,camera_goal_view_runtime_seconds,camera_goal_view_dirty_flag,player_camera_list_count,player_camera_active_profile_index,player_camera_list_0_ptr,player_camera_list_0_vtable,player_camera_list_1_ptr,player_camera_list_1_vtable,player_camera_list_2_ptr,player_camera_list_2_vtable,player_camera_list_3_ptr,player_camera_list_3_vtable,player_camera_list_4_ptr,player_camera_list_4_vtable,player_camera_list_5_ptr,player_camera_list_5_vtable,wheel_0_contact_flag,wheel_0_contact_ptr,wheel_0_contact_surface_44_candidate,wheel_0_contact_surface_48_candidate,wheel_0_contact_surface_4c_candidate,wheel_0_contact_surface_50_candidate,wheel_0_contact_surface_54_candidate,wheel_0_suspension_length_candidate,wheel_0_tire_force_multiplier_candidate,wheel_0_load_or_spin_candidate,wheel_0_rotation_or_phase_candidate,wheel_0_vertical_load_candidate,wheel_1_contact_flag,wheel_1_contact_ptr,wheel_1_contact_surface_44_candidate,wheel_1_contact_surface_48_candidate,wheel_1_contact_surface_4c_candidate,wheel_1_contact_surface_50_candidate,wheel_1_contact_surface_54_candidate,wheel_1_suspension_length_candidate,wheel_1_tire_force_multiplier_candidate,wheel_1_load_or_spin_candidate,wheel_1_rotation_or_phase_candidate,wheel_1_vertical_load_candidate,wheel_2_contact_flag,wheel_2_contact_ptr,wheel_2_contact_surface_44_candidate,wheel_2_contact_surface_48_candidate,wheel_2_contact_surface_4c_candidate,wheel_2_contact_surface_50_candidate,wheel_2_contact_surface_54_candidate,wheel_2_suspension_length_candidate,wheel_2_tire_force_multiplier_candidate,wheel_2_load_or_spin_candidate,wheel_2_rotation_or_phase_candidate,wheel_2_vertical_load_candidate,wheel_3_contact_flag,wheel_3_contact_ptr,wheel_3_contact_surface_44_candidate,wheel_3_contact_surface_48_candidate,wheel_3_contact_surface_4c_candidate,wheel_3_contact_surface_50_candidate,wheel_3_contact_surface_54_candidate,wheel_3_suspension_length_candidate,wheel_3_tire_force_multiplier_candidate,wheel_3_load_or_spin_candidate,wheel_3_rotation_or_phase_candidate,wheel_3_vertical_load_candidate,vehicle_candidate_1de8,vehicle_candidate_1dec,vehicle_candidate_1df0,vehicle_candidate_1e08,vehicle_candidate_1e0c,vehicle_candidate_1e10,vehicle_candidate_1e14,vehicle_candidate_1e18,vehicle_candidate_1e1c,vehicle_candidate_1e20,vehicle_candidate_1e24,vehicle_candidate_1e28,wheel_0_candidate_0320,wheel_0_candidate_0324,wheel_0_candidate_0328,wheel_0_candidate_0338,wheel_0_candidate_0344,wheel_0_candidate_036c,wheel_0_candidate_0370,wheel_0_candidate_0374,wheel_0_candidate_037c,wheel_0_candidate_0380,wheel_0_candidate_0384,wheel_0_candidate_038c,wheel_0_candidate_0390,wheel_0_candidate_0394,wheel_0_candidate_0398,wheel_0_candidate_039c,wheel_1_candidate_0320,wheel_1_candidate_0324,wheel_1_candidate_0328,wheel_1_candidate_0338,wheel_1_candidate_0344,wheel_1_candidate_036c,wheel_1_candidate_0370,wheel_1_candidate_0374,wheel_1_candidate_037c,wheel_1_candidate_0380,wheel_1_candidate_0384,wheel_1_candidate_038c,wheel_1_candidate_0390,wheel_1_candidate_0394,wheel_1_candidate_0398,wheel_1_candidate_039c,wheel_2_candidate_0320,wheel_2_candidate_0324,wheel_2_candidate_0328,wheel_2_candidate_0338,wheel_2_candidate_0344,wheel_2_candidate_036c,wheel_2_candidate_0370,wheel_2_candidate_0374,wheel_2_candidate_037c,wheel_2_candidate_0380,wheel_2_candidate_0384,wheel_2_candidate_038c,wheel_2_candidate_0390,wheel_2_candidate_0394,wheel_2_candidate_0398,wheel_2_candidate_039c,wheel_3_candidate_0320,wheel_3_candidate_0324,wheel_3_candidate_0328,wheel_3_candidate_0338,wheel_3_candidate_0344,wheel_3_candidate_036c,wheel_3_candidate_0370,wheel_3_candidate_0374,wheel_3_candidate_037c,wheel_3_candidate_0380,wheel_3_candidate_0384,wheel_3_candidate_038c,wheel_3_candidate_0390,wheel_3_candidate_0394,wheel_3_candidate_0398,wheel_3_candidate_039c,wheel_0_suspension_length_delta_per_sec,wheel_0_load_or_spin_delta_per_sec,wheel_0_vertical_load_delta_per_sec,wheel_1_suspension_length_delta_per_sec,wheel_1_load_or_spin_delta_per_sec,wheel_1_vertical_load_delta_per_sec,wheel_2_suspension_length_delta_per_sec,wheel_2_load_or_spin_delta_per_sec,wheel_2_vertical_load_delta_per_sec,wheel_3_suspension_length_delta_per_sec,wheel_3_load_or_spin_delta_per_sec,wheel_3_vertical_load_delta_per_sec
2026-04-28T17:55:56.1098032Z,1,-2.8900001,Race,true,false,68,Garage Test Track,16,Bullet,0,0,0,-140.379166,1.32113159,190.701096,-5.96677501E-06,-0.0181459468,-0.999835491,-1.00000012,9.79882861E-06,5.78991921E-06,9.69215216E-06,0.999835372,-0.0181459468,-0.000275050232,-0.000710485212,-0.000637965277,-0.000858133717,-0.000273093116,-0.0001902605,0,1,0,0,0,20,0.0200000014,0.000993700931,0.000694731832,0.000650754373,-0.00196590787,0.066397123,0.0100000007,-3.14158678,-179.999649,0.0181469396,1.03974295,9.80044206E-06,0.00056152395,-0.000273093116,-0.00907334685,4.87294574E-06,0.999958873,-2.93929452E-06,-140.379166,2.82511258,195.699722,-8.97888276E-06,-0.1987755,-0.98004508,1.74532926,1,goal_runtime,0x006742EC,0x006742EC,0x0067459C,0x07D6855C,0x00673FF8,0x2B67F080,0x2B67F080,0x07D68C7C,0x00673FF8,0x07D6A95C,0x00673FF8,0x2B67F080,0x2B67F080,1.66999876,0,5,1,0x07D6842C,0x00673FF8,0x07D6855C,0x00673FF8,0x07D686E0,0x00673FF8,0x07D687D8,0x00673FF8,0x07D688D0,0x00673FF8,,,1,0x2B680D2C,0,0.600000024,0,0,0,-0.017532032,0.000334905286,0.000680264784,0,0.00404355489,1,0x2B680D2C,0,0.600000024,0,0,0,0.0175470132,0.00113894173,0.000680673111,0,0.00475918641,1,0x2B680D2C,0,0.600000024,0,0,0,0.0174511112,9.35748176E-05,-5.66947856E-05,0.000142654477,0.00109223265,1,0x2B680D2C,0,0.600000024,0,0,0,-0.0174478646,0.000100354846,-5.61004272E-05,6.2830472,0.00112488226,1,0,0,0.0100000007,100,0.000894286437,0.000580787251,0.066397123,-0.000292935962,-0.000722100958,-0.00196590787,0.00390947983,2000,0.000211653882,-6.95614071E-05,1,4846.98584,0,24.2349281,-0.00402795617,0.979415119,9.79415131,0.0006802649,8.28593038E-05,0.000211653882,-6.95614071E-05,4.14594069E-05,1,2000,8.05955715E-05,-6.95620038E-05,1,4846.98584,0,24.2349281,-0.00461887289,0.979415119,9.79415131,0.000680673227,0.00023941313,8.05955715E-05,-6.95620038E-05,1.57873055E-05,1,2000,8.06670505E-05,0.000156765775,1,3127.52856,0,15.6376429,0.0010877765,0.936205506,9.36205482,-5.66947856E-05,8.57073974E-05,8.06670505E-05,0.000156765775,1.51041886E-05,1,2000,0.000211592182,0.000156765134,1,3127.52856,0,15.6376429,0.00111985044,0.936205506,9.36205482,-5.61004272E-05,8.92568351E-05,0.000211592182,0.000156765134,3.96187534E-05,1,0,0,0,0,0,0,0,0,0,0,0,0
2026-04-28T17:55:56.1839771Z,2,-2.7899999000000002,Race,true,false,68,Garage Test Track,16,Bullet,0,0,0,-140.37915,1.32108188,190.700867,2.87367902E-06,-0.0181856509,-0.999835014,-1.00000036,5.57860631E-06,-2.97562156E-06,5.63179719E-06,0.999834657,-0.0181856509,-0.000101795587,-0.000517610286,-0.000921553874,-0.00071681937,0.000222923656,-6.79192526E-05,0,1,0,0,0,10,0.0100000007,0.00106185884,0.000927159039,0.000930814596,-0.00249012047,0.156856641,0.0100000007,3.14158988,179.999832,0.0181866456,1.04201794,5.57952899E-06,0.000319683459,0.000222923656,-0.00909320079,2.80271638E-06,0.999958754,1.46238551E-06,-140.37915,2.82508636,195.699509,-8.97885275E-06,-0.198776856,-0.980044723,1.74532926,1,goal_runtime,0x006742EC,0x006742EC,0x0067459C,0x07D6855C,0x00673FF8,0x2B67F080,0x2B67F080,0x07D68C7C,0x00673FF8,0x07D6A95C,0x00673FF8,0x2B67F080,0x2B67F080,1.72999871,0,5,1,0x07D6842C,0x00673FF8,0x07D6855C,0x00673FF8,0x07D686E0,0x00673FF8,0x07D687D8,0x00673FF8,0x07D688D0,0x00673FF8,,,1,0x2B680D2C,0,0.600000024,0,0,0,-0.0175341312,-0.0198963732,-0.000141835524,0,0.0199235957,1,0x2B680D2C,0,0.600000024,0,0,0,0.017545376,-0.0210861377,-0.000141501994,0,0.021113256,1,0x2B680D2C,0,0.600000024,0,0,0,0.0174507853,-0.0189722963,0.000240525318,0.00018685215,0.0191008151,1,0x2B680D2C,0,0.600000024,0,0,0,-0.0174481757,-0.0204450823,0.000241074973,6.28300333,0.0205666348,1,0,0,0.0100000007,100,0.0127378255,0.00310031441,0.156856641,-0.000229173864,-0.000548613432,-0.00249012047,0.0127378274,2000,-0.00241217483,0.000403978105,1,4847.51953,0,24.2375965,0.00081718259,0.979415119,9.79415131,-0.000141835524,-0.00175925181,-0.00241217483,0.000403978105,0.000472504122,1,2000,-0.00223977515,0.000403978571,1,4847.51953,0,24.2375965,0.000815257139,0.979415119,9.79415131,-0.000141501994,-0.00186446006,-0.00223977515,0.000403978571,0.000438733958,1,2000,-0.00187813293,0.000106594794,1,3128.77246,0.000260929723,15.6438618,-0.00212561153,0.936205506,9.36205482,0.000240525318,-0.00167755783,-0.00187813293,0.000106594794,0.00041939583,1,2000,-0.00277382997,0.000106596024,1,3128.77246,-0.000260929723,15.6438618,-0.00213054172,0.936205506,9.36205482,0.000241074973,-0.00180772843,-0.00277382997,0.000106596024,0.000451642903,1,-0.000209920094,-0.0822100267,1.58800399,-0.000163726494,-0.0822175071,1.63540685,-3.25962865E-05,0.0297220089,1.80085814,-3.11061704E-05,0.0297175385,1.944175
2026-04-28T17:55:56.2844846Z,3,-2.6899999999999999,Race,true,false,68,Garage Test Track,16,Bullet,0,0,0,-140.37915,1.3210485,190.700623,1.57193733E-06,-0.0182218608,-0.999834299,-1.00000036,4.89271588E-06,-1.66136749E-06,4.92217714E-06,0.999833941,-0.0182218608,0.000299348554,-0.000179112234,-0.00151369162,-0.000296847662,-0.000113720213,0.000204182026,0,1,0,0,0,10,0.0100000007,0.00155336829,0.00154300744,0.00151670503,0.000268214091,-0.178190559,0.0100000007,3.14159107,179.999893,0.0182228629,1.04409313,4.89352851E-06,0.000280378503,-0.000113720213,-0.00911130756,2.45382489E-06,0.999958575,8.08359687E-07,-140.37915,2.825068,195.699249,-8.97884729E-06,-0.198779985,-0.980044127,1.74532926,1,goal_runtime,0x006742EC,0x006742EC,0x0067459C,0x07D6855C,0x00673FF8,0x2B67F080,0x2B67F080,0x07D68C7C,0x00673FF8,0x07D6A95C,0x00673FF8,0x2B67F080,0x2B67F080,1.82999861,0,5,1,0x07D6842C,0x00673FF8,0x07D6855C,0x00673FF8,0x07D686E0,0x00673FF8,0x07D687D8,0x00673FF8,0x07D688D0,0x00673FF8,,,1,0x2B680D2C,0,0.600000024,0,0,0,-0.0175350439,0.000330285402,0.000150900029,0,0.00203431072,1,0x2B680D2C,0,0.600000024,0,0,0,0.017544914,0.000332271942,0.000151232365,0,0.00203904836,1,0x2B680D2C,0,0.600000024,0,0,0,0.0174505617,0.000283982285,2.36817505E-05,0.00017827889,0.00179906876,1,0x2B680D2C,0,0.600000024,0,0,0,-0.017448375,0.000267518568,2.42243477E-05,6.28301239,0.00174686161,1,0,0,0.0100000007,100,0.0270895641,0.00266586849,-0.178190559,2.84528905E-05,-0.000205770921,0.000268214091,0.027089566,2000,0.000570248638,-0.00018358283,1,4849.58789,0,24.2479382,-0.00200642389,0.979415119,9.79415131,0.000150900029,0.000162427983,0.000570248638,-0.00018358283,0.000111702037,1,2000,0.000345478096,-0.000183582713,1,4849.58789,0,24.2479382,-0.00201092893,0.979415119,9.79415131,0.000151232365,0.000163022632,0.000345478096,-0.000183582713,6.76732961E-05,1,2000,0.000335393182,0.000204508935,1,3126.33887,-7.36377706E-06,15.6316938,-0.00177578279,0.936205506,9.36205482,2.36817505E-05,0.000157912989,0.000335393182,0.000204508935,6.47108754E-05,1,2000,0.000580348773,0.000204508819,1,3126.33887,7.36389802E-06,15.6316938,-0.00172551861,0.936205506,9.36205482,2.42243477E-05,0.000153206289,0.000580348773,0.000204508819,0.000106753629,1,-9.1269605E-05,0.0292735528,-1.78892839,-4.61935961E-05,0.0292734336,-1.90742064,-2.235174E-05,-0.0216843542,-1.73017442,-1.99303013E-05,-0.021685062,-1.8819772
2026-04-28T17:55:56.3840965Z,4,-2.5899999,Race,true,false,68,Garage Test Track,16,Bullet,0,0,0,-140.37915,1.32104826,190.700317,5.07397908E-06,-0.0182218831,-0.999834299,-1.00000036,3.52537427E-06,-5.13907162E-06,3.6184324E-06,0.999833941,-0.0182218831,4.44606703E-05,0.000110016175,-0.00402870588,0.000317118509,6.19689454E-05,1.75940168E-05,0,1,0,0,0,10,0.0100000007,0.00403045304,0.00402895128,0.00402603345,-0.0028152545,-0.121345133,0.0100000007,3.1415875,179.999695,0.0182228852,1.04409432,3.52595976E-06,0.000202022595,6.19689454E-05,-0.00911131874,1.78602568E-06,0.999958575,2.5533684E-06,-140.37915,2.82507896,195.698944,-8.97884274E-06,-0.198782295,-0.980043709,1.74532926,1,goal_runtime,0x006742EC,0x006742EC,0x0067459C,0x07D6855C,0x00673FF8,0x2B67F080,0x2B67F080,0x07D68C7C,0x00673FF8,0x07D6A95C,0x00673FF8,0x2B67F080,0x2B67F080,1.92999852,0,5,1,0x07D6842C,0x00673FF8,0x07D6855C,0x00673FF8,0x07D686E0,0x00673FF8,0x07D687D8,0x00673FF8,0x07D688D0,0x00673FF8,,,1,0x2B680D2C,0,0.600000024,0,0,0,-0.0175364111,-0.000916879391,-0.000301326509,0,0.00346229994,1,0x2B680D2C,0,0.600000024,0,0,0,0.0175435469,-0.00115963153,-0.00030080782,0,0.00383752887,1,0x2B680D2C,0,0.600000024,0,0,0,0.0174502674,-0.00119451538,0.000148889245,0.000134268019,0.00379647501,1,0x2B680D2C,0,0.600000024,0,0,0,-0.0174486712,-0.000682993908,0.000149419822,6.28305674,0.00294233067,1,0,0,0.0100000007,100,-0.012175112,0.00237698015,-0.121345133,0.000166211801,8.62463712E-05,-0.0028152545,-0.012175113,2000,-0.00263640983,-0.000491432962,1,4846.96338,0,24.2348156,0.00333716953,0.979415119,9.79415131,-0.000301326509,-0.000264930219,-0.00263640983,-0.000491432962,0.000516427972,1,2000,-0.00307681528,-0.000491434417,1,4846.96338,0,24.2348156,0.00365650351,0.979415119,9.79415131,-0.00030080782,-0.00030230367,-0.00307681528,-0.000491434417,0.000602695975,1,2000,-0.0033228551,0.000268840435,1,3128.71729,-0.000177649694,15.6435862,-0.00360195269,0.936205506,9.36205482,0.000148889245,-0.000314772304,-0.0033228551,0.000268840435,0.000576060789,1,2000,-0.00239033671,0.000268837815,1,3128.71729,0.000177649694,15.6435862,-0.00286068046,0.936205506,9.36205482,0.000149419822,-0.000232225284,-0.00239033671,0.000268837815,0.000493683561,1,-0.000136718139,-0.0452226512,0.142798916,-0.000136718139,-0.0452040136,0.179848045,-2.94297915E-05,0.0125207491,0.199740604,-2.96160561E-05,0.0125195477,0.119546898
2026-04-28T17:55:56.4830994Z,5,-2.4900000000000002,Race,true,false,68,Garage Test Track,16,Bullet,0,0,0,-140.37915,1.32106853,190.700027,2.95825373E-07,-0.0182020739,-0.999834299,-1,1.2051908E-05,-5.15280476E-07,1.20592913E-05,0.999834299,-0.0182020739,-0.000366040855,0.000248061027,-0.00373128266,0.00036030545,8.57754567E-05,-0.000256700208,0,1,0,0,0,10,0.0100000007,0.00375739159,0.00374919409,0.00372614921,-0.00447140262,0.0740119889,0.0100000007,3.14159226,179.999969,0.0182030797,1.04295957,1.20539053E-05,0.000690637855,8.57754567E-05,-0.00910141412,6.02804948E-06,0.999958575,2.02784861E-07,-140.37915,2.82510495,195.698654,-8.97886639E-06,-0.198784068,-0.980043292,1.74532926,1,goal_runtime,0x006742EC,0x006742EC,0x0067459C,0x07D6855C,0x00673FF8,0x2B67F080,0x2B67F080,0x07D68C7C,0x00673FF8,0x07D6A95C,0x00673FF8,0x2B67F080,0x2B67F080,2.02999854,0,5,1,0x07D6842C,0x00673FF8,0x07D6855C,0x00673FF8,0x07D686E0,0x00673FF8,0x07D687D8,0x00673FF8,0x07D688D0,0x00673FF8,,,1,0x2B680D2C,0,0.600000024,0,0,0,-0.0175277721,-0.0131048271,0.000187910977,0,0.0131555535,1,0x2B680D2C,0,0.600000024,0,0,0,0.0175519586,-0.0130351111,0.00018838454,0,0.0130862761,1,0x2B680D2C,0,0.600000024,0,0,0,0.0174522456,-0.012479065,0.000150677704,0.000117258591,0.0125555415,1,0x2B680D2C,0,0.600000024,0,0,0,-0.0174468253,-0.0125085777,0.000151282555,6.2830739,0.012585517,1,0,0,0.0100000007,100,0.0326758213,0.00108097878,0.0740119889,-0.000692799105,0.000237251239,-0.00447140262,0.0326758251,2000,-0.00467192754,0.000931619899,1,4844.19043,0,24.2209511,-0.00108364259,0.979415119,9.79415131,0.000187910977,-0.00115863059,-0.00467192754,0.000931619899,0.00091515138,1,2000,-0.00457206042,0.000931618211,1,4844.19043,0,24.2209511,-0.00108633179,0.979415119,9.79415131,0.00018838454,-0.00115251332,-0.00457206042,0.000931618211,0.000895589124,1,2000,-0.00458341185,0.000760125928,1,3130.37036,-8.14721898E-06,15.6518517,-0.00133114902,0.936205506,9.36205482,0.000150677704,-0.00110334647,-0.00458341185,0.000760125928,0.0008560883,1,2000,-0.0046605845,0.000760127965,1,3130.37036,8.14721898E-06,15.6518517,-0.00133654929,0.936205506,9.36205482,0.000151282555,-0.00110591238,-0.0046605845,0.000760127965,0.000874767837,1,0.000863894762,0.0489237458,0.969325304,0.000841170491,0.0489192344,0.924874663,0.0001978129,0.000178845934,0.875906587,0.00018458812,0.000186273232,0.964318514
2026-04-28T17:55:56.5835353Z,6,-2.3900001,Race,true,false,68,Garage Test Track,16,Bullet,0,0,0,-140.37915,1.32109237,190.699768,-3.96763471E-06,-0.0181856286,-0.999834776,-1.00000012,7.99720237E-06,3.82283315E-06,7.92636001E-06,0.999834657,-0.0181856286,0.00018459592,0.000221208044,-0.000979796168,-4.91930259E-05,-1.65195397E-05,0.000160666808,0,1,0,0,0,10,0.0100000007,0.00102127821,0.000997033669,0.000975610688,-0.00247991085,0.15001145,0.0100000007,-3.14158869,-179.999756,0.0181866288,1.04201698,7.99852478E-06,0.000458281691,-1.65195397E-05,-0.00909318961,3.98105522E-06,0.999958694,-1.94769746E-06,-140.37915,2.82513022,195.698395,-8.97886639E-06,-0.198784351,-0.980043232,1.74532926,1,goal_runtime,0x006742EC,0x006742EC,0x0067459C,0x07D6855C,0x00673FF8,0x2B67F080,0x2B67F080,0x07D68C7C,0x00673FF8,0x07D6A95C,0x00673FF8,0x2B67F080,0x2B67F080,2.12999845,0,5,1,0x07D6842C,0x00673FF8,0x07D6855C,0x00673FF8,0x07D686E0,0x00673FF8,0x07D687D8,0x00673FF8,0x07D688D0,0x00673FF8,,,1,0x2B680D2C,0,0.600000024,0,0,0,-0.0175317135,-0.0204056557,0.000471514591,0,0.0205970407,1,0x2B680D2C,0,0.600000024,0,0,0,0.0175476745,-0.0194278639,0.000472229382,0,0.0196279306,1,0x2B680D2C,0,0.600000024,0,0,0,0.0174512956,-0.0188671947,-0.000147396728,8.97397404E-05,0.0189217366,1,0x2B680D2C,0,0.600000024,0,0,0,-0.0174477845,-0.0192107111,-0.000146915278,6.28310156,0.0192644894,1,0,0,0.0100000007,100,0.00972089451,-0.000765510718,0.15001145,8.73869649E-05,0.000228863151,-0.00247991085,0.00972089544,2000,-0.00269175298,9.27148867E-05,1,4843.60547,0,24.2180271,-0.0027194377,0.979415119,9.79415131,0.000471514621,-0.00180419814,-0.00269175298,9.27148867E-05,0.000527268741,1,2000,-0.00237248652,9.27135698E-05,1,4843.60547,0,24.2180271,-0.00272330386,0.979415119,9.79415131,0.000472229411,-0.00171789923,-0.00237248652,9.27135698E-05,0.000464729877,1,2000,-0.00252491329,-0.000458725757,1,3129.35815,-0.000109822045,15.6467905,0.00130244961,0.936205506,9.36205482,-0.000147396728,-0.00166820292,-0.00252491329,-0.000458725757,0.00044425996,1,2000,-0.00253935158,-0.000458727503,1,3129.35815,0.000109821922,15.6467905,0.00129818579,0.936205506,9.36205482,-0.000146915278,-0.00169861922,-0.00253935158,-0.000458727503,0.000503978576,1,-0.000394135684,0.0283603594,0.744148672,-0.000428408355,0.0283844806,0.654165387,-9.49948953E-05,-0.0298074428,0.636619449,-9.59262179E-05,-0.0298197828,0.667897165
2026-04-28T17:55:56.6835593Z,7,-2.2899999000000002,Race,true,false,68,Garage Test Track,16,Bullet,0,0,0,-140.37915,1.32110775,190.699539,1.66001837E-06,-0.0181781612,-0.999834776,-1,6.57691044E-06,-1.77986863E-06,6.60817886E-06,0.999834776,-0.0181781612,0.000338138954,9.51068141E-05,-0.00129469438,-5.24725801E-05,-0.000209747348,0.000242695882,0,1,0,0,0,10,0.0100000007,0.00134149799,0.00133812241,0.0012927521,0.000504161173,-0.179885551,0.0100000007,3.14159107,179.999893,0.0181791615,1.04158914,6.57799728E-06,0.000376891461,-0.000209747348,-0.00908945594,3.29640852E-06,0.999958694,8.60007276E-07,-140.37915,2.82514429,195.698166,-8.97889367E-06,-0.198784709,-0.980043232,1.74532926,1,goal_runtime,0x006742EC,0x006742EC,0x0067459C,0x07D6855C,0x00673FF8,0x2B67F080,0x2B67F080,0x07D68C7C,0x00673FF8,0x07D6A95C,0x00673FF8,0x2B67F080,0x2B67F080,2.22999835,0,5,1,0x07D6842C,0x00673FF8,0x07D6855C,0x00673FF8,0x07D686E0,0x00673FF8,0x07D687D8,0x00673FF8,0x07D688D0,0x00673FF8,,,1,0x2B680D2C,0,0.600000024,0,0,0,-0.0175330173,0.000391663867,0.000263489026,0,0.00239698589,1,0x2B680D2C,0,0.600000024,0,0,0,0.0175462551,0.000378500583,0.000264269183,0,0.00236497703,1,0x2B680D2C,0,0.600000024,0,0,0,0.0174510684,0.000298578234,4.49546787E-05,5.01569775E-05,0.00185999763,1,0x2B680D2C,0,0.600000024,0,0,0,-0.0174480155,0.000258144515,4.5489287E-05,6.28314066,0.00173340144,1,0,0,0.0100000007,100,0.0294815153,-0.00215634983,-0.179885551,4.3323791E-05,0.000116670315,0.000504161173,0.0294815172,2000,0.000806344673,-0.000324461056,1,4844.48145,0,24.2224064,-0.00236371206,0.979415119,9.79415131,0.000263489026,0.000163469726,0.000806344673,-0.000324461056,0.000157949253,1,2000,0.000404422753,-0.000324461173,1,4844.48145,0,24.2224064,-0.00233349577,0.979415119,9.79415131,0.000264269183,0.000160110678,0.000404422753,-0.000324461173,7.92195642E-05,1,2000,0.000277999818,0.000369509478,1,3127.28076,-9.13507829E-05,15.6364031,-0.00183513167,0.936205506,9.36205482,4.49546787E-05,0.00016058961,0.000277999818,0.000369509478,7.57658199E-05,1,2000,0.000932793249,0.000369509566,1,3127.28076,9.13507829E-05,15.6364031,-0.00171332445,0.936205506,9.36205482,4.5489287E-05,0.000148987194,0.000932793249,0.000369509566,0.000150944412,1,-0.000130385146,-0.0208025556,-1.8200053,-0.000141933546,-0.0207960177,-1.72629535,-2.2724269E-05,0.0192351397,-1.70617366,-2.3096798E-05,0.0192404557,-1.75310862
2026-04-28T17:55:56.7838950Z,8,-2.1899999999999999,Race,true,false,68,Garage Test Track,16,Bullet,0,0,0,-140.37915,1.3211112,190.699249,4.76907962E-06,-0.0181713402,-0.999834776,-0.999999881,7.08814014E-06,-4.89868989E-06,7.1759855E-06,0.999834895,-0.0181713402,-0.00038915372,-2.24361829E-05,-0.00407604594,0.000244566385,-0.000176614034,-0.00032592722,0,1,0,0,0,10,0.0100000007,0.00409464212,0.00409458065,0.00407577865,-0.00286607933,-0.120996654,0.0100000007,3.14158797,179.999725,0.0181723423,1.04119849,7.08931066E-06,0.000406187552,-0.000176614034,-0.00908604544,3.56617875E-06,0.999958694,2.4170422E-06,-140.37915,2.82514596,195.697876,-8.97889367E-06,-0.198784322,-0.980043292,1.74532926,1,goal_runtime,0x006742EC,0x006742EC,0x0067459C,0x07D6855C,0x00673FF8,0x2B67F080,0x2B67F080,0x07D68C7C,0x00673FF8,0x07D6A95C,0x00673FF8,0x2B67F080,0x2B67F080,2.32999825,0,5,1,0x07D6842C,0x00673FF8,0x07D6855C,0x00673FF8,0x07D686E0,0x00673FF8,0x07D687D8,0x00673FF8,0x07D688D0,0x00673FF8,,,1,0x2B680D2C,0,0.600000024,0,0,0,-0.017532507,-0.000911189592,-0.000243162707,0,0.00336751016,1,0x2B680D2C,0,0.600000024,0,0,0,0.01754665,-0.00111860887,-0.000242322683,0,0.00369925168,1,0x2B680D2C,0,0.600000024,0,0,0,0.0174512248,-0.00101909018,-7.24628408E-05,3.55832381E-05,0.00342697953,1,0x2B680D2C,0,0.600000024,0,0,0,-0.0174478646,-0.000726944476,-7.19964737E-05,6.28315496,0.00290405727,1,0,0,0.0100000007,100,-0.047856804,-0.000801814487,-0.120996654,8.94143668E-05,-1.44180376E-05,-0.00286607933,-0.0478568077,2000,-0.00271478901,-0.000337199686,1,4843.32617,0,24.2166309,0.00324038742,0.979415119,9.79415131,-0.000243162707,-0.000270698947,-0.00271478901,-0.000337199686,0.000531781116,1,2000,-0.00307345623,-0.000337198551,1,4843.32617,0,24.2166309,0.00352444407,0.979415119,9.79415131,-0.000242322683,-0.000302514702,-0.00307345623,-0.000337198551,0.000602037937,1,2000,-0.0031724975,0.000282042223,1,3129.60254,-7.15816568E-05,15.6480122,0.00327044819,0.936205506,9.36205482,-7.24628408E-05,-0.000297497027,-0.0031724975,0.000282042223,0.000575440761,1,2000,-0.00261572422,0.000282041117,1,3129.60254,7.15816641E-05,15.6480122,0.00281032058,0.936205506,9.36205482,-7.19964737E-05,-0.000250427198,-0.00261572422,0.000282041117,0.000508352299,1,5.10364735E-05,-0.0506651662,0.0970524177,3.94880735E-05,-0.0506591834,0.133427456,1.56462174E-05,-0.0117417509,0.156698182,1.50874248E-05,-0.0117485756,0.117065571
2026-04-28T17:55:56.8835092Z,9,-2.0899999,Race,true,false,68,Garage Test Track,16,Bullet,0,0,0,-140.37915,1.32110572,190.698959,-3.7321588E-06,-0.0181706902,-0.999835253,-1.00000036,6.67466429E-06,3.61147204E-06,6.60793921E-06,0.999834895,-0.0181706902,-0.000179025068,-7.47946397E-05,-0.00379637466,0.000110257308,0.0003088472,-0.000126328261,0,1,0,0,0,10,0.0100000007,0.00380132929,0.00380059332,0.00379710901,-0.00451606791,0.0719693229,0.0100000007,-3.14158893,-179.999771,0.018171683,1.0411607,6.6757666E-06,0.000382493221,0.0003088472,-0.00908571947,3.32078776E-06,0.999958813,-1.83598331E-06,-140.37915,2.82513952,195.697586,-8.97889367E-06,-0.198784113,-0.980043292,1.74532926,1,goal_runtime,0x006742EC,0x006742EC,0x0067459C,0x07D6855C,0x00673FF8,0x2B67F080,0x2B67F080,0x07D68C7C,0x00673FF8,0x07D6A95C,0x00673FF8,0x2B67F080,0x2B67F080,2.42999816,0,5,1,0x07D6842C,0x00673FF8,0x07D6855C,0x00673FF8,0x07D686E0,0x00673FF8,0x07D687D8,0x00673FF8,0x07D688D0,0x00673FF8,,,1,0x2B680D2C,0,0.600000024,0,0,0,-0.0175329205,-0.0131640974,6.58680801E-05,0,0.013175617,1,0x2B680D2C,0,0.600000024,0,0,0,0.0175463557,-0.0126938354,6.68715365E-05,0,0.0127054434,1,0x2B680D2C,0,0.600000024,0,0,0,0.0174509306,-0.0121275065,-0.000165452657,1.46207594E-05,0.012220799,1,0x2B680D2C,0,0.600000024,0,0,0,-0.0174481589,-0.012611784,-0.000165032441,6.28317595,0.0127015198,1,0,0,0.0100000007,100,-0.00509242341,0.000311496813,0.0719693229,-0.00012810083,-7.79096081E-05,-0.00451606791,-0.00509242387,2000,-0.00499379076,0.000700601318,1,4843.15625,0,24.2157803,-0.000379940786,0.979415119,9.79415131,6.58680801E-05,-0.0011638935,-0.00499379076,0.000700601318,0.00097819895,1,2000,-0.00418620417,0.000700601668,1,4843.15625,0,24.2157803,-0.000385756255,0.979415119,9.79415131,6.68715365E-05,-0.00112231495,-0.00418620417,0.000700601668,0.000820006419,1,2000,-0.00407534046,-0.000693751092,1,3130.73291,8.0288024E-05,15.6536646,0.00146162161,0.936205506,9.36205482,-0.000165452657,-0.00107221142,-0.00407534046,-0.000693751092,0.00078391243,1,2000,-0.00510471361,-0.000693751324,1,3130.73291,-8.02880968E-05,15.6536646,0.00145783834,0.936205506,9.36205482,-0.000165032441,-0.00111508614,-0.00510471361,-0.000693751324,0.000934971089,1,-4.13507187E-05,0.0309030768,0.980810583,-2.94297915E-05,0.0309194177,0.900619149,-2.94297915E-05,-0.00929898117,0.879381895,-2.94297915E-05,-0.00930359587,0.979746163
2026-04-28T17:55:56.9835521Z,10,-1.99,Race,true,false,68,Garage Test Track,16,Bullet,0,0,0,-140.37915,1.32109737,190.6987,-1.61864511E-06,-0.0181798451,-0.999834776,-1,8.60012915E-06,1.46253785E-06,8.57211853E-06,0.999834716,-0.0181798451,0.000302993809,-7.45278667E-05,-0.0010431686,-0.000293591613,8.05156742E-05,0.000257709064,0,1,0,0,0,10,0.0100000007,0.00108883448,0.0010862808,0.00104435056,-0.00255208649,0.150891781,0.0100000007,-3.14159107,-179.999893,0.0181808453,1.0416857,8.60155069E-06,0.000492832507,8.05156742E-05,-0.00909029786,4.29323927E-06,0.999958694,-7.70327574E-07,-140.37915,2.82513094,195.697327,-8.97889367E-06,-0.198784038,-0.980043292,1.74532926,1,goal_runtime,0x006742EC,0x006742EC,0x0067459C,0x07D6855C,0x00673FF8,0x2B67F080,0x2B67F080,0x07D68C7C,0x00673FF8,0x07D6A95C,0x00673FF8,0x2B67F080,0x2B67F080,2.52999806,0,5,1,0x07D6842C,0x00673FF8,0x07D6855C,0x00673FF8,0x07D686E0,0x00673FF8,0x07D687D8,0x00673FF8,0x07D688D0,0x00673FF8,,,1,0x2B680D2C,0,0.600000024,0,0,0,-0.0175309926,-0.0202300567,0.000427270366,0,0.0203902517,1,0x2B680D2C,0,0.600000024,0,0,0,0.0175482761,-0.019722173,0.000428347033,0,0.0198865943,1,0x2B680D2C,0,0.600000024,0,0,0,0.0174514223,-0.0191081893,0.000166892176,6.28316402,0.0191748291,1,0x2B680D2C,0,0.600000024,0,0,0,-0.0174476616,-0.0190833826,0.000167327031,2.66122988E-05,0.0191503726,1,0,0,0.0100000007,100,0.0276919547,0.000182435164,0.150891781,2.6074249E-05,-7.63522185E-05,-0.00255208649,0.0276919566,2000,-0.00262883841,9.44858111E-05,1,4844.57861,0,24.2228928,-0.00246365671,0.979415119,9.79415131,0.000427270395,-0.00178867544,-0.00262883841,9.44858111E-05,0.000514944841,1,2000,-0.00242202636,9.44861822E-05,1,4844.57861,0,24.2228928,-0.00246966234,0.979415119,9.79415131,0.000428347063,-0.00174391607,-0.00242202636,9.44861822E-05,0.000474433909,1,2000,-0.0023994809,-0.000262683141,1,3129.19946,1.63444311E-05,15.645997,-0.0014747543,0.936205506,9.36205482,0.000166892176,-0.00168954942,-0.0023994809,-0.000262683141,0.000453524146,1,2000,-0.00265139691,-0.000262683578,1,3129.19946,-1.63444311E-05,15.645997,-0.00147862709,0.936205506,9.36205482,0.000167327031,-0.00168731716,-0.00265139691,-0.000262683578,0.000492207822,1,0.000192783758,0.0361402258,0.721463442,0.0001920387,0.0361475497,0.718115032,4.91738283E-05,0.0332344808,0.69540298,4.97326218E-05,0.0332359448,0.644885242
2026-04-28T17:55:57.0834927Z,11,-1.8899999000000001,Race,true,false,68,Garage Test Track,16,Bullet,0,0,0,-140.37915,1.32109082,190.698471,2.02955789E-06,-0.0181907564,-0.999834776,-1.00000024,5.02470448E-06,-2.12131226E-06,5.06246124E-06,0.999834538,-0.0181907564,0.000181627955,-5.49991091E-05,-0.00135305058,-0.000177905284,-0.000349068345,0.000105856525,0,1,0,0,0,10,0.0100000007,0.00136629411,0.00136518665,0.00135382789,0.000445008714,-0.17980592,0.0100000007,3.1415906,179.999878,0.0181917548,1.04231071,5.02553621E-06,0.000287942006,-0.000349068345,-0.00909575354,2.52189557E-06,0.999958694,1.0377604E-06,-140.37915,2.8251245,195.697098,-8.97886821E-06,-0.198783487,-0.980043471,1.74532926,1,goal_runtime,0x006742EC,0x006742EC,0x0067459C,0x07D6855C,0x00673FF8,0x2B67F080,0x2B67F080,0x07D68C7C,0x00673FF8,0x07D6A95C,0x00673FF8,0x2B67F080,0x2B67F080,2.62999797,0,5,1,0x07D6842C,0x00673FF8,0x07D6855C,0x00673FF8,0x07D686E0,0x00673FF8,0x07D687D8,0x00673FF8,0x07D688D0,0x00673FF8,,,1,0x2B680D2C,0,0.600000024,0,0,0,-0.0175346844,0.000341401465,0.000164415469,0,0.0020840338,1,0x2B680D2C,0,0.600000024,0,0,0,0.017544819,0.000328587019,0.000165705482,0,0.00204967288,1,0x2B680D2C,0,0.600000024,0,0,0,0.0174507052,0.000352056377,-0.000159526229,6.28314447,0.00226014969,1,0x2B680D2C,0,0.600000024,0,0,0,-0.0174483713,0.000345133041,-0.000159173971,4.63929537E-05,0.00223995047,1,0,0,0.0100000007,100,-0.000472960499,-0.000488210906,-0.17980592,0.00018635756,-5.01169998E-05,0.000445008714,-0.000472960528,2000,0.000758889131,-0.000456594891,1,4846.26807,0,24.2313404,-0.00205497094,0.979415119,9.79415131,0.000164415469,0.000163888151,0.000758889131,-0.000456594891,0.000148653504,1,2000,0.000421186618,-0.000456595153,1,4846.26807,0,24.2313404,-0.00202228385,0.979415119,9.79415131,0.000165705482,0.000160379845,0.000421186618,-0.000456595153,8.2503313E-05,1,2000,4.876405E-06,0.000126285871,1,3126.93359,-0.000300427724,15.6346674,0.00223160954,0.936205506,9.36205482,-0.000159526229,0.000155831716,4.876405E-06,0.000126285871,7.88980688E-05,1,2000,0.00117522292,0.000126286075,1,3126.93359,0.000300427841,15.6346674,0.00221230276,0.936205506,9.36205482,-0.000159173971,0.000154141773,0.00117522292,0.000126286075,0.000142064993,1,-0.000369176239,-0.02628549,-1.83062172,-0.000345706911,-0.0262641534,-1.783692,-7.1711831E-05,-0.0326418392,-1.69146776,-7.09667729E-05,-0.0326500982,-1.69104218
2026-04-28T17:55:57.1844348Z,12,-1.7899999,Race,true,false,68,Garage Test Track,16,Bullet,0,0,0,-140.37915,1.32108819,190.698181,2.37447648E-06,-0.018189501,-0.999834776,-1.00000024,3.72041654E-06,-2.44255307E-06,3.76422963E-06,0.999834538,-0.018189501,0.00013744575,-1.38571922E-05,-0.00409062859,0.000246043928,0.000106646723,8.47046758E-05,0,1,0,0,0,10,0.0100000007,0.00409296062,0.00409293687,0.0040902053,-0.00287639443,-0.121423408,0.0100000007,3.14159036,179.999863,0.0181904994,1.04223883,3.72103227E-06,0.000213199426,0.000106646723,-0.00909512583,1.87123885E-06,0.999958694,1.20430718E-06,-140.37915,2.82512236,195.696808,-8.97886821E-06,-0.198783636,-0.980043471,1.74532926,1,goal_runtime,0x006742EC,0x006742EC,0x0067459C,0x07D6855C,0x00673FF8,0x2B67F080,0x2B67F080,0x07D68C7C,0x00673FF8,0x07D6A95C,0x00673FF8,0x2B67F080,0x2B67F080,2.72999787,0,5,1,0x07D6842C,0x00673FF8,0x07D6855C,0x00673FF8,0x07D686E0,0x00673FF8,0x07D687D8,0x00673FF8,0x07D688D0,0x00673FF8,,,1,0x2B680D2C,0,0.600000024,0,0,0,-0.0175359882,-0.000910582778,-0.000199513044,0,0.00331471488,1,0x2B680D2C,0,0.600000024,0,0,0,0.0175435152,-0.00107275613,-0.000198199748,0,0.00358039094,1,0x2B680D2C,0,0.600000024,0,0,0,0.017450355,-0.000885301852,1.20644327E-05,6.28313255,0.00316661922,1,0x2B680D2C,0,0.600000024,0,0,0,-0.0174487233,-0.000822771457,1.24730104E-05,5.83383553E-05,0.0030529066,1,0,0,0.0100000007,100,-0.0169266928,0.000594732177,-0.121423408,0.000306712696,-1.98045145E-05,-0.00287639443,-0.0169266947,2000,-0.00275527406,-0.000567064271,1,4844.83887,0,24.2241936,0.00318579283,0.979415119,9.79415131,-0.000199513044,-0.000274820544,-0.00275527406,-0.000567064271,0.000539711444,1,2000,-0.00304673263,-0.000567065668,1,4844.83887,0,24.2241936,0.0034142877,0.979415119,9.79415131,-0.000198199748,-0.000299748848,-0.00304673263,-0.000567065668,0.000596803264,1,2000,-0.00296385423,-6.41849692E-05,1,3129.29761,5.96669197E-05,15.6464872,-0.00303899008,0.936205506,9.36205482,1.20644327E-05,-0.000279688364,-0.00296385423,-6.41849692E-05,0.000570443692,1,2000,-0.00283813267,-6.41836232E-05,1,3129.29761,-5.96669161E-05,15.6464872,-0.00293857954,0.936205506,9.36205482,1.24730104E-05,-0.000269620592,-0.00283813267,-6.41836232E-05,0.000515926804,1,-0.000130385146,-0.0363928489,0.123068102,-0.000130385146,-0.0363905206,0.153071791,-3.50177252E-05,0.0171590634,0.0906469449,-3.52039897E-05,0.0171646979,0.0812956095
2026-04-28T17:55:57.2835364Z,13,-1.6899999999999999,Race,true,false,68,Garage Test Track,16,Bullet,0,0,0,-140.37915,1.32108939,190.697891,-2.65467747E-06,-0.0181840453,-0.999834776,-1.00000012,1.04830906E-05,2.46445984E-06,1.04365427E-05,0.999834657,-0.0181840453,-0.000137693714,2.59271783E-05,-0.00377242989,0.000188051941,0.000348187285,-3.49361653E-05,0,1,0,0,0,10,0.0100000007,0.00377503107,0.0037749419,0.00377133559,-0.00449114386,0.0718713924,0.0100000007,-3.14158988,-179.999832,0.0181850456,1.04192626,1.04848241E-05,0.000600736123,0.000348187285,-0.00909239799,5.23012432E-06,0.999958694,-1.27983719E-06,-140.37915,2.82512379,195.696518,-8.97886821E-06,-0.198783681,-0.980043471,1.74532926,1,goal_runtime,0x006742EC,0x006742EC,0x0067459C,0x07D6855C,0x00673FF8,0x2B67F080,0x2B67F080,0x07D68C7C,0x00673FF8,0x07D6A95C,0x00673FF8,0x2B67F080,0x2B67F080,2.82999778,0,5,1,0x07D6842C,0x00673FF8,0x07D6855C,0x00673FF8,0x07D686E0,0x00673FF8,0x07D687D8,0x00673FF8,0x07D688D0,0x00673FF8,,,1,0x2B680D2C,0,0.600000024,0,0,0,-0.0175292287,-0.0129406089,0.000262045243,0,0.0130344396,1,0x2B680D2C,0,0.600000024,0,0,0,0.0175501592,-0.0129226297,0.000263452821,0,0.0130175026,1,0x2B680D2C,0,0.600000024,0,0,0,0.0174518749,-0.0127810379,0.00018801642,6.28309584,0.0128943091,1,0x2B680D2C,0,0.600000024,0,0,0,-0.0174472071,-0.0119684739,0.000188312464,9.44480416E-05,0.0120889302,1,0,0,0.0100000007,100,0.0316399783,0.000780266186,0.0718713924,-0.000454093533,1.81245159E-05,-0.00449114386,0.031639982,2000,-0.00489653973,0.000963544822,1,4843.76074,0,24.2188034,-0.00151135691,0.979415119,9.79415131,0.000262045243,-0.00114408298,-0.00489653973,0.000963544822,0.000959149096,1,2000,-0.00427911244,0.000963549188,1,4843.76074,0,24.2188034,-0.00151935616,0.979415119,9.79415131,0.000263452821,-0.00114258321,-0.00427911244,0.000963549188,0.000838205568,1,2000,-0.00427945377,-0.000102007943,1,3130.53613,0,15.6526804,-0.00166093605,0.936205506,9.36205482,0.00018801642,-0.00113005424,-0.00427945377,-0.000102007943,0.000801289687,1,2000,-0.00489624171,-0.000102006379,1,3130.53613,0,15.6526804,-0.001663676,0.936205506,9.36205482,0.000188312464,-0.00105813378,-0.00489624171,-0.000102006379,0.000916777761,1,0.000675953866,0.0461558253,0.971972406,0.000664405467,0.046165254,0.943711162,0.00015199183,0.0175951961,0.972768962,0.000151619301,0.0175839439,0.903602242
2026-04-28T17:55:57.3830427Z,14,-1.5900000000000001,Race,true,false,68,Garage Test Track,16,Bullet,0,0,0,-140.37915,1.32109237,190.697632,-2.55471514E-06,-0.018184213,-0.999834776,-1.00000012,8.64218055E-06,2.39796054E-06,8.59714601E-06,0.999834657,-0.018184213,-0.000105229185,3.80614983E-05,-0.00101191073,-0.000203802017,-0.000142015284,-8.5457883E-05,0,1,0,0,0,10,0.0100000007,0.00101807911,0.00101736747,0.0010110517,-0.00252173864,0.150982782,0.0100000007,-3.14159012,-179.999847,0.0181852132,1.04193592,8.64360936E-06,0.000495242304,-0.000142015284,-0.00909248181,4.31000944E-06,0.999958694,-1.23822008E-06,-140.37915,2.82512665,195.696259,-8.97886821E-06,-0.198783636,-0.980043471,1.74532926,1,goal_runtime,0x006742EC,0x006742EC,0x0067459C,0x07D6855C,0x00673FF8,0x2B67F080,0x2B67F080,0x07D68C7C,0x00673FF8,0x07D6A95C,0x00673FF8,0x2B67F080,0x2B67F080,2.92999768,0,5,1,0x07D6842C,0x00673FF8,0x07D6855C,0x00673FF8,0x07D686E0,0x00673FF8,0x07D687D8,0x00673FF8,0x07D688D0,0x00673FF8,,,1,0x2B680D2C,0,0.600000024,0,0,0,-0.017531069,-0.0205305535,0.000373212883,0,0.020654032,1,0x2B680D2C,0,0.600000024,0,0,0,0.017548319,-0.0194438528,0.000374792085,0,0.0195736922,1,0x2B680D2C,0,0.600000024,0,0,0,0.0174513441,-0.0185334422,-0.000218418791,6.28308296,0.0186431818,1,0x2B680D2C,0,0.600000024,0,0,0,-0.0174476169,-0.0196792204,-0.00021807829,0.00010745335,0.0197836757,1,0,0,0.0100000007,100,0.00788881723,-2.51566212E-06,0.150982782,-0.000184117365,3.8086655E-05,-0.00252173864,0.00788881816,2000,-0.0025723353,0.000293629331,1,4844.38574,0,24.2219276,-0.00215203711,0.979415119,9.79415131,0.000373212912,-0.00181527506,-0.0025723353,0.000293629331,0.000503876829,1,2000,-0.00247540581,0.000293628545,1,4844.38574,0,24.2219276,-0.00216102507,0.979415119,9.79415131,0.000374792115,-0.00171927933,-0.00247540581,0.000293628545,0.000484890013,1,2000,-0.00277542649,0.000126505125,1,3129.23438,-0.00021637333,15.6461716,0.00193012378,0.936205506,9.36205482,-0.000218418791,-0.00163867546,-0.00277542649,0.000126505125,0.000463507778,1,2000,-0.00227232091,0.000126505169,1,3129.23438,0.00021637333,15.6461716,0.00192701502,0.936205506,9.36205482,-0.00021807829,-0.00174007006,-0.00227232091,0.000126505169,0.000481638039,1,-0.000184029326,0.0111167636,0.761959195,-0.000184029326,0.011133926,0.655618906,-5.30853831E-05,-0.0406435207,0.574887216,-4.09781896E-05,-0.0406390727,0.769474506
2026-04-28T17:55:57.4834092Z,15,-1.49,Race,true,false,68,Garage Test Track,16,Bullet,0,0,0,-140.37915,1.32109463,190.697433,-1.04801666E-06,-0.0181881189,-0.999834776,-1.00000024,4.36336222E-06,9.68815584E-07,4.34501953E-06,0.999834597,-0.0181881189,-0.000234800522,1.86127127E-05,-0.000138265401,-0.000281195855,0.000515071151,-0.000162409415,0,1,0,0,0,10,0.0100000007,0.00027312091,0.000272485981,0.000137904266,-0.000986591214,0.0848325714,0.0100000007,-3.14159155,-179.999924,0.0181891192,1.04215968,4.36408391E-06,0.00025004358,0.000515071151,-0.00909443479,2.17718548E-06,0.999958694,-5.04228865E-07,-140.37915,2.82512856,195.69606,-8.97886821E-06,-0.198783532,-0.980043471,1.74532926,1,goal_runtime,0x006742EC,0x006742EC,0x0067459C,0x07D6855C,0x00673FF8,0x2B67F080,0x2B67F080,0x07D68C7C,0x00673FF8,0x07D6A95C,0x00673FF8,0x2B67F080,0x2B67F080,3.02999759,0,5,1,0x07D6842C,0x00673FF8,0x07D6855C,0x00673FF8,0x07D686E0,0x00673FF8,0x07D687D8,0x00673FF8,0x07D688D0,0x00673FF8,,,1,0x2B680D2C,0,0.600000024,0,0,0,-0.0175353456,-0.0202661362,-0.00039910464,0,0.0204071011,1,0x2B680D2C,0,0.600000024,0,0,0,0.0175440386,-0.0209749993,-0.000397566415,0,0.0211111698,1,0x2B680D2C,0,0.600000024,0,0,0,0.0174504034,-0.0196692087,-0.000107011554,6.28310013,0.0197021514,1,0x2B680D2C,0,0.600000024,0,0,0,-0.0174485575,-6.66693404E-06,-0.000106636435,9.03347827E-05,0.00094463065,1,0,0,0.0100000007,100,-0.0250768978,-0.000516114582,0.0848325714,1.59684751E-05,2.37738586E-05,-0.000986591214,-0.0250768997,2000,-0.00122166565,0.000376622338,1,4845.01953,0,24.2250977,0.00230081589,0.979415119,9.79415131,-0.000399104669,-0.00179201073,-0.00122166565,0.000376622338,0.000239303583,1,2000,-0.000640026701,0.000376625365,1,4845.01953,0,24.2250977,0.0022921029,0.979415119,9.79415131,-0.000397566444,-0.00185457256,-0.000640026701,0.000376625365,0.000125370381,1,2000,-0.00103667099,-0.000627763744,1,3128.15771,-0.000285879301,15.6407881,0.000945875712,0.936205506,9.36205482,-0.000107011554,-0.00173913897,-0.00103667099,-0.000627763744,0.000119898912,1,2000,-0.000825062103,-0.000627761299,1,3128.15771,0.000285879301,15.6407881,0.000944189436,0.936205506,9.36205482,-0.000106636435,-7.06083802E-06,-0.000825062103,-0.000627761299,0.000228694058,1,-0.000427663297,-0.0772317499,-0.0246930849,-0.000428035826,-0.0772358477,0.153747752,-9.40635728E-05,0.0111407228,0.105896957,-9.40635728E-05,0.0111441845,-1.88390434
2026-04-28T17:55:57.5831605Z,16,-1.3899999000000001,Race,true,false,68,Garage Test Track,16,Bullet,0,0,0,-140.37915,1.32109416,190.697296,3.36146422E-06,-0.0181916449,-0.999834776,-1.00000024,6.38536449E-06,-3.47820014E-06,6.44758211E-06,0.999834538,-0.0181916449,-0.000416369468,-1.80080169E-05,-0.00317808613,0.000255229097,0.000330479146,-0.000316278718,0,1,0,0,0,10,0.0100000007,0.00320529565,0.0032052449,0.00317788729,-0.00169385318,-0.148423284,0.0100000007,3.1415894,179.999802,0.0181926433,1.04236162,6.38642132E-06,0.000365914981,0.000330479146,-0.00909619778,3.20836921E-06,0.999958694,1.70998669E-06,-140.37915,2.82512712,195.695923,-8.97886821E-06,-0.198783353,-0.980043471,1.74532926,1,goal_runtime,0x006742EC,0x006742EC,0x0067459C,0x07D6855C,0x00673FF8,0x2B67F080,0x2B67F080,0x07D68C7C,0x00673FF8,0x07D6A95C,0x00673FF8,0x2B67F080,0x2B67F080,3.12999749,0,5,1,0x07D6842C,0x00673FF8,0x07D6855C,0x00673FF8,0x07D686E0,0x00673FF8,0x07D687D8,0x00673FF8,0x07D688D0,0x00673FF8,,,1,0x2B680D2C,0,0.600000024,0,0,0,-0.0175333228,-1.48522768E-05,-0.000530180056,0,0.00304990751,1,0x2B680D2C,0,0.600000024,0,0,0,0.0175461806,-5.88917574E-05,-0.000528887904,0,0.00306741055,1,0x2B680D2C,0,0.600000024,0,0,0,0.0174508747,-6.49872891E-06,4.10736102E-05,6.28312731,0.000405389554,1,0x2B680D2C,0,0.600000024,0,0,0,-0.0174480826,-1.35451064E-05,4.17543342E-05,6.36590412E-05,0.000486146862,1,0,0,0.0100000007,100,-0.0150825903,7.82092593E-06,-0.148423284,-0.000265543553,-1.80862262E-05,-0.00169385318,-0.0150825912,2000,-0.00190789893,0.000610552612,1,4844.82227,0,24.2241116,0.00304857362,0.979415119,9.79415131,-0.000530180114,-4.87181933E-06,-0.00190789893,0.000610552612,0.000373725023,1,2000,-0.00150774524,0.000610553427,1,4844.82227,0,24.2241116,0.00306556816,0.979415119,9.79415131,-0.000528887962,-1.9207173E-05,-0.00150774524,0.000610553427,0.000295341713,1,2000,-0.00151380349,-8.00545822E-05,1,3128.80811,-4.2102206E-06,15.6440401,-0.000405096536,0.936205506,9.36205482,4.10736102E-05,-1.60403579E-05,-0.00151380349,-8.00545822E-05,0.000282353343,1,2000,-0.00190187246,-8.00552662E-05,1,3128.80811,4.21022332E-06,15.6440401,-0.000485664466,0.936205506,9.36205482,4.17543342E-05,-2.78790048E-05,-0.00190187246,-8.00552662E-05,0.000357201614,1,0.000202283249,-0.013107541,-1.7357192,0.000214204178,-0.0131321484,-1.80437589,4.71249186E-05,0.0148085151,-1.92967606,4.74974477E-05,0.0148390755,-0.045848377
2026-04-28T17:55:57.6836191Z,17,-1.2899999,Race,true,false,68,Garage Test Track,16,Bullet,0,0,0,-140.37915,1.32109427,190.697006,-1.14211161E-06,-0.018178694,-0.999834776,-1,2.31916101E-06,1.10013411E-06,2.29877878E-06,0.999834776,-0.018178694,0.000680705823,4.43668796E-06,-0.00441492582,0.000356136472,0.000176817906,0.000525632,0,1,0,0,0,20,0.0200000014,0.00446709665,0.00446709432,0.0044141151,-0.00263358327,-0.0890671238,0.0100000007,-3.14159155,-179.999924,0.0181796942,1.04161966,2.31954436E-06,0.000132900095,0.000176817906,-0.0090897223,1.15453258E-06,0.999958694,-5.60584567E-07,-140.37915,2.82512712,195.695633,-8.97889367E-06,-0.198783904,-0.980043292,1.74532926,1,goal_runtime,0x006742EC,0x006742EC,0x0067459C,0x07D6855C,0x00673FF8,0x2B67F080,0x2B67F080,0x07D68C7C,0x00673FF8,0x07D6A95C,0x00673FF8,0x2B67F080,0x2B67F080,3.2299974,0,5,1,0x07D6842C,0x00673FF8,0x07D6855C,0x00673FF8,0x07D686E0,0x00673FF8,0x07D687D8,0x00673FF8,0x07D688D0,0x00673FF8,,,1,0x2B680D2C,0,0.600000024,0,0,0,-0.0175372735,-0.00522834342,0.000110033558,0,0.00770650152,1,0x2B680D2C,0,0.600000024,0,0,0,0.017541999,-0.00461365515,0.000111191228,0,0.00724104838,1,0x2B680D2C,0,0.600000024,0,0,0,0.0174499117,-0.00338816456,3.54812801E-06,6.28312445,0.00619319873,1,0x2B680D2C,0,0.600000024,0,0,0,-0.0174490567,-0.00571707496,4.23701567E-06,6.64806939E-05,0.00804485008,1,0,0,0.0100000007,100,0.0387988389,0.000430932152,-0.0890671238,-9.52709888E-05,-4.18195577E-06,-0.00263358327,0.0838600025,2000,-0.00419000397,0.000454478111,1,4843.50244,0,24.2175121,-0.00565716205,0.979415119,9.79415131,0.000110033558,-0.000678724959,-0.00419000397,0.000454478111,0.00082075072,1,2000,-0.00378703093,0.000454481487,1,4843.50244,0,24.2175121,-0.00557704642,0.979415119,9.79415131,0.000111191228,-0.000637417543,-0.00378703093,0.000454481487,0.000741815078,1,2000,-0.00346225966,-0.000241161542,1,3130.62427,0.000234425184,15.653121,-0.00518107601,0.936205506,9.36205482,3.54812801E-06,-0.000547310279,-0.00346225966,-0.000241161542,0.000709129381,1,2000,-0.00451480132,-0.00024116112,1,3130.62427,-0.000234425155,15.653121,-0.00565514062,0.936205506,9.36205482,4.23701567E-06,-0.000710947264,-0.00451480132,-0.00024116112,0.000784504402,1,-0.000197533504,0.0320106782,0.23282969,-0.000209081903,0.0320039541,0.208681881,-4.81493735E-05,-0.00187627401,0.289390445,-4.8708167E-05,-0.00187586574,0.377935141
2026-04-28T17:55:57.7835762Z,18,-1.1799999000000001,Race,true,false,68,Garage Test Track,16,Bullet,0,0,0,-140.37915,1.32109606,190.696716,6.99536167E-06,-0.0181752928,-0.999834776,-0.99999994,5.81038239E-06,-7.10213999E-06,5.93850564E-06,0.999834836,-0.0181752928,-0.000350237649,2.42186179E-05,-0.000954828749,-0.000238727356,4.68247781E-05,-0.000269441312,0,1,0,0,0,20,0.0200000014,0.00101732532,0.00101703708,0.000954228395,-0.00376379071,0.140448093,0.0100000007,3.14158559,179.999588,0.0181762949,1.04142487,5.81134236E-06,0.00033296537,4.68247781E-05,-0.0090880217,2.93734342E-06,0.999958694,3.52452093E-06,-140.37915,2.82512856,195.695343,-8.97889458E-06,-0.198783845,-0.980043352,1.74532926,1,goal_runtime,0x006742EC,0x006742EC,0x0067459C,0x07D6855C,0x00673FF8,0x2B67F080,0x2B67F080,0x07D68C7C,0x00673FF8,0x07D6A95C,0x00673FF8,0x2B67F080,0x2B67F080,3.33999729,0,5,1,0x07D6842C,0x00673FF8,0x07D6855C,0x00673FF8,0x07D686E0,0x00673FF8,0x07D687D8,0x00673FF8,0x07D688D0,0x00673FF8,,,1,0x2B680D2C,0,0.600000024,0,0,0,-0.0175337829,-0.0197289921,-0.000536568346,0,0.0199805684,1,0x2B680D2C,0,0.600000024,0,0,0,0.0175454896,-0.0205489565,-0.000535112806,0,0.0207904577,1,0x2B680D2C,0,0.600000024,0,0,0,0.0174507815,-0.020016266,0.00011932748,6.2830801,0.020054562,1,0x2B680D2C,0,0.600000024,0,0,0,-0.0174483061,-0.0184863489,0.000119796779,0.000110584777,0.0185259767,1,0,0,0.0100000007,100,-0.0218898281,0.000148396051,0.140448093,8.75589612E-05,2.12506966E-05,-0.00376379071,-0.0106106512,2000,-0.00233394932,0.000125214036,1,4844.03418,0,24.220171,0.00309394766,0.979415119,9.79415131,-0.000536568405,-0.00174456323,-0.00233394932,0.000125214036,0.000457181101,1,2000,-0.00261728466,0.000125213322,1,4844.03418,0,24.220171,0.00308595574,0.979415119,9.79415131,-0.000535112864,-0.00181684387,-0.00261728466,0.000125213322,0.000512681669,1,2000,-0.00227206969,0.000614824006,1,3129.55908,0.000248901022,15.6477947,-0.00105432048,0.936205506,9.36205482,0.00011932748,-0.00176985608,-0.00227206969,0.000614824006,0.000490034581,1,2000,-0.0026791438,0.000614822144,1,3129.55908,-0.000248900877,15.6477947,-0.00105853553,0.936205506,9.36205482,0.000119796779,-0.00163452572,-0.0026791438,0.000614822144,0.000437036186,1,0.000174529836,-0.032330092,0.61370331,0.000174529836,-0.0323151983,0.677470446,4.34927606E-05,0.00578896701,0.693068147,3.75322961E-05,0.00577798765,0.524056315
2026-04-28T17:55:57.8830491Z,19,-1.0900000000000001,Race,true,false,68,Garage Test Track,16,Bullet,0,0,0,-140.37915,1.32109666,190.696518,2.22599101E-06,-0.018180294,-0.999834776,-1,7.26095777E-06,-2.35838706E-06,7.30263355E-06,0.999834716,-0.018180294,-3.88923363E-05,5.02447938E-06,-0.00103901338,-0.000219272828,-0.000382811995,-2.9365232E-05,0,1,0,0,0,10,0.0100000007,0.0010397532,0.0010397411,0.00103875028,-0.00183681108,0.0797797665,0.0100000007,3.14159036,179.999863,0.0181812942,1.04171133,7.26215831E-06,0.000416091003,-0.000382811995,-0.0090905223,3.64104812E-06,0.999958694,1.14614181E-06,-140.37915,2.82512903,195.695145,-8.97889458E-06,-0.1987838,-0.980043352,1.74532926,1,goal_runtime,0x006742EC,0x006742EC,0x0067459C,0x07D6855C,0x00673FF8,0x2B67F080,0x2B67F080,0x07D68C7C,0x00673FF8,0x07D6A95C,0x00673FF8,0x2B67F080,0x2B67F080,3.42999721,0,5,1,0x07D6842C,0x00673FF8,0x07D6855C,0x00673FF8,0x07D686E0,0x00673FF8,0x07D687D8,0x00673FF8,0x07D688D0,0x00673FF8,,,1,0x2B680D2C,0,0.600000024,0,0,0,-0.01753233,-0.0198446643,0.000247102114,0,0.0199061595,1,0x2B680D2C,0,0.600000024,0,0,0,0.0175469387,-0.0190764423,0.000248580793,0,0.0191400461,1,0x2B680D2C,0,0.600000024,0,0,0,0.0174511578,0.000305288529,-9.13781696E-05,6.28307629,0.00194912404,1,0x2B680D2C,0,0.600000024,0,0,0,-0.0174478069,-0.0184138957,-9.08965594E-05,0.000114403942,0.0184407085,1,0,0,0.0100000007,100,0.00455826987,-0.000324666704,0.0797797665,-8.44750393E-05,8.27114673E-06,-0.00183681108,0.00455827033,2000,-0.00171259919,-2.22523377E-05,1,4844.49414,0,24.2224693,-0.00142479839,0.979415119,9.79415131,0.000247102114,-0.00175464258,-0.00171259919,-2.22523377E-05,0.000335469114,1,2000,-0.00189072092,-2.22526942E-05,1,4844.49414,0,24.2224693,-0.00143329101,0.979415119,9.79415131,0.000248580793,-0.0016867544,-0.00189072092,-2.22526942E-05,0.000370360154,1,2000,0.00144505361,0.000285431655,1,3128.84717,0.00240610261,15.6442356,0.00192424457,0.936205506,9.36205482,-9.13781696E-05,0.000156693903,0.00144505361,0.000285431655,0.000354002492,1,2000,-0.00504836114,0.000285432063,1,3128.84717,-0.00240610261,15.6442356,0.000803317642,0.936205506,9.36205482,-9.08965594E-05,-0.0016281351,-0.00504836114,0.000285432063,0.000320684863,1,0.000145286307,0.0783670396,-0.00744089438,0.000144913778,0.0783693567,-0.165041149,3.76254284E-05,-0.0210705642,-1.81054366,4.99188864E-05,-0.021069333,-0.00852681603
2026-04-28T17:55:57.9833246Z,20,-0.98999999999999999,Race,true,false,68,Garage Test Track,16,Bullet,0,0,0,-140.37915,1.32109463,190.696411,-2.52232826E-06,-0.0181940645,-0.999834776,-1.00000036,6.12902568E-06,2.41121529E-06,6.08414121E-06,0.999834478,-0.0181940645,0.000379577803,-3.63015533E-05,-0.00166620605,-9.3021697E-07,-0.000355025666,0.00029832765,0,1,0,0,0,10,0.0100000007,0.00170928042,0.00170889497,0.00166659022,0.000115753508,-0.178195938,0.0100000007,-3.14159012,-179.999847,0.0181950629,1.04250026,6.13004022E-06,0.000351225404,-0.000355025666,-0.00909740757,3.05341791E-06,0.999958694,-1.23343682E-06,-140.37915,2.82512665,195.695038,-8.97886912E-06,-0.198783159,-0.98004353,1.74532926,1,goal_runtime,0x006742EC,0x006742EC,0x0067459C,0x07D6855C,0x00673FF8,0x2B67F080,0x2B67F080,0x07D68C7C,0x00673FF8,0x07D6A95C,0x00673FF8,0x2B67F080,0x2B67F080,3.52999711,0,5,1,0x07D6842C,0x00673FF8,0x07D6855C,0x00673FF8,0x07D686E0,0x00673FF8,0x07D687D8,0x00673FF8,0x07D688D0,0x00673FF8,,,1,0x2B680D2C,0,0.600000024,0,0,0,-0.017533578,0.000361277343,0.000741648604,0,0.0043895822,1,0x2B680D2C,0,0.600000024,0,0,0,0.0175459217,0.00121079083,0.000743020675,0,0.00505917007,1,0x2B680D2C,0,0.600000024,0,0,0,0.017450856,0.000110494067,-9.33575211E-05,6.28303385,0.00128027319,1,0x2B680D2C,0,0.600000024,0,0,0,-0.0174482204,0.000132994974,-9.25507411E-05,0.000157090763,0.00136963546,1,0,0,0.0100000007,100,0.0251669679,-0.000615746074,-0.178195938,0.000127908104,-3.01440923E-05,0.000115753508,0.0251669697,2000,0.000320568099,-0.000334436685,1,4845.75049,0,24.2287521,-0.00437289942,0.979415119,9.79415131,0.000741648721,8.23368318E-05,0.000320568099,-0.000334436685,6.27938498E-05,1,2000,8.35892133E-05,-0.000334435521,1,4845.75049,0,24.2287521,-0.00490994425,0.979415119,9.79415131,0.000743020792,0.000239427201,8.35892133E-05,-0.000334435521,1.63737095E-05,1,2000,8.37193293E-05,7.45848738E-05,1,3127.34204,0,15.6367102,0.0012748884,0.936205506,9.36205482,-9.33575211E-05,8.63459063E-05,8.37193293E-05,7.45848738E-05,1.56756996E-05,1,2000,0.000320455118,7.45836442E-05,1,3127.34204,0,15.6367102,0.00136259955,0.936205506,9.36205482,-9.25507411E-05,9.71422487E-05,0.000320455118,7.45836442E-05,6.00023704E-05,1,-0.00012479721,0.0494546443,-1.55165768,-0.000101700418,0.0494439825,-1.40808749,-3.01748496E-05,-0.000197935136,-0.0668850765,-4.13507187E-05,-0.000165418154,-1.70710731
2026-04-28T17:55:58.0835593Z,21,-0.88999989999999995,Race,true,false,68,Garage Test Track,16,Bullet,0,0,0,-140.379135,1.32109284,190.696121,1.35489256E-06,-0.0181846526,-0.999834776,-1.00000012,4.42740202E-06,-1.43564068E-06,4.45277692E-06,0.999834657,-0.0181846526,0.000112750509,-1.37536254E-05,-0.00391907711,0.000292319455,-0.000249230972,5.24902971E-05,0,1,0,0,0,10,0.0100000007,0.00392072275,0.00392069854,0.00391867943,-0.00266949064,-0.124958634,0.0100000007,3.14159131,179.999908,0.0181856528,1.04196107,4.42813416E-06,0.000253713399,-0.000249230972,-0.0090927016,2.22013637E-06,0.999958694,6.97662131E-07,-140.379135,2.82512474,195.694748,-8.97886912E-06,-0.198783129,-0.98004353,1.74532926,1,goal_runtime,0x006742EC,0x006742EC,0x0067459C,0x07D6855C,0x00673FF8,0x2B67F080,0x2B67F080,0x07D68C7C,0x00673FF8,0x07D6A95C,0x00673FF8,0x2B67F080,0x2B67F080,3.62999701,0,5,1,0x07D6842C,0x00673FF8,0x07D6855C,0x00673FF8,0x07D686E0,0x00673FF8,0x07D687D8,0x00673FF8,0x07D688D0,0x00673FF8,,,1,0x2B680D2C,0,0.600000024,0,0,0,-0.0175352823,-0.000866722432,0.000175709603,0,0.00321587804,1,0x2B680D2C,0,0.600000024,0,0,0,0.0175441056,-0.000874899677,0.000176985646,0,0.00323048746,1,0x2B680D2C,0,0.600000024,0,0,0,0.0174504686,-0.000826667761,-0.000114528702,6.28308392,0.00314430404,1,0x2B680D2C,0,0.600000024,0,0,0,-0.0174484923,-0.000772198255,-0.000113821588,0.00010702516,0.00304308534,1,0,0,0.0100000007,100,0.00767771853,0.000319934479,-0.124958634,3.59733167E-05,-1.69529703E-05,-0.00266949064,0.00767771946,2000,-0.00271060015,-4.00531135E-05,1,4844.33008,0,24.2216492,-0.00309549877,0.979415119,9.79415131,0.000175709603,-0.000269624958,-0.00271060015,-4.00531135E-05,0.00053096062,1,2000,-0.00270700408,-4.00530844E-05,1,4844.33008,0,24.2216492,-0.00310830888,0.979415119,9.79415131,0.000176985646,-0.000270942983,-0.00270700408,-4.00530844E-05,0.000530256191,1,2000,-0.00276668277,-4.63092147E-05,1,3129.56934,-4.30462533E-05,15.6478462,0.00303236139,0.936205506,9.36205482,-0.000114528702,-0.000263016758,-0.00276668277,-4.63092147E-05,0.000506862823,1,2000,-0.0026509217,-4.63092547E-05,1,3129.56934,4.3046246E-05,15.6478462,0.00294216746,0.936205506,9.36205482,-0.000113821588,-0.000253861013,-0.0026509217,-4.63092547E-05,0.000507535471,1,-0.000170432017,-0.056593895,-0.117370412,-0.000181607887,-0.0566034988,-0.182868242,-3.87430155E-05,-0.00211711787,0.186403066,-2.71946174E-05,-0.00212708465,0.167344972
2026-04-28T17:55:58.1840957Z,22,-0.79000000000000004,Race,true,false,68,Garage Test Track,16,Bullet,0,0,0,-140.379135,1.3210932,190.695862,-4.87738646E-07,-0.018179344,-0.999834776,-1,3.89801835E-06,4.16944118E-07,3.8897947E-06,0.999834716,-0.018179344,-9.00110099E-05,1.0854008E-05,-0.0037938673,0.000225983167,0.000197992951,-8.43044836E-05,0,1,0,0,0,10,0.0100000007,0.00379495043,0.00379493483,0.00379304332,-0.0038753394,0.00814720895,0.0100000007,-3.14159226,-179.999969,0.0181803443,1.04165697,3.89866273E-06,0.000223376905,0.000197992951,-0.00909004733,1.94703375E-06,0.999958694,-2.2618002E-07,-140.379135,2.82512522,195.694489,-8.97889458E-06,-0.198783755,-0.980043352,1.74532926,1,goal_runtime,0x006742EC,0x006742EC,0x0067459C,0x07D6855C,0x00673FF8,0x2B67F080,0x2B67F080,0x07D68C7C,0x00673FF8,0x07D6A95C,0x00673FF8,0x2B67F080,0x2B67F080,3.72999692,0,5,1,0x07D6842C,0x00673FF8,0x07D6855C,0x00673FF8,0x07D686E0,0x00673FF8,0x07D687D8,0x00673FF8,0x07D688D0,0x00673FF8,,,1,0x2B680D2C,0,0.600000024,0,0,0,-0.0175356939,-0.0086998241,-0.000192974636,0,0.0099551212,1,0x2B680D2C,0,0.600000024,0,0,0,0.0175435748,-0.00893750414,-0.000191637853,0,0.0100892838,1,0x2B680D2C,0,0.600000024,0,0,0,0.0174504165,-0.0169649534,-0.000191024068,6.28293419,0.0170570686,1,0x2B680D2C,0,0.600000024,0,0,0,-0.0174486693,-0.00101119257,-0.000190264574,0.000256250001,0.00359747023,1,0,0,0.0100000007,100,-0.0712271854,0.000617130427,0.00814720895,0.000622260908,4.68270355E-06,-0.0038753394,-0.0712271929,2000,-0.00394463632,-0.00077829865,1,4843.69385,0,24.2184696,0.00483024213,0.979415119,9.79415131,-0.000192974636,-0.000874284946,-0.00394463632,-0.00077829865,0.000772687315,1,2000,-0.00396721158,-0.000778298418,1,4843.69385,0,24.2184696,0.0046718372,0.979415119,9.79415131,-0.000191637853,-0.000886227121,-0.00396721158,-0.000778298418,0.000777109468,1,2000,-0.00501883682,-0.000740156625,1,3130.46094,-0.00075857155,15.6523046,0.00168757141,0.936205506,9.36205482,-0.000191024068,-0.00149996916,-0.00501883682,-0.000740156625,0.000742822653,1,2000,-0.00289300969,-0.000740157207,1,3130.46094,0.00075857155,15.6523046,0.00345091592,0.936205506,9.36205482,-0.000190264574,-0.000281198038,-0.00289300969,-0.000740157207,0.000738600269,1,-4.11644542E-05,-0.0368684195,0.673924267,-5.30853831E-05,-0.0368623473,0.685879588,-5.21540596E-06,-0.00764953624,1.39127636,-1.76951271E-05,-0.00764429802,0.055438485
