timestamp_utc,sample_index,race_time_seconds,game_state,is_racing,is_paused,level_id,level_name,car_id,car_name,player_steer,player_throttle,player_brake,position_x,position_y,position_z,forward_x,forward_y,forward_z,right_x,right_y,right_z,up_x,up_y,up_z,velocity_x,velocity_y,velocity_z,angular_velocity_x,angular_velocity_y,angular_velocity_z,vehicle_applied_throttle,vehicle_applied_brake,vehicle_applied_handbrake,vehicle_control_candidate_1dfc,vehicle_applied_steer,vehicle_frame_delta_ms,vehicle_frame_delta_seconds,speed_magnitude,planar_speed_magnitude,yaw_radians,yaw_degrees,pitch_radians,pitch_degrees,roll_radians,roll_degrees,yaw_rate,quat_x,quat_y,quat_z,quat_w,camera_position_x,camera_position_y,camera_position_z,camera_forward_x,camera_forward_y,camera_forward_z,camera_fov,camera_mode_index,camera_family,wheel_0_contact_flag,wheel_0_contact_ptr,wheel_0_contact_surface_44_candidate,wheel_0_contact_surface_48_candidate,wheel_0_contact_surface_4c_candidate,wheel_0_contact_surface_50_candidate,wheel_0_suspension_length_candidate,wheel_0_tire_force_multiplier_candidate,wheel_0_load_or_spin_candidate,wheel_0_rotation_or_phase_candidate,wheel_0_vertical_load_candidate,wheel_1_contact_flag,wheel_1_contact_ptr,wheel_1_contact_surface_44_candidate,wheel_1_contact_surface_48_candidate,wheel_1_contact_surface_4c_candidate,wheel_1_contact_surface_50_candidate,wheel_1_suspension_length_candidate,wheel_1_tire_force_multiplier_candidate,wheel_1_load_or_spin_candidate,wheel_1_rotation_or_phase_candidate,wheel_1_vertical_load_candidate,wheel_2_contact_flag,wheel_2_contact_ptr,wheel_2_contact_surface_44_candidate,wheel_2_contact_surface_48_candidate,wheel_2_contact_surface_4c_candidate,wheel_2_contact_surface_50_candidate,wheel_2_suspension_length_candidate,wheel_2_tire_force_multiplier_candidate,wheel_2_load_or_spin_candidate,wheel_2_rotation_or_phase_candidate,wheel_2_vertical_load_candidate,wheel_3_contact_flag,wheel_3_contact_ptr,wheel_3_contact_surface_44_candidate,wheel_3_contact_surface_48_candidate,wheel_3_contact_surface_4c_candidate,wheel_3_contact_surface_50_candidate,wheel_3_suspension_length_candidate,wheel_3_tire_force_multiplier_candidate,wheel_3_load_or_spin_candidate,wheel_3_rotation_or_phase_candidate,wheel_3_vertical_load_candidate,web_gear,web_engine_rpm,web_clutch,web_slip_long_avg,web_slip_lat_avg,web_slip_angle_deg,web_surface_type,web_surface_grip,web_wheel_contacts,web_forward_impulse,web_suspension_force,web_camera_fov_degrees,web_sim_steps,web_sim_backlog_ms
2026-04-26T20:58:01.221Z,0,0.007,WebPort,true,false,webtest,webtest,car_1,car_1,0,0,0,-0.00001953614628291689,0.5250652432441711,0.00888141244649887,-1.2167393935675622e-7,-0.013720289441619876,0.999905872398809,-0.9999999992187788,-0.000039522165033658626,-6.639919828555232e-7,-0.00003952755506926186,0.9999058716177421,0.013720289426092486,2.2538101163149804e-8,0,-7.25120796740697e-11,-0.0000044960402192373294,-7.316840022753013e-9,-3.295578920869957e-8,0,0,0,0,5.965187377064311e-38,17,0.017,2.253821780980194e-8,2.2538217809801934e-8,-1.2168539331092794e-7,-0.0000069720594651056305,0.013720719943806336,0.7861393446610792,-0.00003952588552073823,-0.0022646664218555507,-7.316840022753013e-9,-0.000019762895093538553,0.9999764676275301,0.006860306156207818,1.9642110280762218e-7,-0.00007364704692081387,1.6303251697521854,-3.25641122923557,0.000028132456868386077,-0.23645888207430246,0.9716414957672075,1.7453292519943295,0,web_chase,1,tarmac,1.6,0,1937.595703125,0,0.03512930870056152,0.999999944590845,0,1.522306950844893,1937.595703125,1,tarmac,1.6,0,1938.544921875,0,0.035073041915893555,0.999999944590845,0,4.571438709763093,1938.544921875,1,tarmac,1.6,0,1490.48486328125,0,0.0704721212387085,0.9999999566363135,0,3.4223121006229746,1490.48486328125,1,tarmac,1.6,0,1491.5517578125,0,0.070415198802948,0.9999999566363135,0,1.6697580969935188,1491.5517578125,0,1000.000000000002,0.25,1.4514179017128185e-10,9.775941125279913e-8,0.0000056012016724690995,tarmac,1.6,4,0,6858.17724609375,100,1,13.000000000003123
2026-04-26T20:58:01.237Z,1,0.024,WebPort,true,false,webtest,webtest,car_1,car_1,0,0,0,-0.000019535073079168797,0.5250647068023682,0.008881397545337677,-1.2174913317217453e-7,-0.013719998903179105,0.9999058763854136,-0.9999999992188547,-0.00003952024397594337,-6.640293379218609e-7,-0.00003952563466951897,0.9999058756044227,0.013719998887650232,5.183841622624641e-8,0,-7.246845484809583e-11,-0.000016905110896914266,-2.8820283937136537e-9,-1.1435540869797478e-7,0,0,0,0,5.788889446852001e-38,15,0.015,5.1838466880517556e-8,5.183846688051755e-8,-1.2176059371936897e-7,-0.0000069763681311269604,0.013720429378015883,0.7861226964676153,-0.00003952396412459865,-0.0022645563339659803,-2.8820283937136537e-9,-0.000019761934686876772,0.9999764686242235,0.006860160876730811,1.964492404944079e-7,-0.00007364568533327248,1.6303296970502303,-3.256409744916451,0.000028132713810865306,-0.2364607004030851,0.9716410532565167,1.7453292519943295,0,web_chase,1,tarmac,1.6,0,1937.58984375,0,0.03512921929359436,0.9999999715427637,0,1.522306950844893,1937.58984375,1,tarmac,1.6,0,1938.5379638671875,0,0.03507301211357117,0.9999999715427637,0,4.571438709763093,1938.5379638671875,1,tarmac,1.6,0,1490.500732421875,0,0.070471853017807,0.9999999777291194,0,3.4223121006229746,1490.500732421875,1,tarmac,1.6,0,1491.5662841796875,0,0.07041499018669128,0.9999999777291194,0,1.6697580969935188,1491.5662841796875,0,1000.0000000000018,0.25,1.450159931710135e-10,4.5076202194790245e-8,0.0000025826761422398174,tarmac,1.6,4,0,6858.19482421875,100,1,11.333333333336457
2026-04-26T20:58:01.254Z,2,0.04,WebPort,true,false,webtest,webtest,car_1,car_1,0,0,0,-0.000019533272279659286,0.5250638127326965,0.008881337940692902,-1.2185624278561362e-7,-0.013719529571847723,0.9999058828251349,-0.9999999992189841,-0.000039516969574613026,-6.640729760315606e-7,-0.00003952236111790997,0.9999058820442733,0.013719529556317164,8.772816784130555e-8,0,-7.242047239675031e-11,-0.000028042444682796486,-3.6676841563831886e-9,-1.9445826637820574e-7,0,0,0,0,5.617801907903618e-38,17,0.017,8.772819773320947e-8,8.772819773320947e-8,-1.2186771263043305e-7,-0.00000698250559263697,0.013719960002506693,0.7860958032319318,-0.00003952068916051207,-0.002264368692345762,-3.6676841563831886e-9,-0.000019760297628305604,0.9999764702342241,0.006859926194497819,1.964869279956873e-7,-0.0000736418588213915,1.630334347755414,-3.256408182643124,0.000028132694968178943,-0.2364626996454111,0.9716405667143357,1.7453292519943295,0,web_chase,1,tarmac,1.6,0,1937.5838623046875,0,0.035129040479660034,0.9999999868693055,0,1.522306950844893,1937.5838623046875,1,tarmac,1.6,0,1938.5321044921875,0,0.03507280349731445,0.9999999868693055,0,4.571438709763093,1938.5321044921875,1,tarmac,1.6,0,1490.52490234375,0,0.07047095894813538,0.9999999897238042,0,3.4223121006229746,1490.52490234375,1,tarmac,1.6,0,1491.590576171875,0,0.07041409611701965,0.9999999897238042,0,1.6697580969935188,1491.590576171875,0,1000.0000000000016,0.25,1.4493589027484522e-10,1.036768322752638e-7,0.00000594024492265831,tarmac,1.6,4,0,6858.2314453125,100,1,11.66666666666979
2026-04-26T20:58:01.270Z,3,0.057,WebPort,true,false,webtest,webtest,car_1,car_1,0,0,0,-0.000019530471035977826,0.5250626802444458,0.008881278336048126,-1.2201023486411863e-7,-0.013718892622176588,0.9999058915644045,-0.9999999992191877,-0.00003951181788830154,-6.641311220263806e-7,-0.000039517210636482636,0.9999058907837465,0.013718892606643853,1.35966203629323e-7,0,-7.236429511170428e-11,-0.000037726364098489285,-4.935429842589656e-9,-3.032819222426042e-7,0,0,0,0,5.451770769885354e-38,18,0.018,1.359662228862806e-7,1.359662228862806e-7,-1.220217181371206e-7,-0.00000699132945819194,0.013719322992884793,0.7860593052690877,-0.00003951553664391933,-0.002264073474891127,-4.935429842589656e-9,-0.00001975772198259752,0.9999764724191437,0.006859607697179847,1.965399633325035e-7,-0.00007363436486338863,1.6303388814558868,-3.256406605500755,0.00002813221699196498,-0.23646475115768675,0.971640067447052,1.7453292519943295,0,web_chase,1,tarmac,1.6,0,1937.58251953125,0,0.035128623247146606,0.9999999698213,0,1.522306950844893,1937.58251953125,1,tarmac,1.6,0,1938.5303955078125,0,0.03507241606712341,0.9999999698213,0,4.571438709763093,1938.5303955078125,1,tarmac,1.6,0,1490.5579833984375,0,0.07046955823898315,0.999999976381887,0,3.4223121006229746,1490.5579833984375,1,tarmac,1.6,0,1491.6246337890625,0,0.07041263580322266,0.999999976381887,0,1.6697580969935188,1491.6246337890625,0,1000.0000000000014,0.25,1.4484869322281109e-10,1.7545633544939196e-7,0.000010052907510081668,tarmac,1.6,4,0,6858.2955322265625,100,1,13.000000000003123
2026-04-26T20:58:01.288Z,4,0.074,WebPort,true,false,webtest,webtest,car_1,car_1,0,0,0,-0.000019527255062712356,0.5250612497329712,0.008881203830242157,-1.2212609623793144e-7,-0.013718121577825277,0.9999059021429773,-0.9999999992194275,-0.00003950574983849598,-6.641332689676299e-7,-0.00003951114309302369,0.9999059013625591,0.013718121562292613,1.5552957677300583e-7,0,-7.232715815153057e-11,-0.00004574215927277692,-1.929277404499885e-9,-3.5761479466600576e-7,0,0,0,0,5.290646593565553e-38,16,0.016,1.555295935904422e-7,1.555295935904422e-7,-1.2213758912332926e-7,-0.000006997968376669715,0.013718551875968956,0.7860151235242991,-0.000039509467605007494,-0.002263725744575778,-1.929277404499885e-9,-0.000019754687960651687,0.9999764750639093,0.0068592221477921335,1.965694655855057e-7,-0.00007362479878860245,1.6303422307690956,-3.256405328965324,0.000028131409162035313,-0.23646649461525596,0.971639643146057,1.7453292519943295,0,web_chase,1,tarmac,1.6,0,1937.5831298828125,0,0.03512817621231079,0.9999999489393158,0,1.522306950844893,1937.5831298828125,1,tarmac,1.6,0,1938.5306396484375,0,0.0350719690322876,0.9999999489393158,0,4.571438709763093,1938.5306396484375,1,tarmac,1.6,0,1490.5994873046875,0,0.07046765089035034,0.9999999600394646,0,3.4223121006229746,1490.5994873046875,1,tarmac,1.6,0,1491.6650390625,0,0.07041078805923462,0.9999999600394646,0,1.6697580969935188,1491.6650390625,0,1000.0000000000013,0.25,1.4474814857907348e-10,2.7193240695019904e-7,0.000015580579231079994,tarmac,1.6,4,0,6858.3782958984375,100,1,12.333333333336457
2026-04-26T20:58:01.304Z,5,0.09,WebPort,true,false,webtest,webtest,car_1,car_1,0,0,0,-0.00001952337333932519,0.5250596404075623,0.008881114423274994,-1.222832807017708e-7,-0.013717238787901263,0.9999059142539467,-0.9999999992197137,-0.00003949850295067404,-6.641561649736507e-7,-0.00003950389709326333,0.999905913473815,0.013717238772367883,1.8862854744838842e-7,0,-7.22810422626452e-11,-0.00005194119148654863,-3.4045848362751485e-9,-4.296473719023197e-7,0,0,0,0,5.134284356309321e-38,16,0.016,1.8862856129716408e-7,1.886285612971641e-7,-1.222947868980339e-7,-0.000007006975145709139,0.013717669002973831,0.7859645386278324,-0.00003950221955674391,-0.0022633104620005677,-3.4045848362751485e-9,-0.00001975106459371268,0.9999764780917942,0.0068587807216778235,1.9661448616675088e-7,-0.00007361276574913925,1.6303452331129415,-3.256404132916663,0.00002813027533302889,-0.2364681842746443,0.9716392319346416,1.7453292519943295,0,web_chase,1,tarmac,1.6,0,1937.586669921875,0,0.035127609968185425,0.9999999208726413,0,1.522306950844893,1937.586669921875,1,tarmac,1.6,0,1938.5352783203125,0,0.035071343183517456,0.9999999208726413,0,4.571438709763093,1938.5352783203125,1,tarmac,1.6,0,1490.6485595703125,0,0.07046529650688171,0.999999938074241,0,3.4223121006229746,1490.6485595703125,1,tarmac,1.6,0,1491.7139892578125,0,0.07040843367576599,0.999999938074241,0,1.6697580969935188,1491.7139892578125,0,1000.0000000000011,0.25,1.4467869308200958e-10,3.110591532071377e-7,0.00001782237665768168,tarmac,1.6,4,0,6858.4844970703125,100,1,11.66666666666979
2026-04-26T20:58:01.321Z,6,0.106,WebPort,true,false,webtest,webtest,car_1,car_1,0,0,0,-0.00001951873127836734,0.5250579118728638,0.00888102501630783,-1.224653054404515e-7,-0.013716288950623523,0.9999059272838662,-0.9999999992200568,-0.000039489815394938074,-6.641815052668938e-7,-0.00003949521058618616,0.9999059265040775,0.01371628893508947,2.249592085945551e-7,0,-7.223278919443743e-11,-0.00005622619210043922,-3.7066145708308795e-9,-5.137140419719799e-7,0,0,0,0,4.982543321548358e-38,17,0.017,2.2495922019127018e-7,2.2495922019127018e-7,-1.2247682716824605e-7,-0.000007017405284893716,0.013716719076327722,0.7859101118401634,-0.00003949353066890316,-0.00226281262539863,-3.7066145708308795e-9,-0.000019746720911509952,0.9999764813494367,0.006858305769525099,1.9666632800348228e-7,-0.00007359794363378479,1.630348323837954,-3.256402883492562,0.00002812879452660061,-0.23646995124217113,0.9716388019054696,1.7453292519943295,0,web_chase,1,tarmac,1.6,0,1937.5927734375,0,0.03512698411941528,0.9999999094899502,0,1.522306950844893,1937.5927734375,1,tarmac,1.6,0,1938.5406494140625,0,0.0350707471370697,0.9999999094899502,0,4.571438709763093,1938.5406494140625,1,tarmac,1.6,0,1490.701416015625,0,0.0704626739025116,0.9999999291660481,0,3.4223121006229746,1490.701416015625,1,tarmac,1.6,0,1491.766845703125,0,0.07040581107139587,0.9999999291660481,0,1.6697580969935188,1491.766845703125,0,1000.000000000001,0.25,1.445946155289488e-10,3.772570945063965e-7,0.00002161523930658353,tarmac,1.6,4,0,6858.6016845703125,100,1,12.000000000003126
2026-04-26T20:58:01.338Z,7,0.124,WebPort,true,false,webtest,webtest,car_1,car_1,0,0,0,-0.00001951436570379883,0.5250561237335205,0.008880920708179474,-1.2255568826264634e-7,-0.013715294415099116,0.9999059409259915,-0.9999999992203895,-0.000039481390410528305,-6.641170477995168e-7,-0.0000394867853883424,0.9999059401465356,0.013715294399567868,2.1137179828656372e-7,0,-7.221769710019643e-11,-0.000058619185438146815,1.4849923513082786e-9,-4.968460416421294e-7,0,0,0,0,4.835286912108552e-38,17,0.017,2.1137181062358231e-7,2.1137181062358234e-7,-1.2256721682156378e-7,-0.000007022584230540473,0.01371572444724264,0.7858531237914073,-0.00003948510435313966,-0.002262329833068537,1.4849923513082786e-9,-0.0000197425081995336,0.9999764847601315,0.006857808466677814,1.9667280882381603e-7,-0.0000735837254875481,1.630351239776755,-3.256401690341567,0.00002812736459365827,-0.23647167948526832,0.9716383812974188,1.7453292519943295,0,web_chase,1,tarmac,1.6,0,1937.6019287109375,0,0.03512623906135559,0.999999890231746,0,1.522306950844893,1937.6019287109375,1,tarmac,1.6,0,1938.5487060546875,0,0.035070061683654785,0.999999890231746,0,4.571438709763093,1938.5487060546875,1,tarmac,1.6,0,1490.758056640625,0,0.07045978307723999,0.9999999140944099,0,3.4223121006229746,1490.758056640625,1,tarmac,1.6,0,1491.8221435546875,0,0.07040297985076904,0.9999999140944099,0,1.6697580969935188,1491.8221435546875,0,1000.0000000000009,0.25,1.4450708751591232e-10,4.49918416742248e-7,0.00002577842640453719,tarmac,1.6,4,0,6858.7308349609375,100,1,12.33333333333646
2026-04-26T20:58:01.354Z,8,0.141,WebPort,true,false,webtest,webtest,car_1,car_1,0,0,0,-0.00001951016929524485,0.5250542759895325,0.008880816400051117,-1.226517743201602e-7,-0.013714288704997689,0.9999059547203933,-0.9999999992207065,-0.00003947335826755216,-6.640632576763409e-7,-0.00003947875313977103,0.9999059539412546,0.013714288689468756,2.0307838610733597e-7,0,-7.219908698674615e-11,-0.00005916054578847252,8.194414036211128e-10,-4.7432388328161323e-7,0,0,0,0,4.692382587281302e-38,17,0.017,2.0307839894156246e-7,2.0307839894156243e-7,-1.2266331022546723e-7,-0.000007028089977023187,0.01371471864254309,0.7857954954271086,-0.00003947707090997645,-0.002261869550680327,8.194414036211128e-10,-0.000019738491939130053,0.9999764882088921,0.006857305576152879,1.9668338237772613e-7,-0.00007357009652397078,1.6303540114361375,-3.256400525173309,0.000028125989617892986,-0.2364733779871797,0.971637967924402,1.7453292519943295,0,web_chase,1,tarmac,1.6,0,1937.6116943359375,0,0.035125553607940674,0.9999998690932241,0,1.522306950844893,1937.6116943359375,1,tarmac,1.6,0,1938.5589599609375,0,0.03506934642791748,0.9999998690932241,0,4.571438709763093,1938.5589599609375,1,tarmac,1.6,0,1490.8157958984375,0,0.07045677304267883,0.9999998975512189,0,3.4223121006229746,1490.8157958984375,1,tarmac,1.6,0,1491.87890625,0,0.07040002942085266,0.9999998975512189,0,1.6697580969935188,1491.87890625,0,1000.0000000000008,0.25,1.4447361837339698e-10,4.227435961476301e-7,0.00002422142387544069,tarmac,1.6,4,0,6858.8653564453125,100,1,12.666666666669796
2026-04-26T20:58:01.370Z,9,0.157,WebPort,true,false,webtest,webtest,car_1,car_1,0,0,0,-0.000019505790987750515,0.5250524878501892,0.008880726993083954,-1.227822893078973e-7,-0.01371330534399019,0.9999059682072748,-0.999999999221034,-0.00003946506395886856,-6.640412026850528e-7,-0.0000394704591879279,0.9999059674284634,0.013713305328462379,2.1230989943887835e-7,0,-7.216885422600683e-11,-0.00005790532668470405,-9.872098694074793e-10,-4.90859349611128e-7,0,0,0,0,4.553701723527932e-38,16,0.016,2.1230991170477686e-7,2.1230991170477688e-7,-1.227938358324156e-7,-0.000007035568543419712,0.013713735189053066,0.7857391476927827,-0.00003946877528881168,-0.002261394246599146,-9.872098694074793e-10,-0.000019734344709947714,0.9999764915807736,0.0068568138609679434,1.967104973510755e-7,-0.0000735556825810643,1.6303564678297024,-3.2563994563212066,0.00002812448177650042,-0.23647494174793718,0.971637587341249,1.7453292519943295,0,web_chase,1,tarmac,1.6,0,1937.623779296875,0,0.03512480854988098,0.9999998769988897,0,1.522306950844893,1937.623779296875,1,tarmac,1.6,0,1938.5712890625,0,0.03506860136985779,0.9999998769988897,0,4.571438709763093,1938.5712890625,1,tarmac,1.6,0,1490.87255859375,0,0.07045376300811768,0.9999999037382614,0,3.4223121006229746,1490.87255859375,1,tarmac,1.6,0,1491.936767578125,0,0.07039695978164673,0.9999999037382614,0,1.6697580969935188,1491.936767578125,0,1000.0000000000007,0.25,1.4443440985561057e-10,4.0615677180226706e-7,0.000023271068844926706,tarmac,1.6,4,0,6859.00439453125,100,1,12.00000000000313
2026-04-26T20:58:01.388Z,10,0.174,WebPort,true,false,webtest,webtest,car_1,car_1,0,0,0,-0.000019501780116115697,0.5250507593154907,0.008880622684955597,-1.2285562140326789e-7,-0.013712377855748007,0.99990598092697,-0.9999999992213389,-0.00003945733749311836,-6.639719682239868e-7,-0.0000394627323853369,0.9999059801484637,0.013712377840223146,1.9401061024382216e-7,0,-7.21569054507043e-11,-0.000055020518630044535,1.9153221231249518e-9,-4.569841109969275e-7,0,0,0,0,4.4191194987098255e-38,17,0.017,1.9401062366220897e-7,1.9401062366220897e-7,-1.228671732610031e-7,-0.0000070397704685581176,0.0137128076135952,0.7856860015338671,-0.000039461047594474,-0.00226095148232823,1.9153221231249518e-9,-0.000019730481239293918,0.9999764947608483,0.0068563500841412215,1.9671152115816228e-7,-0.00007354247389151783,1.630359286195682,-3.256398305294011,0.0000281231222026926,-0.2364766096230492,0.9716371814161282,1.7453292519943295,0,web_chase,1,tarmac,1.6,0,1937.637939453125,0,0.0351240336894989,0.9999998818243104,0,1.522306950844893,1937.637939453125,1,tarmac,1.6,0,1938.583740234375,0,0.03506791591644287,0.9999998818243104,0,4.571438709763093,1938.583740234375,1,tarmac,1.6,0,1490.927001953125,0,0.0704508125782013,0.9999999075146778,0,3.4223121006229746,1490.927001953125,1,tarmac,1.6,0,1491.991455078125,0,0.07039400935173035,0.9999999075146778,0,1.6697580969935188,1491.991455078125,0,1000.0000000000006,0.25,1.4437627190952176e-10,4.246197984511461e-7,0.000024328922348944862,tarmac,1.6,4,0,6859.14013671875,100,1,12.333333333336464
2026-04-26T20:58:01.403Z,11,0.19,WebPort,true,false,webtest,webtest,car_1,car_1,0,0,0,-0.000019498282199492678,0.5250492095947266,0.008880548179149628,-1.229043273242264e-7,-0.013711517414832437,0.9999059927264,-0.999999999221606,-0.00003945057151431887,-6.638939364311577e-7,-0.00003945596586691985,0.9999059919481608,0.013711517399310834,1.6859335971730616e-7,0,-7.214968900104424e-11,-0.000050691476644715294,2.5914936863102866e-9,-3.9902153048387845e-7,0,0,0,0,4.2885147797400726e-38,16,0.016,1.6859337515556956e-7,1.6859337515556956e-7,-1.22915882311204e-7,-0.0000070425612915587195,0.013711947091779246,0.785636697265634,-0.00003945428051389659,-0.002260563757171519,2.5914936863102866e-9,-0.000019727097977270593,0.9999764977108422,0.006855919833346186,1.967041889375731e-7,-0.00007353095432728545,1.6303619578611404,-3.256397215083925,0.000028121941464652583,-0.23647815785198323,0.9716368046076111,1.7453292519943295,0,web_chase,1,tarmac,1.6,0,1937.652587890625,0,0.03512328863143921,0.999999876453079,0,1.522306950844893,1937.652587890625,1,tarmac,1.6,0,1938.5982666015625,0,0.03506717085838318,0.999999876453079,0,4.571438709763093,1938.5982666015625,1,tarmac,1.6,0,1490.97900390625,0,0.07044795155525208,0.9999999033111053,0,3.4223121006229746,1490.97900390625,1,tarmac,1.6,0,1492.042724609375,0,0.07039117813110352,0.9999999033111053,0,1.6697580969935188,1492.042724609375,0,1000.0000000000006,0.25,1.443479132388429e-10,3.8802122008968695e-7,0.000022231978272654776,tarmac,1.6,4,0,6859.2725830078125,100,1,11.666666666669798
2026-04-26T20:58:01.421Z,12,0.207,WebPort,true,false,webtest,webtest,car_1,car_1,0,0,0,-0.000019495168089633808,0.525047779083252,0.008880473673343658,-1.229552058339765e-7,-0.013710757544920479,0.9999060031460604,-0.9999999992218418,-0.0000394445912079048,-6.638328304459862e-7,-0.000039449985191414913,0.9999060023680569,0.013710757529401417,1.5035649880701385e-7,0,-7.213771940906e-11,-0.000045116386900190264,1.8291417269722388e-9,-3.5424454836174846e-7,0,0,0,0,4.161770013555518e-38,17,0.017,1.5035651611205324e-7,1.5035651611205321e-7,-1.229667643229614e-7,-0.000007045476616085553,0.013711187150431231,0.7855931558337154,-0.000039448299234156184,-0.002260221055086307,1.8291417269722388e-9,-0.000019724107610128368,0.9999765003158773,0.006855539871601947,1.9670163149619724e-7,-0.0000735209028402044,1.63036508265975,-3.256396012778964,0.000028120943363229064,-0.23647981890995853,0.9716364003358078,1.7453292519943295,0,web_chase,1,tarmac,1.6,0,1937.665771484375,0,0.035122692584991455,0.9999998871002905,0,1.522306950844893,1937.665771484375,1,tarmac,1.6,0,1938.6119384765625,0,0.035066574811935425,0.9999998871002905,0,4.571438709763093,1938.6119384765625,1,tarmac,1.6,0,1491.0242919921875,0,0.07044538855552673,0.9999999116437056,0,3.4223121006229746,1491.0242919921875,1,tarmac,1.6,0,1492.088134765625,0,0.07038861513137817,0.9999999116437056,0,1.6697580969935188,1492.088134765625,0,1000.0000000000006,0.25,1.4432725451791509e-10,3.371867190763487e-7,0.000019319375910937373,tarmac,1.6,4,0,6859.39013671875,100,1,12.000000000003133
2026-04-26T20:58:01.437Z,13,0.223,WebPort,true,false,webtest,webtest,car_1,car_1,0,0,0,-0.00001949185025296174,0.5250466465950012,0.00888039916753769,-1.2305921655718881e-7,-0.013710109420575534,0.9999060120329614,-0.999999999222088,-0.00003943834855382683,-6.638256821275536e-7,-0.00003944374294636108,0.9999060112552042,0.013710109405057031,1.6045288475652342e-7,0,-7.210693847570226e-11,-0.0000385338171327021,-1.0970373498508934e-9,-3.69662558341588e-7,0,0,0,0,4.0387711213110664e-38,17,0.017,1.6045290095881956e-7,1.6045290095881956e-7,-1.2307078372995283e-7,-0.000007051436489093617,0.013710538965161792,0.785556017553434,-0.00003944205564267776,-0.0022598633236455895,-1.0970373498508934e-9,-0.000019720986268178012,0.9999765025377164,0.006855215786582534,1.9672584722936118e-7,-0.00007351014610852184,1.6303685325359036,-3.256394789356039,0.00002811984262407667,-0.23648148313020007,0.9716359952913516,1.7453292519943295,0,web_chase,1,tarmac,1.6,0,1937.6787109375,0,0.03512215614318848,0.9999999018889963,0,1.522306950844893,1937.6787109375,1,tarmac,1.6,0,1938.6265869140625,0,0.03506594896316528,0.9999999018889963,0,4.571438709763093,1938.6265869140625,1,tarmac,1.6,0,1491.0645751953125,0,0.0704430639743805,0.9999999232174753,0,3.4223121006229746,1491.0645751953125,1,tarmac,1.6,0,1492.12890625,0,0.07038626074790955,0.9999999232174753,0,1.6697580969935188,1492.12890625,0,1000.0000000000006,0.25,1.442988516092889e-10,3.0071299728425067e-7,0.00001722958558911603,tarmac,1.6,4,0,6859.498779296875,100,1,12.333333333336467
2026-04-26T20:58:01.454Z,14,0.241,WebPort,true,false,webtest,webtest,car_1,car_1,0,0,0,-0.000019488919861032628,0.52504563331604,0.008880354464054108,-1.2310404563152322e-7,-0.013709584216357837,0.9999060192341077,-0.999999999222312,-0.000039432673716034876,-6.63771988521786e-7,-0.00003943806784113495,0.9999060184565742,0.01370958420084173,1.419087425347243e-7,0,-7.209519092832295e-11,-0.000031222705729305744,1.9451256161318042e-9,-3.358923663654423e-7,0,0,0,0,3.9194073957010245e-38,17,0.017,1.4190876084831134e-7,1.4190876084831136e-7,-1.2311561613141995e-7,-0.000007054005196483119,0.013710013711578466,0.7855259227399353,-0.000039436379987450956,-0.002259538132555122,1.9451256161318042e-9,-0.000019718148680247116,0.9999765043381011,0.006854953165961811,1.9672363069024147e-7,-0.00007350054310762379,1.630372138361383,-3.2563935106672575,0.000028118868832133325,-0.23648315334217246,0.9716355887855652,1.7453292519943295,0,web_chase,1,tarmac,1.6,0,1937.6917724609375,0,0.03512167930603027,0.9999999124998847,0,1.522306950844893,1937.6917724609375,1,tarmac,1.6,0,1938.6378173828125,0,0.03506556153297424,0.9999999124998847,0,4.571438709763093,1938.6378173828125,1,tarmac,1.6,0,1491.0963134765625,0,0.07044115662574768,0.9999999315216489,0,3.4223121006229746,1491.0963134765625,1,tarmac,1.6,0,1492.1607666015625,0,0.07038435339927673,0.9999999315216489,0,1.6697580969935188,1492.1607666015625,0,1000.0000000000006,0.25,1.4423981299487606e-10,3.209057691676775e-7,0.00001838654619470671,tarmac,1.6,4,0,6859.586669921875,100,1,12.666666666669803
2026-04-26T20:58:01.470Z,15,0.258,WebPort,true,false,webtest,webtest,car_1,car_1,0,0,0,-0.000019486080418573692,0.5250449180603027,0.008880309760570526,-1.2317091347431925e-7,-0.01370918193227292,0.9999060247496925,-0.9999999992225254,-0.00003942726056908609,-6.63748777568802e-7,-0.00003943265483515422,0.9999060239723726,0.013709181916758096,1.3717684055336576e-7,0,-7.207427710209657e-11,-0.00002346382461837493,4.4050069147871795e-10,-3.198127842551912e-7,0,0,0,0,3.8035714013150495e-38,17,0.017,1.3717685948768822e-7,1.371768594876882e-7,-1.2318248957961035e-7,-0.000007057836762825915,0.013709611389684141,0.7855028713933847,-0.000039430966114213166,-0.0022592279404677782,4.4050069147871795e-10,-0.000019715442051233465,0.9999765057170833,0.006854752009740796,1.9673454489783778e-7,-0.0000734912977079987,1.6303760778637146,-3.2563922067974422,0.00002811792767161519,-0.2364848291707453,0.9716351809097208,1.7453292519943295,0,web_chase,1,tarmac,1.6,0,1937.7047119140625,0,0.03512123227119446,0.9999999066254383,0,1.522306950844893,1937.7047119140625,1,tarmac,1.6,0,1938.6514892578125,0,0.03506508469581604,0.9999999066254383,0,4.571438709763093,1938.6514892578125,1,tarmac,1.6,0,1491.1220703125,0,0.07043954730033875,0.999999926924256,0,3.4223121006229746,1491.1220703125,1,tarmac,1.6,0,1492.1864013671875,0,0.0703827440738678,0.999999926924256,0,1.6697580969935188,1492.1864013671875,0,1000.0000000000006,0.25,1.4421176981475772e-10,2.838174847530176e-7,0.000016261544028366067,tarmac,1.6,4,0,6859.6646728515625,100,1,13.000000000003137
2026-04-26T20:58:01.488Z,16,0.273,WebPort,true,false,webtest,webtest,car_1,car_1,0,0,0,-0.000019483879441395402,0.5250444412231445,0.008880279958248138,-1.2317627605896947e-7,-0.01370892491743837,0.9999060282734538,-0.9999999992226959,-0.000039422939072936264,-6.636847553411964e-7,-0.000039428332835765855,0.9999060274963044,0.013708924901926392,1.064189589783382e-7,0,-7.207064112169093e-11,-0.00001543518010294065,3.1810525324971195e-9,-2.5642307832640654e-7,0,0,0,0,3.69115887793903e-38,16,0.016,1.0641898338271486e-7,1.0641898338271484e-7,-1.231878522341328e-7,-0.000007058144020297039,0.013709354350694739,0.7854881441441216,-0.00003942664407296498,-0.0022589803057453755,3.1810525324971195e-9,-0.000019713281109211652,0.9999765065980867,0.00685462349326588,1.9671987946923409e-7,-0.00007348413540564548,1.6303800251559273,-3.2563909399432593,0.00002811722193668254,-0.23648641481724259,0.9716347949802482,1.7453292519943295,0,web_chase,1,tarmac,1.6,0,1937.7149658203125,0,0.03512096405029297,0.9999999174151144,0,1.522306950844893,1937.7149658203125,1,tarmac,1.6,0,1938.6614990234375,0,0.03506481647491455,0.9999999174151144,0,4.571438709763093,1938.6614990234375,1,tarmac,1.6,0,1491.140869140625,0,0.07043829560279846,0.9999999353683504,0,3.4223121006229746,1491.140869140625,1,tarmac,1.6,0,1492.2034912109375,0,0.07038158178329468,0.9999999353683504,0,1.6697580969935188,1492.2034912109375,0,1000.0000000000006,0.25,1.441688002012473e-10,2.743536807977501e-7,0.000015719308003590063,tarmac,1.6,4,0,6859.7208251953125,100,1,12.333333333336471
2026-04-26T20:58:01.504Z,17,0.291,WebPort,true,false,webtest,webtest,car_1,car_1,0,0,0,-0.000019482409697957337,0.5250442028045654,0.008880265057086945,-1.2315372982493782e-7,-0.013708801997299075,0.9999060299587076,-0.9999999992228111,-0.000039420014572715016,-6.636172643789543e-7,-0.00003942540766999722,0.9999060291816735,0.013708801981790022,7.006161695244373e-8,0,-7.207072438841777e-11,-0.000007430394362017978,3.7031930855135897e-9,-1.726110809840975e-7,0,0,0,0,3.582068646713855e-38,17,0.017,7.006165402115672e-8,7.006165402115671e-8,-1.231653036736092e-7,-0.00000705685208294494,0.013709231419003444,0.785481100677042,-0.000039423719231450084,-0.0022588127246708275,3.7031930855135897e-9,-0.000019711818650050427,0.9999765070194389,0.0068545620288647715,1.9669736955845247e-7,-0.00007347967121221221,1.6303845479439814,-3.2563895410101424,0.000028116852595925728,-0.23648811253704038,0.9716343817702784,1.7453292519943295,0,web_chase,1,tarmac,1.6,0,1937.724365234375,0,0.035120755434036255,0.9999999201683164,0,1.522306950844893,1937.724365234375,1,tarmac,1.6,0,1938.670166015625,0,0.03506466746330261,0.9999999201683164,0,4.571438709763093,1938.670166015625,1,tarmac,1.6,0,1491.1505126953125,0,0.07043752074241638,0.9999999375230302,0,3.4223121006229746,1491.1505126953125,1,tarmac,1.6,0,1492.2132568359375,0,0.0703808069229126,0.9999999375230302,0,1.6697580969935188,1492.2132568359375,0,1000.0000000000006,0.25,1.441539536203609e-10,2.1283791769557224e-7,0.000012194714404308885,tarmac,1.6,4,0,6859.75830078125,100,1,12.666666666669807
2026-04-26T20:58:01.521Z,18,0.307,WebPort,true,false,webtest,webtest,car_1,car_1,0,0,0,-0.000019481321942294016,0.5250442028045654,0.008880265057086945,-1.2315406842973232e-7,-0.013708801997298948,0.9999060299587076,-0.9999999992228955,-0.00003941787558963986,-6.635882773643902e-7,-0.00003942326849054516,0.9999060291817576,0.0137088019817913,5.276076109339556e-8,0,-7.205818580713341e-11,2.954540718747012e-7,1.7128455320758462e-9,-1.266053999415817e-7,0,0,0,0,3.4762025190676095e-38,17,0.017,5.276081030022667e-8,5.276081030022666e-8,-1.2316564231022537e-7,-0.000007056871485393836,0.013709231419003317,0.7854811006770348,-0.000039421580047354055,-0.0022586901584505234,1.7128455320758462e-9,-0.00001971074908429092,0.99997650701946,0.006854562028864916,1.9669020728774284e-7,-0.0000734765979986237,1.6303893424146598,-3.2563881025913965,0.000028116643433218032,-0.23648981505436956,0.9716339673894716,1.7453292519943295,0,web_chase,1,tarmac,1.6,0,1937.732421875,0,0.035120636224746704,0.9999999380643996,0,1.522306950844893,1937.732421875,1,tarmac,1.6,0,1938.6787109375,0,0.035064518451690674,0.9999999380643996,0,4.571438709763093,1938.6787109375,1,tarmac,1.6,0,1491.152587890625,0,0.07043716311454773,0.9999999515286605,0,3.4223121006229746,1491.152587890625,1,tarmac,1.6,0,1492.2158203125,0,0.07038041949272156,0.9999999515286605,0,1.6697580969935188,1492.2158203125,0,1000.0000000000006,0.25,1.4414516049783256e-10,1.401232337003305e-7,0.00000802846990275419,tarmac,1.6,4,0,6859.779541015625,100,1,13.00000000000314
2026-04-26T20:58:01.537Z,19,0.324,WebPort,true,false,webtest,webtest,car_1,car_1,0,0,0,-0.000019480485207168385,0.5250444412231445,0.008880279958248138,-1.231548730026831e-7,-0.013708924917437531,0.9999060282734538,-0.999999999222959,-0.000039416260361387794,-6.635717837136242e-7,-0.0000394216532031079,0.9999060274965675,0.013708924901930835,4.0247741139864956e-8,0,-7.204247615133497e-11,0.0000075643579293682706,1.2602453525190072e-9,-9.673203038573774e-8,0,0,0,0,3.3734652083392345e-38,16,0.016,4.0247805616951943e-8,4.024780561695194e-8,-1.2316644716637526e-7,-0.00000705691760025434,0.013709354350693903,0.7854881441440738,-0.00003941996473374229,-0.0022585976077979793,1.2602453525190072e-9,-0.000019709941444698675,0.9999765065981526,0.006854623493266332,1.9668628500900845e-7,-0.00007347439561139757,1.6303941359666165,-3.2563867063528784,0.00002811652531282115,-0.2364914255978861,0.9716335753915366,1.7453292519943295,0,web_chase,1,tarmac,1.6,0,1937.7379150390625,0,0.035120636224746704,0.9999999592184566,0,1.522306950844893,1937.7379150390625,1,tarmac,1.6,0,1938.684326171875,0,0.035064518451690674,0.9999999592184566,0,4.571438709763093,1938.684326171875,1,tarmac,1.6,0,1491.147705078125,0,0.07043716311454773,0.9999999680840096,0,3.4223121006229746,1491.147705078125,1,tarmac,1.6,0,1492.2110595703125,0,0.07038041949272156,0.9999999680840096,0,1.6697580969935188,1492.2110595703125,0,1000.0000000000006,0.25,1.441158243976395e-10,1.0552152200915593e-7,0.00000604593785892144,tarmac,1.6,4,0,6859.781005859375,100,1,12.333333333336475
2026-04-26T20:58:01.554Z,20,0.34,WebPort,true,false,webtest,webtest,car_1,car_1,0,0,0,-0.000019480183254927397,0.525044858455658,0.008880309760570526,-1.2311790207626782e-7,-0.013709159583155182,0.9999060250561093,-0.999999999222985,-0.000039415605683513836,-6.635350860350927e-7,-0.000039420998112564785,0.9999060242792488,0.013709159567650193,1.379434433346205e-8,0,-7.203602298000433e-11,0.000014176289369061124,2.7201294550138755e-9,-3.944447257708816e-8,0,0,0,0,3.2737642440140974e-38,16,0.016,1.3794532423345249e-8,1.3794532423345247e-8,-1.2312947316159884e-7,-0.000007054799145828954,0.013709589038465945,0.785501590762915,-0.00003941931012117825,-0.0022585601012608436,2.7201294550138755e-9,-0.000019709614010755265,0.999976505793804,0.006854740834395927,1.9666786758327323e-7,-0.00007347405328723268,1.6303991397311979,-3.2563852724337528,0.000028116630443210535,-0.2364930409344761,0.9716331822241455,1.7453292519943295,0,web_chase,1,tarmac,1.6,0,1937.7392578125,0,0.035120755434036255,0.9999999692847427,0,1.522306950844893,1937.7392578125,1,tarmac,1.6,0,1938.6854248046875,0,0.03506466746330261,0.9999999692847427,0,4.571438709763093,1938.6854248046875,1,tarmac,1.6,0,1491.1343994140625,0,0.07043752074241638,0.9999999759619725,0,3.4223121006229746,1491.1343994140625,1,tarmac,1.6,0,1492.1971435546875,0,0.0703808069229126,0.9999999759619725,0,1.6697580969935188,1492.1971435546875,0,1000.0000000000006,0.25,1.4408132580183018e-10,8.049548212157092e-8,0.000004612051395436777,tarmac,1.6,4,0,6859.7562255859375,100,1,11.666666666669808
2026-04-26T20:58:01.570Z,21,0.357,WebPort,true,false,webtest,webtest,car_1,car_1,0,0,0,-0.000019480397895677015,0.5250454545021057,0.008880339562892914,-1.230707017016898e-7,-0.013709494819892906,0.9999060204598073,-0.9999999992229713,-0.00003941595502659331,-6.635058888426217e-7,-0.0000394213470638097,0.9999060196829329,0.01370949480438928,-1.1121915832745799e-8,0,-7.202855673016373e-11,0.00001995140701183118,2.5297484107511536e-9,1.942475513772024e-8,0,0,0,0,3.177009888494289e-38,17,0.017,1.1122149068577812e-8,1.1122149068577814e-8,-1.2308226891672786e-7,-0.000007052094541822745,0.013709924306711252,0.7855208002183759,-0.000039419659678292274,-0.0022585801294081756,2.5297484107511536e-9,-0.000019709788611087095,0.999976504644698,0.006854908464580483,1.9664876796875095e-7,-0.00007347563778462611,1.6304046047616745,-3.2563837419288233,0.00002811697631705109,-0.23649475080446264,0.9716327660445436,1.7453292519943295,0,web_chase,1,tarmac,1.6,0,1937.7392578125,0,0.03512093424797058,0.9999999765652879,0,1.522306950844893,1937.7392578125,1,tarmac,1.6,0,1938.6856689453125,0,0.03506481647491455,0.9999999765652879,0,4.571438709763093,1938.6856689453125,1,tarmac,1.6,0,1491.114990234375,0,0.07043823599815369,0.9999999816597905,0,3.4223121006229746,1491.114990234375,1,tarmac,1.6,0,1492.17724609375,0,0.07038155198097229,0.9999999816597905,0,1.6697580969935188,1492.17724609375,0,1000.0000000000006,0.25,1.4406190345904306e-10,2.7588688549890417e-8,0.0000015807154162096199,tarmac,1.6,4,0,6859.7171630859375,100,1,12.000000000003144
2026-04-26T20:58:01.587Z,22,0.373,WebPort,true,false,webtest,webtest,car_1,car_1,0,0,0,-0.000019481039998936467,0.5250462293624878,0.008880384266376495,-1.23020444779441e-7,-0.013709919453090932,0.9999060146376633,-0.9999999992229266,-0.000039417090084835545,-6.634879329759564e-7,-0.000039422481821460845,0.9999060138607444,0.013709919437588204,-3.126855574464571e-8,0,-7.201791940580904e-11,0.00002477960333635565,2.039016067101329e-9,6.763128368447724e-8,0,0,0,0,3.083115056328727e-38,17,0.017,3.126863868058109e-8,3.126863868058109e-8,-1.230320079872901e-7,-0.000007049214802691557,0.013710348979821098,0.7855451321952428,-0.00003942079507275278,-0.0022586451827188454,2.039016067101329e-9,-0.000019710356107083985,0.9999765031891166,0.006855120796146712,1.9663171465706223e-7,-0.00007347870133677874,1.6304102475845559,-3.2563821862676616,0.000028117495076518306,-0.2364964551947772,0.9716323511955081,1.7453292519943295,0,web_chase,1,tarmac,1.6,0,1937.7388916015625,0,0.03512111306190491,0.9999999919568621,0,1.522306950844893,1937.7388916015625,1,tarmac,1.6,0,1938.6846923828125,0,0.035065025091171265,0.9999999919568621,0,4.571438709763093,1938.6846923828125,1,tarmac,1.6,0,1491.09130859375,0,0.07043921947479248,0.9999999937053703,0,3.4223121006229746,1491.09130859375,1,tarmac,1.6,0,1492.15478515625,0,0.07038247585296631,0.9999999937053703,0,1.6697580969935188,1492.15478515625,0,1000.0000000000006,0.25,1.4404083747507134e-10,2.2243831743790248e-8,0.0000012744776791183073,tarmac,1.6,4,0,6859.669677734375,100,1,12.333333333336478
2026-04-26T20:58:01.604Z,23,0.39,WebPort,true,false,webtest,webtest,car_1,car_1,0,0,0,-0.000019482353309285827,0.5250471234321594,0.008880428969860077,-1.2293137565511938e-7,-0.013710399959073132,0.9999060080492302,-0.9999999992228336,-0.0000394194476502086,-6.63450127981454e-7,-0.00003942483870603319,0.9999060072722183,0.013710399943571976,-6.392096452145779e-8,0,-7.201559487635123e-11,0.000028567288609337993,3.3506994956411518e-9,1.397479536535684e-7,0,0,0,0,2.99199523583037e-38,16,0.016,6.392100508908923e-8,6.392100508908923e-8,-1.229429313010651e-7,-0.000007044111084517854,0.013710829530969656,0.7855726657478953,-0.00003942315311948635,-0.0022587802888445734,3.3506994956411518e-9,-0.000019711534779733637,0.9999765015419464,0.006855361066075728,1.965999957058957e-7,-0.00007348408808735207,1.6304157238756232,-3.2563807097101933,0.00002811828760958971,-0.23649805492564696,0.971631961817718,1.7453292519943295,0,web_chase,1,tarmac,1.6,0,1937.735107421875,0,0.03512147068977356,0.9999999935117829,0,1.522306950844893,1937.735107421875,1,tarmac,1.6,0,1938.68115234375,0,0.03506538271903992,0.9999999935117829,0,4.571438709763093,1938.68115234375,1,tarmac,1.6,0,1491.0633544921875,0,0.07044047117233276,0.9999999949222649,0,3.4223121006229746,1491.0633544921875,1,tarmac,1.6,0,1492.1253662109375,0,0.07038381695747375,0.9999999949222649,0,1.6697580969935188,1492.1253662109375,0,1000.0000000000006,0.25,1.4401460820784725e-10,6.253711153626154e-8,0.0000035831125539666735,tarmac,1.6,4,0,6859.60498046875,100,1,11.666666666669812
2026-04-26T20:58:01.621Z,24,0.407,WebPort,true,false,webtest,webtest,car_1,car_1,0,0,0,-0.000019483864889480174,0.5250480771064758,0.008880488574504852,-1.228783761670751e-7,-0.013710925163281689,0.9999060008476556,-0.9999999992227216,-0.000039422285120726965,-6.634567414987229e-7,-0.0000394276760650739,0.999906000070532,0.013710925147780335,-7.281169445150226e-8,0,-7.199751211883765e-11,0.00003131078847218305,8.497983983168922e-10,1.6788017376256903e-7,0,0,0,0,2.903568413009998e-38,18,0.018,7.281173004771056e-8,7.281173004771055e-8,-1.2288992771611147e-7,-0.000007041074202800947,0.013711354784549714,0.7856027605612068,-0.00003942599114068728,-0.0022589428954815556,8.497983983168922e-10,-0.00001971295355595492,0.9999764997414825,0.00685562368669444,1.9658839929465444e-7,-0.00007349035809526847,1.6304217182557368,-3.256379076079184,0.0000281191983960389,-0.23649981474093748,0.9716315334718264,1.7453292519943295,0,web_chase,1,tarmac,1.6,0,1937.7308349609375,0,0.03512182831764221,0.9999999817897204,0,1.522306950844893,1937.7308349609375,1,tarmac,1.6,0,1938.6766357421875,0,0.03506574034690857,0.9999999817897204,0,4.571438709763093,1938.6766357421875,1,tarmac,1.6,0,1491.031982421875,0,0.07044196128845215,0.9999999857484768,0,3.4223121006229746,1491.031982421875,1,tarmac,1.6,0,1492.095703125,0,0.07038521766662598,0.9999999857484768,0,1.6697580969935188,1492.095703125,0,1000.0000000000006,0.25,1.4400193619600226e-10,1.2784192903911865e-7,0.000007324802978752419,tarmac,1.6,4,0,6859.53515625,100,1,13.000000000003144
2026-04-26T20:58:01.637Z,25,0.424,WebPort,true,false,webtest,webtest,car_1,car_1,0,0,0,-0.000019485618395265192,0.525049090385437,0.008880533277988434,-1.2281319487698725e-7,-0.013711483891156746,0.9999059931861034,-0.9999999992225925,-0.000039425559181224134,-6.634584840129477e-7,-0.00003943094991033541,0.9999059924088505,0.013711483875655357,-8.445208266039117e-8,0,-7.19812612293147e-11,0.000032944044505711645,1.1937384414295593e-9,1.9331031353431172e-7,0,0,0,0,2.817754997758082e-38,15,0.015,8.445211333637253e-8,8.445211333637253e-8,-1.2282474123957824e-7,-0.000007037339292814265,0.013711913564951793,0.7856347763199205,-0.000039429265811092624,-0.002259130520275078,1.1937384414295593e-9,-0.000019714590608628367,0.9999764978260172,0.006855903070329792,1.9657253960450975e-7,-0.00007349732876987541,1.6304269815578394,-3.2563776901317945,0.00002812016783121542,-0.23650129198382097,0.971631173902546,1.7453292519943295,0,web_chase,1,tarmac,1.6,0,1937.7257080078125,0,0.03512221574783325,0.999999962791334,0,1.522306950844893,1937.7257080078125,1,tarmac,1.6,0,1938.6722412109375,0,0.03506609797477722,0.999999962791334,0,4.571438709763093,1938.6722412109375,1,tarmac,1.6,0,1491,0,0.0704435408115387,0.9999999708801744,0,3.4223121006229746,1491,1,tarmac,1.6,0,1492.063720703125,0,0.07038679718971252,0.9999999708801744,0,1.6697580969935188,1492.063720703125,0,1000.0000000000006,0.25,1.439635948618948e-10,1.4562338888534908e-7,0.000008343605581522745,tarmac,1.6,4,0,6859.461669921875,100,1,11.333333333336478
2026-04-26T20:58:01.654Z,26,0.44,WebPort,true,false,webtest,webtest,car_1,car_1,0,0,0,-0.000019487615645630285,0.525050163269043,0.00888059288263321,-1.2273972423555952e-7,-0.013712053793582575,0.9999059853709983,-0.9999999992224446,-0.000039429313471132784,-6.634589663489045e-7,-0.00003943470392389142,0.9999059845935975,0.013712053778081155,-9.711278181612215e-8,0,-7.196569729028823e-11,0.000033496417017886415,1.2930195802951516e-9,2.2256355691752105e-7,0,0,0,0,2.7344777522083175e-38,18,0.018,9.711280848130864e-8,9.711280848130864e-8,-1.2275126465016448e-7,-0.00000703312939434784,0.013712483520959598,0.7856674323936759,-0.00003943302076216837,-0.0022593456631239965,1.2930195802951516e-9,-0.00001971646776713504,0.9999764958721581,0.006856188041636171,1.9655429248333444e-7,-0.00007350531412762956,1.6304329571198966,-3.2563760933340333,0.000028121281169364447,-0.2365030000510852,0.9716307581463393,1.7453292519943295,0,web_chase,1,tarmac,1.6,0,1937.7198486328125,0,0.03512260317802429,0.9999999576183806,0,1.522306950844893,1937.7198486328125,1,tarmac,1.6,0,1938.666015625,0,0.03506651520729065,0.9999999576183806,0,4.571438709763093,1938.666015625,1,tarmac,1.6,0,1490.9666748046875,0,0.0704452395439148,0.9999999668317762,0,3.4223121006229746,1490.9666748046875,1,tarmac,1.6,0,1492.0303955078125,0,0.07038849592208862,0.9999999668317762,0,1.6697580969935188,1492.0303955078125,0,1000.0000000000006,0.25,1.4392824534040147e-10,1.6890416528498813e-7,0.0000096774958130098,tarmac,1.6,4,0,6859.3829345703125,100,1,12.66666666666981
2026-04-26T20:58:01.671Z,27,0.457,WebPort,true,false,webtest,webtest,car_1,car_1,0,0,0,-0.00001948988574440591,0.5250511765480042,0.008880652487277985,-1.2265912836619066e-7,-0.013712612521444421,0.9999059777088154,-0.999999999222276,-0.000039433591648590045,-6.634590708187233e-7,-0.00003943898176911558,0.9999059769312457,0.013712612505942901,-1.0970963160161773e-7,0,-7.195009865679225e-11,0.000033032130886567757,1.2834893148294668e-9,2.519303166081954e-7,0,0,0,0,2.653661721218326e-38,16,0.016,1.0970965519487961e-7,1.0970965519487961e-7,-1.2267066214290586e-7,-0.000007028511210863749,0.013713042301357116,0.7856994481521283,-0.00003943729964408227,-0.0022595908249986975,1.2834893148294668e-9,-0.00001971860686085654,0.999976493956525,0.006856467425268212,1.965341695369619e-7,-0.000073514198681709,1.6304383012620183,-3.256374669341027,0.000028122487493946496,-0.23650450572319676,0.9716303916519657,1.7453292519943295,0,web_chase,1,tarmac,1.6,0,1937.7120361328125,0,0.035123080015182495,0.9999999508455732,0,1.522306950844893,1937.7120361328125,1,tarmac,1.6,0,1938.6585693359375,0,0.035066962242126465,0.9999999508455732,0,4.571438709763093,1938.6585693359375,1,tarmac,1.6,0,1490.9337158203125,0,0.07044696807861328,0.9999999615313182,0,3.4223121006229746,1490.9337158203125,1,tarmac,1.6,0,1491.9974365234375,0,0.07039022445678711,0.9999999615313182,0,1.6697580969935188,1491.9974365234375,0,1000.0000000000006,0.25,1.4389402373179357e-10,1.9422556357671573e-7,0.000011128305066495519,tarmac,1.6,4,0,6859.3017578125,100,1,12.000000000003144
2026-04-26T20:58:01.687Z,28,0.474,WebPort,true,false,webtest,webtest,car_1,car_1,0,0,0,-0.00001949170655279886,0.5250521302223206,0.00888071209192276,-1.2264856026557582e-7,-0.013713148900187032,0.9999059703528259,-0.9999999992221348,-0.00003943717091664699,-6.635187475860063e-7,-0.00003944256158476386,0.999905969575115,0.013713148884683135,-8.796152428658388e-8,0,-7.191171269571583e-11,0.00003162643042742275,-2.2858421822036235e-9,2.1143468131867849e-7,0,0,0,0,2.575234164904971e-38,17,0.017,8.796155368178595e-8,8.796155368178594e-8,-1.2266009395093176e-7,-0.000007027905698066549,0.013713578730538002,0.7857301832802007,-0.0000394408795388586,-0.0022597959378604826,-2.2858421822036235e-9,-0.00001972039671012243,0.9999764921174492,0.006856735633553497,1.965464473536957e-7,-0.0000735216094943639,1.630443712692711,-3.2563732107820105,0.000028123513370206397,-0.23650605751876044,0.9716300139281417,1.7453292519943295,0,web_chase,1,tarmac,1.6,0,1937.7047119140625,0,0.03512349724769592,0.9999999434791108,0,1.522306950844893,1937.7047119140625,1,tarmac,1.6,0,1938.65234375,0,0.03506731986999512,0.9999999434791108,0,4.571438709763093,1938.65234375,1,tarmac,1.6,0,1490.90234375,0,0.07044866681098938,0.9999999557662607,0,3.4223121006229746,1490.90234375,1,tarmac,1.6,0,1491.9671630859375,0,0.07039186358451843,0.9999999557662607,0,1.6697580969935188,1491.9671630859375,0,1000.0000000000006,0.25,1.438597537117599e-10,2.1941926312805972e-7,0.000012571797721108102,tarmac,1.6,4,0,6859.2265625,100,1,12.333333333336478
2026-04-26T20:58:01.704Z,29,0.491,WebPort,true,false,webtest,webtest,car_1,car_1,0,0,0,-0.000019493598301778547,0.5250530242919922,0.008880756795406342,-1.2259112458460842e-7,-0.01371364058069497,0.9999059636095831,-0.9999999992219935,-0.00003944075053294581,-6.635297974779932e-7,-0.00003944614107628756,0.999905962831731,0.013713640565190584,-9.218682350820018e-8,0,-7.189056988599063e-11,0.000029372904464253224,4.9400755708362e-10,2.124546512050074e-7,0,0,0,0,2.4991244931735514e-38,17,0.017,9.218685153960995e-8,9.218685153960995e-8,-1.2260265369561688e-7,-0.000007024614613862852,0.013714070457284488,0.7857583571474481,-0.000039444459757790504,-0.002260001069295013,4.9400755708362e-10,-0.000019722186562403047,0.9999764904315636,0.006856981491147021,1.9653485096517932e-7,-0.00007352911282784918,1.6304489334060979,-3.2563718124336583,0.00002812454571318684,-0.23650756514170998,0.9716296469538945,1.7453292519943295,0,web_chase,1,tarmac,1.6,0,1937.697998046875,0,0.035123854875564575,0.9999999361497984,0,1.522306950844893,1937.697998046875,1,tarmac,1.6,0,1938.6451416015625,0,0.03506770730018616,0.9999999361497984,0,4.571438709763093,1938.6451416015625,1,tarmac,1.6,0,1490.8740234375,0,0.07045024633407593,0.999999950030277,0,3.4223121006229746,1490.8740234375,1,tarmac,1.6,0,1491.9376220703125,0,0.07039350271224976,0.999999950030277,0,1.6697580969935188,1491.9376220703125,0,1000.0000000000006,0.25,1.4378832501686173e-10,1.7592304853175288e-7,0.00001007964819994449,tarmac,1.6,4,0,6859.15478515625,100,1,12.666666666669814
2026-04-26T20:58:01.721Z,30,0.506,WebPort,true,false,webtest,webtest,car_1,car_1,0,0,0,-0.00001949525176314637,0.525053858757019,0.008880801498889923,-1.2257000415779092e-7,-0.013714087562971208,0.9999059574791522,-0.9999999992218678,-0.000039443937053123695,-6.635700144341944e-7,-0.00003944932790313316,0.9999059567011745,0.013714087547465188,-7.935111057122413e-8,0,-7.185810974030815e-11,0.000026392672225483693,-1.3406153964723444e-9,1.8850094818390062e-7,0,0,0,0,2.425264202181952e-38,16,0.016,7.935114310754806e-8,7.935114310754806e-8,-1.2258153203407217e-7,-0.000007023404431800036,0.01371451748159865,0.7857839697539893,-0.00003944764681950171,-0.002260183674480113,-1.3406153964723444e-9,-0.000019723779966849317,0.9999764888988883,0.006857204998049151,1.9653962551100413e-7,-0.00007353573867330166,1.6304537475500254,-3.2563705237442573,0.0000281254577918917,-0.23650895204513972,0.9716293093620985,1.7453292519943295,0,web_chase,1,tarmac,1.6,0,1937.6905517578125,0,0.035124242305755615,0.9999999488036659,0,1.522306950844893,1937.6905517578125,1,tarmac,1.6,0,1938.6380615234375,0,0.03506806492805481,0.9999999488036659,0,4.571438709763093,1938.6380615234375,1,tarmac,1.6,0,1490.84765625,0,0.0704517662525177,0.9999999599333038,0,3.4223121006229746,1490.84765625,1,tarmac,1.6,0,1491.911865234375,0,0.07039499282836914,0.9999999599333038,0,1.6697580969935188,1491.911865234375,0,1000.0000000000006,0.25,1.4374501653985556e-10,1.843736469683595e-7,0.000010563831824721886,tarmac,1.6,4,0,6859.088134765625,100,1,12.000000000003148
2026-04-26T20:58:01.737Z,31,0.524,WebPort,true,false,webtest,webtest,car_1,car_1,0,0,0,-0.00001949732904904522,0.5250545740127563,0.00888083130121231,-1.2247732531128755e-7,-0.013714478672458145,0.9999059521148616,-0.9999999992217146,-0.000039447822540278636,-6.635460512223396e-7,-0.00003945321274416308,0.9999059513367307,0.013714478656952902,-1.0140647077605536e-7,0,-7.184881856137082e-11,0.000022849058950669132,2.3261730319745766e-9,2.2895619622431695e-7,0,0,0,0,2.353586812682561e-38,17,0.017,1.0140649622932299e-7,1.0140649622932299e-7,-1.224888451281243e-7,-0.000007018093863273097,0.013714908627871019,0.7858063807845683,-0.00003945153288374444,-0.0022604063295601383,2.3261730319745766e-9,-0.000019725722621024476,0.9999764875577458,0.006857400566587596,1.965104645743574e-7,-0.00007354384110366713,1.63045852282112,-3.256369233535877,0.00002812655876803088,-0.23651037040451978,0.9716289641113081,1.7453292519943295,0,web_chase,1,tarmac,1.6,0,1937.6834716796875,0,0.03512457013130188,0.9999999463452346,0,1.522306950844893,1937.6834716796875,1,tarmac,1.6,0,1938.6302490234375,0,0.03506845235824585,0.9999999463452346,0,4.571438709763093,1938.6302490234375,1,tarmac,1.6,0,1490.8262939453125,0,0.07045304775238037,0.9999999580093141,0,3.4223121006229746,1490.8262939453125,1,tarmac,1.6,0,1491.889404296875,0,0.07039633393287659,0.9999999580093141,0,1.6697580969935188,1491.889404296875,0,1000.0000000000006,0.25,1.4368325191314436e-10,1.587022211143227e-7,0.000009092967469202596,tarmac,1.6,4,0,6859.0294189453125,100,1,12.333333333336482
2026-04-26T20:58:01.754Z,32,0.541,WebPort,true,false,webtest,webtest,car_1,car_1,0,0,0,-0.000019499413610901684,0.5250551700592041,0.008880876004695892,-1.224245901363862e-7,-0.013714802734602604,0.9999059476700477,-0.9999999992215578,-0.000039451795099217665,-6.635605867720682e-7,-0.0000394571851685178,0.9999059468917598,0.013714802719096546,-1.005978162993415e-7,0,-7.182436589925345e-11,0.00001885217170638498,-1.2986300923500949e-10,2.3495574907883565e-7,0,0,0,0,2.2840278101864606e-38,16,0.016,1.0059784193975333e-7,1.0059784193975333e-7,-1.2243610553738167e-7,-0.0000070150721073102975,0.013715232720496425,0.7858249499241754,-0.000039455505991721356,-0.002260633971878765,-1.2986300923500949e-10,-0.0000197277089354738,0.999976486446477,0.0068575626090902324,1.9650091466188772e-7,-0.00007355197966336808,1.6304628209263665,-3.2563680440912384,0.000028127652700013053,-0.2365116654036843,0.9716286488863999,1.7453292519943295,0,web_chase,1,tarmac,1.6,0,1937.6767578125,0,0.03512486815452576,0.9999999538135379,0,1.522306950844893,1937.6767578125,1,tarmac,1.6,0,1938.62353515625,0,0.03506875038146973,0.9999999538135379,0,4.571438709763093,1938.62353515625,1,tarmac,1.6,0,1490.8065185546875,0,0.07045426964759827,0.9999999638540731,0,3.4223121006229746,1490.8065185546875,1,tarmac,1.6,0,1491.8702392578125,0,0.0703975260257721,0.9999999638540731,0,1.6697580969935188,1491.8702392578125,0,1000.0000000000006,0.25,1.4365928267725103e-10,2.0281294148961435e-7,0.00001162032557798845,tarmac,1.6,4,0,6858.97705078125,100,1,11.666666666669816
2026-04-26T20:58:01.771Z,33,0.557,WebPort,true,false,webtest,webtest,car_1,car_1,0,0,0,-0.000019501523638609797,0.5250556468963623,0.008880890905857086,-1.2236525363098472e-7,-0.013715048574848357,0.9999059442980498,-0.9999999992213994,-0.000039455811403194506,-6.635660356598537e-7,-0.00003946120119956866,0.9999059435196035,0.013715048559341792,-1.0276475848058908e-7,0,-7.18018908218987e-11,0.000014530467524309643,2.3309673635729666e-10,2.3833980833387614e-7,0,0,0,0,2.2165245868960305e-38,17,0.017,1.027647835646304e-7,1.027647835646304e-7,-1.2237676386341168e-7,-0.000007011672079842576,0.013715478583866614,0.7858390368576241,-0.00003945952280654954,-0.0022608641184155057,2.3309673635729666e-10,-0.00001972971708308273,0.9999764856034182,0.006857685537884909,1.9648744260635843e-7,-0.00007356022422822908,1.6304670496577294,-3.2563668799626853,0.00002812876283820609,-0.23651298227174072,0.9716283283363552,1.7453292519943295,0,web_chase,1,tarmac,1.6,0,1937.6708984375,0,0.03512510657310486,0.9999999409809105,0,1.522306950844893,1937.6708984375,1,tarmac,1.6,0,1938.617431640625,0,0.03506898880004883,0.9999999409809105,0,4.571438709763093,1938.617431640625,1,tarmac,1.6,0,1490.791259765625,0,0.07045528292655945,0.9999999538111474,0,3.4223121006229746,1490.791259765625,1,tarmac,1.6,0,1491.85546875,0,0.07039850950241089,0.9999999538111474,0,1.6697580969935188,1491.85546875,0,1000.0000000000006,0.25,1.4361059000772843e-10,2.0119563253738347e-7,0.0000115276606008569,tarmac,1.6,4,0,6858.93505859375,100,1,12.000000000003151
2026-04-26T20:58:01.787Z,34,0.573,WebPort,true,false,webtest,webtest,car_1,car_1,0,0,0,-0.000019503393559716642,0.5250559449195862,0.00888090580701828,-1.2233709741371482e-7,-0.013715216193197318,0.9999059419989258,-0.9999999992212565,-0.00003945943466646956,-6.63594190973548e-7,-0.00003946482452871507,0.9999059412203366,0.013715216177689334,-9.047939641959601e-8,0,-7.176984007095655e-11,0.000010069295058201533,-1.277931205301286e-9,2.1413741535525332e-7,0,0,0,0,2.151016385353705e-38,17,0.017,9.047942488413786e-8,9.047942488413788e-8,-1.2234860527896096e-7,-0.000007010058711796487,0.013715646217982713,0.785848641584979,-0.000039463146501387246,-0.00226107174083595,-1.277931205301286e-9,-0.000019731528785131457,0.9999764850285879,0.006857769352971949,1.964874424934088e-7,-0.00007356763321789093,1.6304709385244385,-3.256365774194806,0.000028129765752602174,-0.2365142462283945,0.9716280206641483,1.7453292519943295,0,web_chase,1,tarmac,1.6,0,1937.66552734375,0,0.03512531518936157,0.9999999414514216,0,1.522306950844893,1937.66552734375,1,tarmac,1.6,0,1938.612548828125,0,0.035069167613983154,0.9999999414514216,0,4.571438709763093,1938.612548828125,1,tarmac,1.6,0,1490.7816162109375,0,0.07045599818229675,0.9999999541793734,0,3.4223121006229746,1490.7816162109375,1,tarmac,1.6,0,1491.845947265625,0,0.0703992247581482,0.9999999541793734,0,1.6697580969935188,1491.845947265625,0,1000.0000000000006,0.25,1.4356512521784057e-10,2.0552951689644335e-7,0.000011775973883528781,tarmac,1.6,4,0,6858.9056396484375,100,1,12.333333333336485
2026-04-26T20:58:01.804Z,35,0.59,WebPort,true,false,webtest,webtest,car_1,car_1,0,0,0,-0.00001950483419932425,0.5250561237335205,0.008880920708179474,-1.2233463119563618e-7,-0.013715305589650168,0.9999059407727148,-0.9999999992211445,-0.00003946227205271887,-6.636341724827699e-7,-0.00003946766220737802,0.9999059399940136,0.013715305574140328,-6.946723374312569e-8,0,-7.173199534360464e-11,0.000005591605713561876,-2.1519521720136936e-9,1.6733940810809145e-7,0,0,0,0,2.0874442437561595e-38,17,0.017,6.946727077841201e-8,6.946727077841202e-8,-1.2234613897892927e-7,-0.000007009917403213658,0.013715735622844859,0.7858537641062479,-0.00003946598420294092,-0.002261234329158493,-2.1519521720136936e-9,-0.00001973294759077258,0.999976484722,0.006857814054351584,1.9649682159698753e-7,-0.00007357347801378587,1.6304745478802627,-3.2563647265415807,0.000028130570940015504,-0.23651545754506276,0.9716277258039319,1.7453292519943295,0,web_chase,1,tarmac,1.6,0,1937.66162109375,0,0.03512543439865112,0.9999999401906192,0,1.522306950844893,1937.66162109375,1,tarmac,1.6,0,1938.6085205078125,0,0.035069286823272705,0.9999999401906192,0,4.571438709763093,1938.6085205078125,1,tarmac,1.6,0,1490.775634765625,0,0.07045653462409973,0.9999999531926586,0,3.4223121006229746,1490.775634765625,1,tarmac,1.6,0,1491.841064453125,0,0.0703997015953064,0.9999999531926586,0,1.6697580969935188,1491.841064453125,0,1000.0000000000006,0.25,1.435040411130567e-10,1.8095879279352366e-7,0.000010368175092851169,tarmac,1.6,4,0,6858.8868408203125,100,1,12.66666666666982
2026-04-26T20:58:01.821Z,36,0.607,WebPort,true,false,webtest,webtest,car_1,car_1,0,0,0,-0.000019506001990521327,0.5250561237335205,0.008880920708179474,-1.223264663780654e-7,-0.013715327938763299,0.9999059404661608,-0.9999999992210548,-0.00003946454203380344,-6.636580255940188e-7,-0.00003946993230483678,0.9999059396873698,0.013715327923252255,-5.601091856988205e-8,0,-7.169918825322696e-11,0.0000012295292890485143,-1.3479002358707248e-9,1.335351669240481e-7,0,0,0,0,2.0257509428847084e-38,16,0.016,5.6010964460679964e-8,5.6010964460679964e-8,-1.2233797343081652e-7,-0.000007009449551769387,0.013715757974060333,0.7858550447365615,-0.000039468254409660306,-0.002261364402422136,-1.3479002358707248e-9,-0.000019734082638612246,0.9999764846453373,0.0068578252296963805,1.9650074377770252e-7,-0.000073578222654289,1.6304776426669059,-3.2563638026516597,0.000028131231058830135,-0.23651655342092875,0.9716274590430836,1.7453292519943295,0,web_chase,1,tarmac,1.6,0,1937.6573486328125,0,0.035125553607940674,0.9999999473387078,0,1.522306950844893,1937.6573486328125,1,tarmac,1.6,0,1938.60546875,0,0.03506934642791748,0.9999999473387078,0,4.571438709763093,1938.60546875,1,tarmac,1.6,0,1490.7752685546875,0,0.07045677304267883,0.9999999587868148,0,3.4223121006229746,1490.7752685546875,1,tarmac,1.6,0,1491.8389892578125,0,0.07040002942085266,0.9999999587868148,0,1.6697580969935188,1491.8389892578125,0,1000.0000000000006,0.25,1.434335000782617e-10,1.389344674732491e-7,0.000007960358615114736,tarmac,1.6,4,0,6858.8770751953125,100,1,12.000000000003155
