timestamp_utc,sample_index,race_time_seconds,game_state,is_racing,is_paused,level_id,level_name,car_id,car_name,player_steer,player_throttle,player_brake,position_x,position_y,position_z,forward_x,forward_y,forward_z,right_x,right_y,right_z,up_x,up_y,up_z,velocity_x,velocity_y,velocity_z,angular_velocity_x,angular_velocity_y,angular_velocity_z,vehicle_applied_throttle,vehicle_applied_brake,vehicle_applied_handbrake,vehicle_control_candidate_1dfc,vehicle_applied_steer,vehicle_frame_delta_ms,vehicle_frame_delta_seconds,speed_magnitude,planar_speed_magnitude,yaw_radians,yaw_degrees,pitch_radians,pitch_degrees,roll_radians,roll_degrees,yaw_rate,quat_x,quat_y,quat_z,quat_w,camera_position_x,camera_position_y,camera_position_z,camera_forward_x,camera_forward_y,camera_forward_z,camera_fov,camera_mode_index,camera_family,wheel_0_contact_flag,wheel_0_contact_ptr,wheel_0_contact_surface_44_candidate,wheel_0_contact_surface_48_candidate,wheel_0_contact_surface_4c_candidate,wheel_0_contact_surface_50_candidate,wheel_0_suspension_length_candidate,wheel_0_tire_force_multiplier_candidate,wheel_0_load_or_spin_candidate,wheel_0_rotation_or_phase_candidate,wheel_0_vertical_load_candidate,wheel_1_contact_flag,wheel_1_contact_ptr,wheel_1_contact_surface_44_candidate,wheel_1_contact_surface_48_candidate,wheel_1_contact_surface_4c_candidate,wheel_1_contact_surface_50_candidate,wheel_1_suspension_length_candidate,wheel_1_tire_force_multiplier_candidate,wheel_1_load_or_spin_candidate,wheel_1_rotation_or_phase_candidate,wheel_1_vertical_load_candidate,wheel_2_contact_flag,wheel_2_contact_ptr,wheel_2_contact_surface_44_candidate,wheel_2_contact_surface_48_candidate,wheel_2_contact_surface_4c_candidate,wheel_2_contact_surface_50_candidate,wheel_2_suspension_length_candidate,wheel_2_tire_force_multiplier_candidate,wheel_2_load_or_spin_candidate,wheel_2_rotation_or_phase_candidate,wheel_2_vertical_load_candidate,wheel_3_contact_flag,wheel_3_contact_ptr,wheel_3_contact_surface_44_candidate,wheel_3_contact_surface_48_candidate,wheel_3_contact_surface_4c_candidate,wheel_3_contact_surface_50_candidate,wheel_3_suspension_length_candidate,wheel_3_tire_force_multiplier_candidate,wheel_3_load_or_spin_candidate,wheel_3_rotation_or_phase_candidate,wheel_3_vertical_load_candidate,web_gear,web_engine_rpm,web_clutch,web_slip_long_avg,web_slip_lat_avg,web_slip_angle_deg,web_surface_type,web_surface_grip,web_wheel_contacts,web_forward_impulse,web_suspension_force,web_camera_fov_degrees,web_sim_steps,web_sim_backlog_ms
2026-04-26T20:45:17.677Z,0,0.003,WebPort,true,false,webtest,webtest,car_1,car_1,0,0,0,-0.000008833154424792156,0.47996285557746887,0.00547017902135849,-0.000006592061318666615,-0.000002702000199042156,0.999999999974622,-0.9999999999780125,7.209926408092253e-7,-0.000006592059370566707,7.209748290451971e-7,0.9999999999960897,0.0000027020049518104458,0.00020606769248843193,0.00036310547147877514,0.000688743544742465,0.0007460970664396882,-5.734744970564698e-11,-0.0008098466787487268,0,0,0,0,2.7342329238615985e-10,16,0.016,0.0008054049588435288,0.0007189099834554552,-0.000006592061318738422,-0.0003776972918551553,0.000002702000199045444,0.0001548132076488123,7.209926408119197e-7,0.00004130983537851471,-5.734744970564698e-11,3.604918674659162e-7,0.9999999999935907,0.00000135100128772181,0.000003296030172329458,0.045335854110377244,1.616487051857257,-3.2521408982555102,-0.01349467754343135,-0.24819097085195402,0.96861712542447,1.7453292519943295,0,web_chase,1,tarmac,1.6,0,2457.64697265625,0,0.00514531135559082,0.9997154704236579,0.0439453125,1.6863091918302544,2457.64697265625,1,tarmac,1.6,0,2458.5244140625,0,0.005145728588104248,0.9997154704236579,0.0439453125,5.923000873337358,2458.5244140625,1,tarmac,1.6,0,2679.728759765625,0,0.009925395250320435,0.9997773246793844,0.0439453125,1.9155572387052544,2679.728759765625,1,tarmac,1.6,0,2680.615966796875,0,0.009925752878189087,0.9997773246793844,0.0439453125,5.711086810837358,2680.615966796875,0,1000.0000000000006,0.25,0.0019169784593030016,0.0008131590128821751,0.04659056924218479,tarmac,1.6,4,0,10276.51611328125,100,1,10.333333333340306
2026-04-26T20:45:17.693Z,1,0.02,WebPort,true,false,webtest,webtest,car_1,car_1,0,0,0,-0.000010412205483589787,0.4804454445838928,0.005518302321434021,-0.000006649741664227022,-0.0002741098518226768,0.9999999624097844,-0.9999999999778557,2.658129568046939e-7,-0.000006649669052092059,2.639902070141886e-7,0.9999999624318585,0.0002741098535841942,-0.0004063691303599626,-0.06949250400066376,-0.014161711558699608,-0.03776370361447334,0,0.0013250949559733272,0,0,0,0,2.653424128642766e-10,17,0.017,0.07092198053089173,0.01416754072314301,-0.0000066497419140942395,-0.00038100214652884556,0.0002741098552552729,0.015705337829069025,2.658129667907868e-7,0.000015229961136963195,0,1.3245079219943524e-7,0.9999999906024372,0.00013705492763970003,0.0000033248527103252813,0.04250967038158927,1.6166075041745158,-3.252204046807107,-0.012652510204555467,-0.24804908174270737,0.9686648373055169,1.7453292519943295,0,web_chase,1,tarmac,1.6,0,2446.7021484375,0,0.004959404468536377,0.999536232000113,0,1.6863091918302544,2446.7021484375,1,tarmac,1.6,0,2446.089111328125,0,0.004960447549819946,0.999536232000113,0,5.923000873337358,2446.089111328125,1,tarmac,1.6,0,2639.527099609375,0,0.009122580289840698,0.9996370511305233,0,1.9155572387052544,2639.527099609375,1,tarmac,1.6,0,2638.688720703125,0,0.009123623371124268,0.9996370511305233,0,5.711086810837358,2638.688720703125,0,1000.0000000000006,0.25,0.0013774824104061303,0.0004121439418517326,0.023614107082938117,tarmac,1.6,4,0,10171.007080078125,100,1,10.666666666673642
2026-04-26T20:45:17.710Z,2,0.037,WebPort,true,false,webtest,webtest,car_1,car_1,0,0,0,-0.000009601273632142693,0.47996288537979126,0.005360119044780731,-0.000006499889500986951,-0.0000027235356891759394,0.999999999975167,-0.9999999999786129,7.251125972732162e-7,-0.0000064998875261393124,7.25094894579556e-7,0.9999999999960283,0.0000027235404022694476,0.00020721167675219476,0.00036594970151782036,0.0006917546852491796,0.0007518035708926618,-5.734744970564698e-11,-0.0008130217320285738,0,0,0,0,2.5750035942512146e-10,17,0.017,0.0008095556852914007,0.0007221227205583879,-0.000006499889501056826,-0.0003724162357119506,0.0000027235356891793063,0.00015604710034322825,7.251125972759691e-7,0.00004154589149568238,-5.734744970564698e-11,3.625518729654677e-7,0.9999999999937259,0.0000013617690228698902,0.000003249944256801955,0.039856291665597704,1.6152199057989525,-3.252706113641247,-0.01186185529004079,-0.24774465964772133,0.9687527445148805,1.7453292519943295,0,web_chase,1,tarmac,1.6,0,2457.64697265625,0,0.005145370960235596,0.9997168371230892,0.0439453125,1.6870416137052544,2457.64697265625,1,tarmac,1.6,0,2458.524169921875,0,0.005145758390426636,0.9997168371230892,0.0439453125,5.923733295212358,2458.524169921875,1,tarmac,1.6,0,2679.731201171875,0,0.009925395250320435,0.9997783942702437,0.0439453125,1.9162896605802544,2679.731201171875,1,tarmac,1.6,0,2680.617919921875,0,0.009925752878189087,0.9997783942702437,0.0439453125,5.711819232712358,2680.617919921875,0,1000.0000000000006,0.25,0.001918131988267343,0.0008128896580761523,0.046575136358809395,tarmac,1.6,4,0,10276.520263671875,100,1,11.000000000006976
2026-04-26T20:45:17.727Z,3,0.053,WebPort,true,false,webtest,webtest,car_1,car_1,0,0,0,-0.000011181200534338132,0.48044559359550476,0.0054083094000816345,-0.000006557550932995528,-0.000274189101556363,0.999999962388667,-0.999999999978464,2.6716499397858714e-7,-0.000006557477925760124,2.653669949492157e-7,0.9999999624101319,0.0002741891033024061,-0.0004066420078743249,-0.06948762387037277,-0.0141606405377388,-0.03776106238365173,-1.4336862426411745e-11,0.001326455269008875,0,0,0,0,2.4989007369124463e-10,17,0.017,0.07091698646524695,0.014166477973075011,-0.000006557551179539775,-0.00037572000652866385,0.00027418910499193717,0.01570987850450741,2.6716500402127806e-7,0.0000153074271640149,-1.4336862426411745e-11,1.331329984837793e-7,0.9999999905971578,0.00013709455250377072,0.0000032787572455185503,0.037371510940889856,1.615318779357883,-3.252766828854171,-0.011121489227639765,-0.24759512856774113,0.9687997547413414,1.7453292519943295,0,web_chase,1,tarmac,1.6,0,2446.70458984375,0,0.004959404468536377,0.9995361736414236,0,1.6870416137052544,2446.70458984375,1,tarmac,1.6,0,2446.089599609375,0,0.004960447549819946,0.9995361736414236,0,5.923733295212358,2446.089599609375,1,tarmac,1.6,0,2639.520751953125,0,0.009122639894485474,0.9996370054585053,0,1.9162896605802544,2639.520751953125,1,tarmac,1.6,0,2638.679443359375,0,0.009123653173446655,0.9996370054585053,0,5.711819232712358,2638.679443359375,0,1000.0000000000006,0.25,0.001383504683403853,0.00041443181544134877,0.023745192561292212,tarmac,1.6,4,0,10170.994384765625,100,1,11.333333333340311
2026-04-26T20:45:17.744Z,4,0.07,WebPort,true,false,webtest,webtest,car_1,car_1,0,0,0,-0.00001036774119711481,0.47996288537979126,0.005250096321105957,-0.000006407421189169825,-0.000002719115085737148,0.9999999999757758,-0.9999999999792011,7.369631731545697e-7,-0.00000640741918530409,7.369457506265503e-7,0.9999999999960316,0.000002719119807714046,0.00020531263726297766,0.0003643346717581153,0.0006890168297104537,0.0007484604138880968,0,-0.000809072982519865,0,0,0,0,2.4250470589177593e-10,16,0.016,0.0008060007591120601,0.0007189558196747025,-0.000006407421189237354,-0.0003671181917059952,0.0000027191150857404986,0.00015579381842328353,7.369631731573609e-7,0.00004222487947848566,0,3.6847723094753657e-7,0.9999999999938762,0.0000013595587233711247,0.0000032037100936381,0.035172060766642047,1.613951002016079,-3.2532533117735443,-0.01046606048247778,-0.24729775080199856,0.9688830084309714,1.7453292519943295,0,web_chase,1,tarmac,1.6,0,2457.644287109375,0,0.005145430564880371,0.9997154577637735,0.0439453125,1.6877740355802544,2457.644287109375,1,tarmac,1.6,0,2458.52294921875,0,0.0051457881927490234,0.9997154577637735,0.0439453125,5.924465717087358,2458.52294921875,1,tarmac,1.6,0,2679.72265625,0,0.009925603866577148,0.9997773147716489,0.0439453125,1.9170220824552544,2679.72265625,1,tarmac,1.6,0,2680.610107421875,0,0.009925991296768188,0.9997773147716489,0.0439453125,5.712551654587358,2680.610107421875,0,1000.0000000000006,0.25,0.0019159816788084996,0.0008134326025853908,0.04660624476712871,tarmac,1.6,4,0,10276.5,100,1,10.666666666673645
2026-04-26T20:45:17.760Z,5,0.086,WebPort,true,false,webtest,webtest,car_1,car_1,0,0,0,-0.000011951352462347131,0.4804455041885376,0.005298219621181488,-0.00000646574570563074,-0.0002741593574430173,0.9999999623974197,-0.9999999999790607,2.71049894379726e-7,-0.000006465671637756412,2.692772598059059e-7,0.9999999624182859,0.0002741593591898164,-0.0004063666856382042,-0.06949059665203094,-0.014161305502057076,-0.037762612104415894,-1.4336862426411745e-11,0.0013250675983726978,0,0,0,0,2.3533760869716855e-10,16,0.016,0.07092003053059864,0.014167134763451238,-0.0000064657459486693695,-0.00037045995426256546,0.0002741593608774735,0.01570817429228329,2.710499045662394e-7,0.00001553001556906926,-1.4336862426411745e-11,1.3508178981626518e-7,0.9999999905993459,0.0001370796804468471,0.0000032328543662377353,0.03310426161941955,1.61407281651464,-3.25329910299744,-0.009850012824082292,-0.2471563355073775,0.9689255508375916,1.7453292519943295,0,web_chase,1,tarmac,1.6,0,2446.70263671875,0,0.004959404468536377,0.9995362705486037,0,1.6877740355802544,2446.70263671875,1,tarmac,1.6,0,2446.090087890625,0,0.004960447549819946,0.9995362705486037,0,5.924465717087358,2446.090087890625,1,tarmac,1.6,0,2639.522705078125,0,0.009122639894485474,0.9996370812989073,0,1.9170220824552544,2639.522705078125,1,tarmac,1.6,0,2638.6845703125,0,0.00912371277809143,0.9996370812989073,0,5.712551654587358,2638.6845703125,0,1000.0000000000006,0.25,0.0013780290470026366,0.0004106335671542505,0.02352756900193483,tarmac,1.6,4,0,10171,100,1,10.00000000000698
2026-04-26T20:45:17.777Z,6,0.103,WebPort,true,false,webtest,webtest,car_1,car_1,0,0,0,-0.000011129884114779998,0.47996294498443604,0.005140043795108795,-0.000006315901510673195,-0.0000027545564634662806,0.999999999976261,-0.9999999999797661,7.600497741600617e-7,-0.000006315899417095316,7.600323766404566e-7,0.9999999999959174,0.0000027545612638100613,0.0002056793455267325,0.0003655161999631673,0.0006900325533933938,0.0007508110720664263,0,-0.0008100311388261616,0,0,0,0,2.2838233123615376e-10,18,0.018,0.0008074967556308977,0.0007200339699756616,-0.000006315901510739147,-0.0003618745003856537,0.000002754556463469764,0.0001578244597872994,7.600497741630183e-7,0.000043547644279412313,0,3.8002053770241226e-7,0.999999999993993,0.0000013772794318273587,0.000003157950231961097,0.030921033489824255,1.6126116491205909,-3.2538101618679587,-0.009199368166586128,-0.2468260169875228,0.9690161448414629,1.7453292519943295,0,web_chase,1,tarmac,1.6,0,2457.646484375,0,0.005145370960235596,0.9997172117305473,0.0439453125,1.6885064574552544,2457.646484375,1,tarmac,1.6,0,2458.52392578125,0,0.005145758390426636,0.9997172117305473,0.0439453125,5.925198138962358,2458.52392578125,1,tarmac,1.6,0,2679.727783203125,0,0.009925484657287598,0.9997786874412979,0.0439453125,1.9177545043302544,2679.727783203125,1,tarmac,1.6,0,2680.614501953125,0,0.00992584228515625,0.9997786874412979,0.0439453125,5.713284076462358,2680.614501953125,0,1000.0000000000006,0.25,0.0019173141895306896,0.0008128788251243011,0.04657451567679879,tarmac,1.6,4,0,10276.5126953125,100,1,11.333333333340311
2026-04-26T20:45:17.793Z,7,0.12,WebPort,true,false,webtest,webtest,car_1,car_1,0,0,0,-0.000012712697753158864,0.48044562339782715,0.0051882266998291016,-0.000006374170379050294,-0.0002741992587232522,0.9999999623870677,-0.9999999999796416,2.966163238337338e-7,-0.000006374089286692595,2.9486854211967707e-7,0.9999999624073386,0.0002741992606083529,-0.00040635745972394943,-0.06948862224817276,-0.014160964637994766,-0.03776170313358307,0,0.0013250337215140462,0,0,0,0,2.2163261328952135e-10,16,0.016,0.0709180278054379,0.014166793775008216,-0.000006374170618715215,-0.0003652130743486745,0.00027419926215920817,0.01571046046732385,2.966163349843226e-7,0.000016994864129240315,0,1.4787121787882186e-7,0.9999999905967559,0.00013709963112208258,0.000003187064946404472,0.029102934264328893,1.6127212143287535,-3.25385441590747,-0.008657778652789256,-0.24668026968169962,0.9690582476913157,1.7453292519943295,0,web_chase,1,tarmac,1.6,0,2446.703125,0,0.004959404468536377,0.999536273720414,0,1.6885064574552544,2446.703125,1,tarmac,1.6,0,2446.090087890625,0,0.004960477352142334,0.999536273720414,0,5.925198138962358,2446.090087890625,1,tarmac,1.6,0,2639.51904296875,0,0.009122699499130249,0.9996370837811935,0,1.9177545043302544,2639.51904296875,1,tarmac,1.6,0,2638.67919921875,0,0.009123802185058594,0.9996370837811935,0,5.713284076462358,2638.67919921875,0,1000.0000000000006,0.25,0.0013800604949830257,0.00041136685177653465,0.023569583108876482,tarmac,1.6,4,0,10170.991455078125,100,1,10.666666666673645
2026-04-26T20:45:17.811Z,8,0.136,WebPort,true,false,webtest,webtest,car_1,car_1,0,0,0,-0.000011908693522855174,0.4799630045890808,0.005030028522014618,-0.00000622430991709189,-0.0000027519067287525033,0.9999999999768426,-0.9999999999803506,7.461389183030154e-7,-0.000006224307863809015,7.461217895710447e-7,0.9999999999959351,0.0000027519113728982996,0.00020437534840311855,0.0003651725419331342,0.0006886672344990075,0.0007497615879401565,-5.734744970564698e-11,-0.0008075417135842144,0,0,0,0,2.1508237965549972e-10,17,0.017,0.0008058429302843785,0.0007183535639971497,-0.0000062243099171556475,-0.0003566266886344417,0.0000027519067287559766,0.00015767264117137007,7.461389183059098e-7,0.000042750610949385154,-5.734744970564698e-11,3.7306517697070083e-7,0.9999999999941411,0.0000013759545254207625,0.000003112154445243461,0.02728687102358975,1.6112890537009088,-3.254350430027781,-0.008116529059431275,-0.24636019748324103,0.9691443520198868,1.7453292519943295,0,web_chase,1,tarmac,1.6,0,2457.64501953125,0,0.005145430564880371,0.9997167576322958,0.0439453125,1.6892388793302544,2457.64501953125,1,tarmac,1.6,0,2458.521728515625,0,0.005145847797393799,0.9997167576322958,0.0439453125,5.925930560837358,2458.521728515625,1,tarmac,1.6,0,2679.72412109375,0,0.009925603866577148,0.9997783320600576,0.0439453125,1.9184869262052544,2679.72412109375,1,tarmac,1.6,0,2680.609130859375,0,0.009926050901412964,0.9997783320600576,0.0439453125,5.714016498337358,2680.609130859375,0,1000.0000000000006,0.25,0.0019166280729150595,0.0008128542230179707,0.04657310608087032,tarmac,1.6,4,0,10276.5,100,1,11.00000000000698
2026-04-26T20:45:17.827Z,9,0.154,WebPort,true,false,webtest,webtest,car_1,car_1,0,0,0,-0.000013505709830496926,0.48044562339782715,0.005078151822090149,-0.000006283149761979392,-0.00027421826367729203,0.9999999623824323,-0.9999999999802297,2.519494786124284e-7,-0.000006283080909060835,2.5022653359727534e-7,0.9999999624021395,0.00027421826525490697,-0.0004064512613695115,-0.0694897398352623,-0.01416107825934887,-0.03776204586029053,-1.4336862426411745e-11,0.0013254305813461542,0,0,0,0,2.0872573468166423e-10,16,0.016,0.07091914609234738,0.01416691004048773,-0.00000628314999825353,-0.0003599979769475578,0.0002742182671139625,0.01571154937102111,2.5194948808518475e-7,0.000014435642317762707,-1.4336862426411745e-11,1.2554400423309197e-7,0.9999999905956002,0.00013710913352247889,0.000003141557697304522,0.025682155394757215,1.6113904003937478,-3.2543932254065577,-0.00763857880815788,-0.24621157892306753,0.9691860040869358,1.7453292519943295,0,web_chase,1,tarmac,1.6,0,2446.700439453125,0,0.00495949387550354,0.9995363621978206,0,1.6892388793302544,2446.700439453125,1,tarmac,1.6,0,2446.08935546875,0,0.004960566759109497,0.9995363621978206,0,5.925930560837358,2446.08935546875,1,tarmac,1.6,0,2639.51806640625,0,0.009122759103775024,0.9996371530243814,0,1.9184869262052544,2639.51806640625,1,tarmac,1.6,0,2638.6806640625,0,0.00912386178970337,0.9996371530243814,0,5.714016498337358,2638.6806640625,0,1000.0000000000006,0.25,0.001377329914933553,0.000408758724813081,0.023420148466564056,tarmac,1.6,4,0,10170.988525390625,100,1,10.333333333340313
2026-04-26T20:45:17.844Z,10,0.17,WebPort,true,false,webtest,webtest,car_1,car_1,0,0,0,-0.00001267462721443735,0.4799630045890808,0.00491999089717865,-0.000006133251350318809,-0.0000027756429078928274,0.9999999999773397,-0.9999999999808947,7.705733504583285e-7,-0.000006133249211504158,7.705563267311908e-7,0.9999999999958512,0.000002775647633959839,0.00020432064775377512,0.00036569457734003663,0.0006890387157909572,0.0007513669552281499,-5.734744970564698e-11,-0.00080782180884853,0,0,0,0,2.02556956958452e-10,17,0.017,0.0008063831613155633,0.0007186941484090251,-0.0000061332513503808854,-0.00035140941706973764,0.000002775642907896391,0.00015903262405788228,7.70573350461373e-7,0.00004415060078669194,-5.734744970564698e-11,3.85282419299591e-7,0.9999999999942606,0.0000013878226354711315,0.000003066625140473341,0.024079826714567865,1.609951310659417,-3.2548872281020547,-0.007160971426530425,-0.24588907332532756,0.9692715223854667,1.7453292519943295,0,web_chase,1,tarmac,1.6,0,2457.645263671875,0,0.005145430564880371,0.9997178400199286,0.0439453125,1.6899713012052544,2457.645263671875,1,tarmac,1.6,0,2458.523193359375,0,0.0051457881927490234,0.9997178400199286,0.0439453125,5.926662982712358,2458.523193359375,1,tarmac,1.6,0,2679.72314453125,0,0.009925693273544312,0.999779179146031,0.0439453125,1.9192193480802544,2679.72314453125,1,tarmac,1.6,0,2680.610107421875,0,0.009926050901412964,0.999779179146031,0.0439453125,5.714748920212358,2680.610107421875,0,1000.0000000000006,0.25,0.001916852134096779,0.0008130454573164369,0.04658406299182929,tarmac,1.6,4,0,10276.501708984375,100,1,10.666666666673649
2026-04-26T20:45:17.860Z,11,0.186,WebPort,true,false,webtest,webtest,car_1,car_1,0,0,0,-0.000014258192095439881,0.4804456830024719,0.00496809184551239,-0.000006192305706579783,-0.0002742303998231231,0.999999962379671,-0.999999999980782,3.0434646348248683e-7,-0.000006192222478361861,3.0264835638683766e-7,0.9999999623987968,0.0002742304017024591,-0.00040617171907797456,-0.06948845833539963,-0.014160983264446259,-0.03776161000132561,-1.4336862426411745e-11,0.0013241204433143139,0,0,0,0,1.9657049416950716e-10,17,0.017,0.07091786985176499,0.014166807067271926,-0.000006192305939457222,-0.0003547929957846911,0.0002742304032602499,0.01571224472098293,3.0434647492627104e-7,0.000017437768522959463,-1.4336862426411745e-11,1.5174870639454192e-7,0.9999999905949061,0.00013711520167097687,0.000003096132075354823,0.02257782047696067,1.6100070816518501,-3.2549411628879685,-0.006713654666783982,-0.24572438732391805,0.9693164871781046,1.7453292519943295,0,web_chase,1,tarmac,1.6,0,2446.70263671875,0,0.004959404468536377,0.9995362800079356,0,1.6899713012052544,2446.70263671875,1,tarmac,1.6,0,2446.09033203125,0,0.004960536956787109,0.9995362800079356,0,5.926662982712358,2446.09033203125,1,tarmac,1.6,0,2639.51611328125,0,0.009122759103775024,0.9996370887018626,0,1.9192193480802544,2639.51611328125,1,tarmac,1.6,0,2638.67822265625,0,0.009123891592025757,0.9996370887018626,0,5.714748920212358,2638.67822265625,0,1000.0000000000006,0.25,0.0013780728951757893,0.0004086491840030723,0.023413872241514488,tarmac,1.6,4,0,10170.9873046875,100,1,11.000000000006983
2026-04-26T20:45:17.877Z,12,0.203,WebPort,true,false,webtest,webtest,car_1,car_1,0,0,0,-0.000013441509508993477,0.4799630045890808,0.004809916019439697,-0.000006042648883144587,-0.0000027830957365577143,0.9999999999778705,-0.9999999999814307,7.906230579361757e-7,-0.000006042646682786439,7.906062406544589e-7,0.9999999999958147,0.0000027831005139635704,0.00020382976799737662,0.0003658880013972521,0.0006886895862407982,0.0007513287710025907,0,-0.000806887517683208,0,0,0,0,1.907609580942213e-10,16,0.016,0.0008060483546815673,0.0007182199666664707,-0.000006042648883204762,-0.00034621827808707314,0.000002783095736561307,0.0001594596396858161,7.9062305793932e-7,0.000045299364405650194,0,3.953073246498765e-7,0.9999999999943894,0.0000013915490626381284,0.000003021323891499707,0.021249616131509205,1.6086054041836633,-3.255420072468443,-0.006317721013711667,-0.2454150856994611,0.9693975046967673,1.7453292519943295,0,web_chase,1,tarmac,1.6,0,2457.644775390625,0,0.005145460367202759,0.999717783827589,0.0439453125,1.6907037230802544,2457.644775390625,1,tarmac,1.6,0,2458.521484375,0,0.005145847797393799,0.999717783827589,0.0439453125,5.927395404587358,2458.521484375,1,tarmac,1.6,0,2679.7216796875,0,0.009925752878189087,0.9997791351694175,0.0439453125,1.9199517699552544,2679.7216796875,1,tarmac,1.6,0,2680.6064453125,0,0.009926170110702515,0.9997791351694175,0.0439453125,5.715481342087358,2680.6064453125,0,1000.0000000000006,0.25,0.0019166612377070902,0.0008124765169250147,0.04655146513013979,tarmac,1.6,4,0,10276.494384765625,100,1,10.333333333340317
2026-04-26T20:45:17.893Z,13,0.22,WebPort,true,false,webtest,webtest,car_1,car_1,0,0,0,-0.000015054760297061875,0.4804456830024719,0.004858024418354034,-0.000006101893474940436,-0.000274237210260413,0.9999999623783591,-0.9999999999813494,2.625270049239193e-7,-0.000006101821709713729,2.6085364848404434e-7,0.9999999623969411,0.0002742372118572102,-0.0004065686371177435,-0.06948841363191605,-0.014160857535898685,-0.03776156157255173,-1.4336862426411745e-11,0.001326054218225181,0,0,0,0,1.8512311975797119e-10,18,0.018,0.07091780321815505,0.014166692775969499,-0.000006101893704427959,-0.0003496127563011695,0.0002742372136977959,0.015712634930310953,2.6252701479573206e-7,0.000015041689955963965,-1.4336862426411745e-11,1.308451645826445e-7,0.9999999905945812,0.00013711860681906373,0.0000030509288248588057,0.019848433266470657,1.6086186931539508,-3.2554844866357255,-0.00590050064265999,-0.2452354428825518,0.9694455949904381,1.7453292519943295,0,web_chase,1,tarmac,1.6,0,2446.702392578125,0,0.004959404468536377,0.999536468148797,0,1.6907037230802544,2446.702392578125,1,tarmac,1.6,0,2446.0908203125,0,0.004960536956787109,0.999536468148797,0,5.927395404587358,2446.0908203125,1,tarmac,1.6,0,2639.515625,0,0.009122759103775024,0.9996372359425368,0,1.9199517699552544,2639.515625,1,tarmac,1.6,0,2638.678466796875,0,0.009123891592025757,0.9996372359425368,0,5.715481342087358,2638.678466796875,0,1000.0000000000006,0.25,0.0013773746725050022,0.00040766728044388975,0.02335761332105681,tarmac,1.6,4,0,10170.9873046875,100,1,11.666666666673649
2026-04-26T20:45:17.910Z,14,0.237,WebPort,true,false,webtest,webtest,car_1,car_1,0,0,0,-0.000014219777767721098,0.4799630641937256,0.004699863493442535,-0.000005951863139005453,-0.0000028039172708098797,0.9999999999783569,-0.9999999999819703,7.968703126733328e-7,-0.000005951860904668528,7.968536241305017e-7,0.9999999999957517,0.000002803922013622365,0.00020394801686052233,0.00036672415444627404,0.0006894636899232864,0.0007537275669164956,0,-0.0008076668600551784,0,0,0,0,1.7965190472568871e-10,16,0.016,0.0008071193088746597,0.0007189958089613413,-0.000005951863139063989,-0.00034101663810785234,0.0000028039172708135533,0.0001606526257214569,7.968703126765494e-7,0.00004565730573563654,0,3.98430984203146e-7,0.9999999999945097,0.000001401959821115758,0.0000029759310109348328,0.018681015170283265,1.607216787579679,-3.2559608646362443,-0.005552442844432958,-0.24492604634024734,0.969525864638275,1.7453292519943295,0,web_chase,1,tarmac,1.6,0,2457.64404296875,0,0.005145460367202759,0.9997181522366574,0.0439453125,1.6914361449552544,2457.64404296875,1,tarmac,1.6,0,2458.52294921875,0,0.0051457881927490234,0.9997181522366574,0.0439453125,5.928127826462358,2458.52294921875,1,tarmac,1.6,0,2679.720947265625,0,0.009925752878189087,0.999779423489558,0.0439453125,1.9206841918302544,2679.720947265625,1,tarmac,1.6,0,2680.607177734375,0,0.009926170110702515,0.999779423489558,0.0439453125,5.716213763962358,2680.607177734375,0,1000.0000000000006,0.25,0.001916408927211271,0.0008132736031059875,0.04659713477404078,tarmac,1.6,4,0,10276.4951171875,100,1,11.000000000006983
2026-04-26T20:45:17.927Z,15,0.253,WebPort,true,false,webtest,webtest,car_1,car_1,0,0,0,-0.000015828196410438977,0.4804457426071167,0.004748053848743439,-0.000006011338112940118,-0.000274295621610599,0.9999999623628872,-0.9999999999818938,2.7787527594357947e-7,-0.000006011262119106281,2.7622640260553205e-7,0.9999999623809168,0.00027429562327603503,-0.0004065851971972734,-0.06948679685592651,-0.014160485938191414,-0.03776058182120323,-1.4336862426411745e-11,0.0013261333806440234,0,0,0,0,1.7434238853452675e-10,16,0.016,0.0709161449236004,0.014166321806605153,-0.000006011338339117128,-0.00034442431605659346,0.0002742956250501788,0.015715981654278146,2.778752863969858e-7,0.000015921081141536302,-1.4336862426411745e-11,1.3852542094070346e-7,0.9999999905907123,0.00013714781251212177,0.000003005650086292628,0.01758163121923658,1.6073125936600396,-3.2559975262358547,-0.00522518688721214,-0.24477546450268445,0.9695657117490744,1.7453292519943295,0,web_chase,1,tarmac,1.6,0,2446.703369140625,0,0.004959404468536377,0.9995362661660295,0,1.6914361449552544,2446.703369140625,1,tarmac,1.6,0,2446.091064453125,0,0.004960566759109497,0.9995362661660295,0,5.928127826462358,2446.091064453125,1,tarmac,1.6,0,2639.510986328125,0,0.009122878313064575,0.9996370778690665,0,1.9206841918302544,2639.510986328125,1,tarmac,1.6,0,2638.673095703125,0,0.009124010801315308,0.9996370778690665,0,5.716213763962358,2638.673095703125,0,1000.0000000000006,0.25,0.0013789228955469802,0.00040790365643446965,0.023371156665443153,tarmac,1.6,4,0,10170.978515625,100,1,10.333333333340317
2026-04-26T20:45:17.944Z,16,0.269,WebPort,true,false,webtest,webtest,car_1,car_1,0,0,0,-0.000015000718121882528,0.479963093996048,0.004589870572090149,-0.0000058612733750128255,-0.0000028024405115026896,0.999999999978896,-0.9999999999825044,7.980234206242318e-7,-0.000005861271138620812,7.980069947437029e-7,0.9999999999957547,0.000002802445188887088,0.0002037936937995255,0.0003675015177577734,0.0006898656720295548,0.0007548493449576199,-5.734744970564698e-11,-0.000807611271739006,0,0,0,0,1.6918979226151012e-10,17,0.017,0.0008077771231172069,0.0007193375529452387,-0.000005861273375069401,-0.0003358262269638763,0.0000028024405115063577,0.0001605680136457979,7.980234206274502e-7,0.00004572337395454614,-5.734744970564698e-11,3.9900760384412065e-7,0.9999999999946445,0.000001401221425104949,0.0000029306361284241057,0.01648507674620921,1.6058717830134501,-3.256483811190032,-0.004898229404167911,-0.2444523879226716,0.9696489248112472,1.7453292519943295,0,web_chase,1,tarmac,1.6,0,2457.643798828125,0,0.005145460367202759,0.999717899971364,0.0439453125,1.6921685668302544,2457.643798828125,1,tarmac,1.6,0,2458.521728515625,0,0.005145847797393799,0.999717899971364,0.0439453125,5.928860248337358,2458.521728515625,1,tarmac,1.6,0,2679.716796875,0,0.009925901889801025,0.9997792260645457,0.0439453125,1.9214166137052544,2679.716796875,1,tarmac,1.6,0,2680.603515625,0,0.009926289319992065,0.9997792260645457,0.0439453125,5.716946185837358,2680.603515625,0,1000.0000000000006,0.25,0.0019156585739463806,0.0008133020218395384,0.04659876304645536,tarmac,1.6,4,0,10276.48583984375,100,1,10.666666666673652
2026-04-26T20:45:17.960Z,17,0.287,WebPort,true,false,webtest,webtest,car_1,car_1,0,0,0,-0.000016617264918750152,0.4804458022117615,0.004638068377971649,-0.000005920929843318897,-0.0002743099407550257,0.9999999623594988,-0.9999999999824376,2.616316224528078e-7,-0.000005920858297924131,2.600074623159398e-7,0.9999999623769933,0.00027430994229931055,-0.00040671354508958757,-0.06948581337928772,-0.014160237275063992,-0.03776001185178757,0,0.001326753874309361,0,0,0,0,1.6418947822218244e-10,17,0.017,0.0709151323525175,0.014166076930253875,-0.000005920930066116481,-0.00033924430358058986,0.0002743099441951442,0.015716802080850897,2.6163163229617045e-7,0.00001499038831768921,0,1.304097724193603e-7,0.9999999905898661,0.0001371549720542307,0.0000029604470631689596,0.015455929019095257,1.605930497453668,-3.2565301730418463,-0.004591933377822343,-0.24428873643618756,0.9696916661487118,1.7453292519943295,0,web_chase,1,tarmac,1.6,0,2446.701904296875,0,0.00495949387550354,0.9995363468321672,0,1.6921685668302544,2446.701904296875,1,tarmac,1.6,0,2446.090087890625,0,0.0049606263637542725,0.9995363468321672,0,5.928860248337358,2446.090087890625,1,tarmac,1.6,0,2639.509521484375,0,0.009122878313064575,0.9996371409990874,0,1.9214166137052544,2639.509521484375,1,tarmac,1.6,0,2638.6708984375,0,0.009124040603637695,0.9996371409990874,0,5.716946185837358,2638.6708984375,0,1000.0000000000006,0.25,0.0013797268952466062,0.00040759488802178946,0.02335346554149094,tarmac,1.6,4,0,10170.972412109375,100,1,11.000000000006986
2026-04-26T20:45:17.977Z,18,0.303,WebPort,true,false,webtest,webtest,car_1,car_1,0,0,0,-0.00001577166040078737,0.479963093996048,0.004479885101318359,-0.000005770770988627323,-0.0000028296393266179234,0.9999999999793457,-0.9999999999829983,8.378101275130396e-7,-0.000005770768617947915,8.377937983019095e-7,0.9999999999956456,0.000002829644161380194,0.00020346796372905374,0.00036812209873460233,0.0006900814478285611,0.0007566581480205059,-5.734744970564698e-11,-0.0008074679644778371,0,0,0,0,1.59336945796377e-10,17,0.017,0.0008081618009272518,0.0007194523034233823,-0.0000057707709886824545,-0.000330640822188042,0.0000028296393266216994,0.00016212639095966364,8.378101275164918e-7,0.000048002984340012304,-5.734744970564698e-11,4.189009814559371e-7,0.9999999999947489,0.0000014148208720069591,0.0000028853849016589634,0.01449217286532727,1.6044944272226083,-3.2570131367473576,-0.004304515567759219,-0.24396735686647386,0.9697738911361315,1.7453292519943295,0,web_chase,1,tarmac,1.6,0,2457.642578125,0,0.005145519971847534,0.999717894505872,0.0439453125,1.6929009887052544,2457.642578125,1,tarmac,1.6,0,2458.52197265625,0,0.005145847797393799,0.999717894505872,0.0439453125,5.929592670212358,2458.52197265625,1,tarmac,1.6,0,2679.714111328125,0,0.009925991296768188,0.9997792217872042,0.0439453125,1.9221490355802544,2679.714111328125,1,tarmac,1.6,0,2680.6025390625,0,0.009926319122314453,0.9997792217872042,0.0439453125,5.717678607712358,2680.6025390625,0,1000.0000000000006,0.25,0.001915159869183617,0.0008135584123094469,0.04661345312856852,tarmac,1.6,4,0,10276.481201171875,100,1,11.333333333340322
2026-04-26T20:45:17.994Z,19,0.32,WebPort,true,false,webtest,webtest,car_1,car_1,0,0,0,-0.000017397920601069927,0.4804458022117615,0.004528068006038666,-0.000005830782542651454,-0.00027432516201151067,0.9999999623558532,-0.999999999982962,2.8144975387808986e-7,-0.000005830705553294713,2.7985023403760483e-7,0.9999999623728124,0.0002743251636479088,-0.00040675766649656,-0.0694843977689743,-0.014160022139549255,-0.03775949403643608,0,0.0013270225608721375,0,0,0,0,1.546278273773548e-10,17,0.017,0.07091370256945281,0.014165863150255928,-0.0000058307827620802175,-0.0003340792435248293,0.00027432516545220176,0.01571767419463918,2.8144976446824554e-7,0.000016125883648981548,0,1.4032499829952877e-7,0.9999999905889533,0.0001371625827056983,0.000002915372051423243,0.013587088356881279,1.6045591669655028,-3.2570562839313655,-0.004035219559465697,-0.2438058315090499,0.9698156698699438,1.7453292519943295,0,web_chase,1,tarmac,1.6,0,2446.703857421875,0,0.004959404468536377,0.9995363313510944,0,1.6929009887052544,2446.703857421875,1,tarmac,1.6,0,2446.09130859375,0,0.0049606263637542725,0.9995363313510944,0,5.929592670212358,2446.09130859375,1,tarmac,1.6,0,2639.507568359375,0,0.009122878313064575,0.9996371288834652,0,1.9221490355802544,2639.507568359375,1,tarmac,1.6,0,2638.668212890625,0,0.00912410020828247,0.9996371288834652,0,5.717678607712358,2638.668212890625,0,1000.0000000000006,0.25,0.0013801584639890362,0.0004069432752190698,0.023316130884211042,tarmac,1.6,4,0,10170.970947265625,100,1,11.666666666673656
2026-04-26T20:45:18.010Z,20,0.336,WebPort,true,false,webtest,webtest,car_1,car_1,0,0,0,-0.000016565418263780884,0.47996312379837036,0.00436989963054657,-0.000005680524997438151,-0.000002835054076062381,0.9999999999798471,-0.9999999999835252,8.255109183585141e-7,-0.000005680522657090951,8.254948137529651e-7,0.9999999999956405,0.0000028350587653510833,0.00020266461069695652,0.0003678248613141477,0.0006891397060826421,0.0007558318902738392,0,-0.0008058472885750234,0,0,0,0,1.500578844406637e-10,16,0.016,0.0008070202026773501,0.0007183219883371379,-0.000005680524997491529,-0.00032547010777482716,0.0000028350540760661783,0.00016243663324995306,8.255109183619254e-7,0.00004729829156410698,0,4.1275143302998454e-7,0.9999999999948768,0.0000014175282103606288,0.000002840261913646828,0.012788288545081558,1.6031701779598717,-3.257523500391504,-0.003796953104279383,-0.24350102813697524,0.969893206720905,1.7453292519943295,0,web_chase,1,tarmac,1.6,0,2457.64306640625,0,0.005145460367202759,0.9997180329216119,0.0439453125,1.6936334105802544,2457.64306640625,1,tarmac,1.6,0,2458.521484375,0,0.005145847797393799,0.9997180329216119,0.0439453125,5.930325092087358,2458.521484375,1,tarmac,1.6,0,2679.712890625,0,0.009925991296768188,0.9997793301125658,0.0439453125,1.9228814574552544,2679.712890625,1,tarmac,1.6,0,2680.60009765625,0,0.009926408529281616,0.9997793301125658,0.0439453125,5.718411029587358,2680.60009765625,0,1000.0000000000006,0.25,0.00191472833223311,0.0008136413460854061,0.04661820488076467,tarmac,1.6,4,0,10276.4775390625,100,1,11.00000000000699
2026-04-26T20:45:18.027Z,21,0.354,WebPort,true,false,webtest,webtest,car_1,car_1,0,0,0,-0.00001818106829887256,0.48044586181640625,0.004418022930622101,-0.0000057408602898162406,-0.0002743343297029812,0.9999999623538584,-0.9999999999834794,2.9094661087722303e-7,-0.000005740780689196168,2.8937170670186336e-7,0.9999999623702948,0.00027433433136873296,-0.00040647442801855505,-0.06948516517877579,-0.014160235412418842,-0.037759844213724136,0,0.0013256185920909047,0,0,0,0,1.4562300372918028e-10,17,0.017,0.07091449547389807,0.01416606820524854,-0.00000574086050587442,-0.000328927077759943,0.0002743343331440174,0.015718199464688092,2.9094662182545046e-7,0.000016670013494187153,0,1.4507958076019474e-7,0.9999999905884541,0.00013716716655888365,0.000002870410271768101,0.011989333483902147,1.6032430159922826,-3.2575631717237195,-0.003559296019079422,-0.24334234729817192,0.9699339325043044,1.7453292519943295,0,web_chase,1,tarmac,1.6,0,2446.703125,0,0.004959404468536377,0.9995363583709144,0,1.6936334105802544,2446.703125,1,tarmac,1.6,0,2446.091796875,0,0.0049606263637542725,0.9995363583709144,0,5.930325092087358,2446.091796875,1,tarmac,1.6,0,2639.50634765625,0,0.00912293791770935,0.9996371500294112,0,1.9228814574552544,2639.50634765625,1,tarmac,1.6,0,2638.669677734375,0,0.00912410020828247,0.9996371500294112,0,5.718411029587358,2638.669677734375,0,1000.0000000000006,0.25,0.0013782750240479888,0.0004053364434477858,0.02322406622051499,tarmac,1.6,4,0,10170.970947265625,100,1,11.333333333340326
2026-04-26T20:45:18.043Z,22,0.37,WebPort,true,false,webtest,webtest,car_1,car_1,0,0,0,-0.000017345857486361638,0.47996315360069275,0.004259854555130005,-0.00000559087613918677,-0.00000285729780281851,0.9999999999802891,-0.9999999999840157,8.43233267218408e-7,-0.000005590873729839043,8.432172924105627e-7,0.9999999999955624,0.0000028573025171855907,0.00020201651204843074,0.00036790515878237784,0.0006885997136123478,0.0007558644283562899,0,-0.0008046748698689044,0,0,0,0,1.4131919355090074e-10,16,0.016,0.0008064331606437745,0.0007176212348636439,-0.0000055908761392387185,-0.00032033360655877457,0.0000028572978028223974,0.00016371110491372666,8.4323326722195e-7,0.000048313707356844874,0,4.216126399093577e-7,0.9999999999949833,0.000001428650080008192,0.0000027954374672704767,0.011284592004775097,1.6018623863405268,-3.258026659294248,-0.0033490423918023033,-0.24304050390250442,0.9700103594178131,1.7453292519943295,0,web_chase,1,tarmac,1.6,0,2457.642822265625,0,0.005145519971847534,0.9997187236087379,0.0439453125,1.6943658324552544,2457.642822265625,1,tarmac,1.6,0,2458.51953125,0,0.005145937204360962,0.9997187236087379,0.0439453125,5.931057513962358,2458.51953125,1,tarmac,1.6,0,2679.712890625,0,0.009926050901412964,0.9997798706503166,0.0439453125,1.9236138793302544,2679.712890625,1,tarmac,1.6,0,2680.598876953125,0,0.009926468133926392,0.9997798706503166,0.0439453125,5.719143451462358,2680.598876953125,0,1000.0000000000006,0.25,0.0019151532592281834,0.0008130710046890699,0.046585526747491175,tarmac,1.6,4,0,10276.47412109375,100,1,10.66666666667366
2026-04-26T20:45:18.060Z,23,0.386,WebPort,true,false,webtest,webtest,car_1,car_1,0,0,0,-0.000018992563127540052,0.48044589161872864,0.004307970404624939,-0.000005651510532275022,-0.00027435557564411375,0.9999999623485387,-0.999999999984001,2.438440212475579e-7,-0.0000056514438450029065,2.422935069371579e-7,0.9999999623644786,0.0002743555770178113,-0.0004068687267135829,-0.06948527693748474,-0.01416014414280653,-0.03775988891720772,0,0.001327546196989715,0,0,0,0,1.3714258018614877e-10,16,0.016,0.07091458901654006,0.014165988292591365,-0.000005651510745002491,-0.0003238077135614783,0.00027435557908594944,0.01571941676749258,2.438440304247503e-7,0.00001397123380279783,0,1.2153438319016662e-7,0.9999999905871272,0.00013717778945671833,0.0000028257386209178,0.010619299558980546,1.6019838125070613,-3.258050889710888,-0.003151255344823575,-0.24289893558136233,0.9700464817127028,1.7453292519943295,0,web_chase,1,tarmac,1.6,0,2446.70263671875,0,0.004959404468536377,0.9995364739304851,0,1.6943658324552544,2446.70263671875,1,tarmac,1.6,0,2446.09228515625,0,0.0049606263637542725,0.9995364739304851,0,5.931057513962358,2446.09228515625,1,tarmac,1.6,0,2639.505126953125,0,0.009122967720031738,0.9996372404673362,0,1.9236138793302544,2639.505126953125,1,tarmac,1.6,0,2638.668701171875,0,0.009124189615249634,0.9996372404673362,0,5.719143451462358,2638.668701171875,0,1000.0000000000006,0.25,0.0013771950658697523,0.0004040401033787636,0.023149791417910504,tarmac,1.6,4,0,10170.96875,100,1,10.000000000006994
2026-04-26T20:45:18.077Z,24,0.403,WebPort,true,false,webtest,webtest,car_1,car_1,0,0,0,-0.00001812774280551821,0.47996318340301514,0.004149794578552246,-0.000005501194110160476,-0.000002871431738969218,0.9999999999807458,-0.9999999999844803,8.810699765539848e-7,-0.000005501191580248726,8.810541802409152e-7,0.9999999999954893,0.0000028714365858616207,0.00020175396639388055,0.0003673600731417537,0.0006880513392388821,0.000755541492253542,-1.1469489941129396e-10,-0.0008042173576541245,0,0,0,0,1.330894044009662e-10,18,0.018,0.0008056505022171815,0.0007170211352422482,-0.000005501194110210903,-0.000315195204797311,0.000002871431738973164,0.00016452091980307296,8.810699765577311e-7,0.00005048159111244837,-1.1469489941129396e-10,4.4053103920088826e-7,0.9999999999950895,0.00000143571708121476,0.0000027505964226158077,0.009919872497267647,1.6005352719155992,-3.2585336380546632,-0.0029425472407898735,-0.24257318612276274,0.9701286465154957,1.7453292519943295,0,web_chase,1,tarmac,1.6,0,2457.641357421875,0,0.005145549774169922,0.9997192287374537,0.0439453125,1.6950982543302544,2457.641357421875,1,tarmac,1.6,0,2458.520751953125,0,0.005145907402038574,0.9997192287374537,0.0439453125,5.931789935837358,2458.520751953125,1,tarmac,1.6,0,2679.7109375,0,0.009926140308380127,0.999780265968442,0.0439453125,1.9243463012052544,2679.7109375,1,tarmac,1.6,0,2680.599609375,0,0.009926468133926392,0.999780265968442,0.0439453125,5.719875873337358,2680.599609375,0,1000.0000000000006,0.25,0.0019149677741610825,0.0008138636167943753,0.04663094004586485,tarmac,1.6,4,0,10276.47265625,100,1,11.333333333340326
2026-04-26T20:45:18.093Z,25,0.42,WebPort,true,false,webtest,webtest,car_1,car_1,0,0,0,-0.000019777906345552765,0.480445921421051,0.004197917878627777,-0.000005561917714013152,-0.0002743581949138857,0.9999999623483222,-0.9999999999844952,2.7467673844558813e-7,-0.000005561842563525475,2.731507910174241e-7,0.999999962363752,0.0002743581964373614,-0.00040685629937797785,-0.0694858729839325,-0.014160295017063618,-0.03776027634739876,0,0.0013274849625304341,0,0,0,0,1.291560180635488e-10,17,0.017,0.07091520310453761,0.014166138747683514,-0.000005561917923371341,-0.00031867442300734505,0.00027435819835582,0.01571956684060157,2.746767487833835e-7,0.000015737818435663044,0,1.3695688365491846e-7,0.9999999905870712,0.00013717909912906888,0.000002780940095561449,0.0092993634482178,1.600629440882036,-3.2585652576090265,-0.002758122861487814,-0.24242202381572814,0.9701669728079634,1.7453292519943295,0,web_chase,1,tarmac,1.6,0,2446.70263671875,0,0.004959404468536377,0.999536265328998,0,1.6950982543302544,2446.70263671875,1,tarmac,1.6,0,2446.091796875,0,0.004960685968399048,0.999536265328998,0,5.931789935837358,2446.091796875,1,tarmac,1.6,0,2639.50537109375,0,0.009122967720031738,0.9996370772139984,0,1.9243463012052544,2639.50537109375,1,tarmac,1.6,0,2638.667724609375,0,0.009124279022216797,0.9996370772139984,0,5.719875873337358,2638.667724609375,0,1000.0000000000006,0.25,0.0013760983489770578,0.00040351485564610513,0.02311969694453685,tarmac,1.6,4,0,10170.967529296875,100,1,11.66666666667366
2026-04-26T20:45:18.110Z,26,0.436,WebPort,true,false,webtest,webtest,car_1,car_1,0,0,0,-0.00001892484215204604,0.4799632132053375,0.004039742052555084,-0.000005411574780457177,-0.00000289250523444159,0.9999999999811742,-0.9999999999849722,8.777420637926642e-7,-0.000005411572241604216,8.777264107751055e-7,0.9999999999954317,0.0000028925099843649412,0.00020145918824709952,0.0003670926089398563,0.0006876142579130828,0.0007552283350378275,-1.1469489941129396e-10,-0.0008036420913413167,0,0,0,0,1.2533888086068138e-10,16,0.016,0.0008050814590790241,0.0007165187870632144,-0.000005411574780506229,-0.00031006039544244173,0.0000028925052344456236,0.00016572834215323293,8.777420637964487e-7,0.00005029091575663916,-1.1469489941129396e-10,4.388671186440502e-7,0.9999999999951974,0.000001446253804708579,0.0000027057867555283448,0.008753017902723589,1.5992702312743403,-3.259020396890405,-0.0025950328020708253,-0.24212773504657212,0.9702409111792665,1.7453292519943295,0,web_chase,1,tarmac,1.6,0,2457.6416015625,0,0.005145549774169922,0.9997195115273279,0.0439453125,1.6958306762052544,2457.6416015625,1,tarmac,1.6,0,2458.520263671875,0,0.005145937204360962,0.9997195115273279,0.0439453125,5.932522357712358,2458.520263671875,1,tarmac,1.6,0,2679.710693359375,0,0.009926170110702515,0.9997804872822565,0.0439453125,1.9250787230802544,2679.710693359375,1,tarmac,1.6,0,2680.598876953125,0,0.009926527738571167,0.9997804872822565,0.0439453125,5.720608295212358,2680.598876953125,0,1000.0000000000006,0.25,0.001915268904639212,0.0008138319411004967,0.04662912516349454,tarmac,1.6,4,0,10276.471435546875,100,1,11.000000000006994
2026-04-26T20:45:18.127Z,27,0.453,WebPort,true,false,webtest,webtest,car_1,car_1,0,0,0,-0.00002057400888588745,0.480445921421051,0.004087857902050018,-0.000005472442316764052,-0.00027438319511960754,0.9999999623419566,-0.9999999999849893,2.7303852676002907e-7,-0.000005472367605577201,2.7153699076944504e-7,0.9999999623568931,0.00027438319660967646,-0.0004068139533046633,-0.06948629766702652,-0.01416037604212761,-0.03776044771075249,0,0.0013272574869915843,0,0,0,0,1.2163455711121685e-10,16,0.016,0.07091563516402909,0.01416621852320036,-0.000005472442522790901,-0.00031354786018384344,0.0002743831985624828,0.015720999246930302,2.730385370380411e-7,0.000015643955816706164,0,1.3614388066409783e-7,0.9999999905854798,0.00013719159922391408,0.000002736202506345347,0.008236305606077955,1.5994145085435811,-3.2590365165769546,-0.002441553009027912,-0.24199422974631457,0.9702746165845997,1.7453292519943295,0,web_chase,1,tarmac,1.6,0,2446.70263671875,0,0.004959404468536377,0.999536238853342,0,1.6958306762052544,2446.70263671875,1,tarmac,1.6,0,2446.092041015625,0,0.004960685968399048,0.999536238853342,0,5.932522357712358,2446.092041015625,1,tarmac,1.6,0,2639.504150390625,0,0.009123057126998901,0.9996370564939199,0,1.9250787230802544,2639.504150390625,1,tarmac,1.6,0,2638.66796875,0,0.009124308824539185,0.9996370564939199,0,5.720608295212358,2638.66796875,0,1000.0000000000006,0.25,0.0013752242117427652,0.00040292517421135785,0.023085910692561797,tarmac,1.6,4,0,10170.966796875,100,1,10.333333333340327
2026-04-26T20:45:18.143Z,28,0.469,WebPort,true,false,webtest,webtest,car_1,car_1,0,0,0,-0.000019717193936230615,0.4799632430076599,0.00392971932888031,-0.000005322130998020164,-0.0000029018678117432175,0.999999999981627,-0.999999999985443,8.881838680197725e-7,-0.000005322128420648295,8.881684238903004e-7,0.9999999999953954,0.000002901872538731873,0.0002021489490289241,0.0003703036345541477,0.0006904789479449391,0.0007612475892528892,-5.734744970564698e-11,-0.0008060690597631037,0,0,0,0,1.1803971267373132e-10,17,0.017,0.0008091663345151357,0.0007194618649717638,-0.000005322130998067697,-0.00030493564420502753,0.00000290186781174729,0.00016626477831798342,8.881838680236287e-7,0.00005088918706935844,-5.734744970564698e-11,4.440880729796018e-7,0.9999999999953082,0.0000014509350876255803,0.0000026610648546796004,0.0077232020287149265,1.5980303427706706,-3.2594982481793386,-0.0022883555445361737,-0.24169115001431846,0.9703505301867248,1.7453292519943295,0,web_chase,1,tarmac,1.6,0,2457.642333984375,0,0.005145519971847534,0.99971978668149,0.0439453125,1.6965630980802544,2457.642333984375,1,tarmac,1.6,0,2458.520263671875,0,0.005145937204360962,0.99971978668149,0.0439453125,5.933254779587358,2458.520263671875,1,tarmac,1.6,0,2679.711181640625,0,0.009926170110702515,0.9997807026202965,0.0439453125,1.9258111449552544,2679.711181640625,1,tarmac,1.6,0,2680.598388671875,0,0.009926557540893555,0.9997807026202965,0.0439453125,5.721340717087358,2680.598388671875,0,1000.0000000000006,0.25,0.0019154273204774995,0.0008137449432906949,0.04662414055946708,tarmac,1.6,4,0,10276.47216796875,100,1,10.666666666673663
2026-04-26T20:45:18.160Z,29,0.487,WebPort,true,false,webtest,webtest,car_1,car_1,0,0,0,-0.000021372259652707726,0.4804460406303406,0.00397791713476181,-0.00000538327023990913,-0.0002744191092608972,0.9999999623325857,-0.9999999999854737,2.7141851687984753e-7,-0.0000053831959601743636,2.69941254815846e-7,0.9999999623470387,0.00027441911071803015,-0.0004070122668053955,-0.06948092579841614,-0.014159326441586018,-0.03775784373283386,-2.867372485282349e-11,0.0013283572625368834,0,0,0,0,1.1455111194557179e-10,17,0.017,0.07091016312257177,0.014165175052385588,-0.0000053832704426310056,-0.00030843867634027916,0.00027441911270512456,0.015723056975728504,2.7141852709955213e-7,0.0000155511360844615,-2.867372485282349e-11,1.3533994419840106e-7,0.9999999905831373,0.0001372095562868154,0.0000026916165753674576,0.00723940037887776,1.598151439830716,-3.2595206730245607,-0.0021446982761560676,-0.24154945276021236,0.9703861407401417,1.7453292519943295,0,web_chase,1,tarmac,1.6,0,2446.703857421875,0,0.004959434270858765,0.9995362453868022,0,1.6965630980802544,2446.703857421875,1,tarmac,1.6,0,2446.092529296875,0,0.0049607157707214355,0.9995362453868022,0,5.933254779587358,2446.092529296875,1,tarmac,1.6,0,2639.4970703125,0,0.009123086929321289,0.9996370616070626,0,1.9258111449552544,2639.4970703125,1,tarmac,1.6,0,2638.658447265625,0,0.009124338626861572,0.9996370616070626,0,5.721340717087358,2638.658447265625,0,1000.0000000000006,0.25,0.001380953594993735,0.00040430458989179933,0.023164945376370108,tarmac,1.6,4,0,10170.951904296875,100,1,11.000000000006997
2026-04-26T20:45:18.177Z,30,0.503,WebPort,true,false,webtest,webtest,car_1,car_1,0,0,0,-0.000020518398741842248,0.4799633026123047,0.003819793462753296,-0.000005232732677899946,-0.000002902504031164422,0.9999999999820971,-0.9999999999859109,8.92703019146388e-7,-0.000005232730086845791,8.926878311102354e-7,0.9999999999953892,0.0000029025087023997896,0.00020070599566679448,0.0003696884086821228,0.0006888378411531448,0.0007601291290484369,-5.734744970564698e-11,-0.0008033508784137666,0,0,0,0,1.111656149505953e-10,16,0.016,0.0008071245180361235,0.0007174820332949979,-0.000005232732677945867,-0.0002998134977664872,0.0000029025040311684974,0.00016630123100566286,8.927030191502669e-7,0.0000511481153558966,-5.734744970564698e-11,4.463477125661981e-7,0.9999999999954248,0.000001451253183397693,0.000002616365691198406,0.006814282936106843,1.5968183665966513,-3.259966529955401,-0.002017712328181086,-0.24126439166939623,0.9704573262897018,1.7453292519943295,0,web_chase,1,tarmac,1.6,0,2457.63916015625,0,0.005145609378814697,0.9997187063234979,0.0439453125,1.6972955199552544,2457.63916015625,1,tarmac,1.6,0,2458.5185546875,0,0.005145996809005737,0.9997187063234979,0.0439453125,5.933987201462358,2458.5185546875,1,tarmac,1.6,0,2679.70361328125,0,0.009926319122314453,0.9997798571227374,0.0439453125,1.9265435668302544,2679.70361328125,1,tarmac,1.6,0,2680.591796875,0,0.00992673635482788,0.9997798571227374,0.0439453125,5.722073138962358,2680.591796875,0,1000.0000000000006,0.25,0.0019133261468311097,0.0008141392616371013,0.04664673332153299,tarmac,1.6,4,0,10276.453125,100,1,10.333333333340331
2026-04-26T20:45:18.194Z,31,0.52,WebPort,true,false,webtest,webtest,car_1,car_1,0,0,0,-0.000022165142581798136,0.4804460406303406,0.003867924213409424,-0.000005294511357943815,-0.000274445768326277,0.9999999623257435,-0.999999999985942,2.917634006537975e-7,-0.000005294431484102493,2.90310355345323e-7,0.9999999623397169,0.0002744457698671635,-0.00040672579780220985,-0.06948225200176239,-0.014159583486616611,-0.03775827959179878,-1.4336862426411745e-11,0.0013268591137602925,0,0,0,0,1.0788017451297848e-10,17,0.017,0.07091151227851143,0.01416542376313055,-0.00000529451155736113,-0.00030335316682002944,0.0002744457717715083,0.01572458442771805,2.9176341164168193e-7,0.000016716812103406485,-1.4336862426411745e-11,1.4551844037035645e-7,0.9999999905814253,0.00013722288584080413,0.000002647235735444765,0.006387075363066234,1.5969546196738658,-3.2599840822599844,-0.0018909251195280098,-0.24112805319444472,0.97049146640496,1.7453292519943295,0,web_chase,1,tarmac,1.6,0,2446.701904296875,0,0.00495949387550354,0.9995363797084043,0,1.6972955199552544,2446.701904296875,1,tarmac,1.6,0,2446.092529296875,0,0.004960775375366211,0.9995363797084043,0,5.933987201462358,2446.092529296875,1,tarmac,1.6,0,2639.49609375,0,0.009123146533966064,0.9996371667283164,0,1.9265435668302544,2639.49609375,1,tarmac,1.6,0,2638.65966796875,0,0.009124428033828735,0.9996371667283164,0,5.722073138962358,2638.65966796875,0,1000.0000000000006,0.25,0.001377671435755788,0.000401418540289009,0.02299958694150218,tarmac,1.6,4,0,10170.9501953125,100,1,10.666666666673667
2026-04-26T20:45:18.210Z,32,0.536,WebPort,true,false,webtest,webtest,car_1,car_1,0,0,0,-0.00002130988650606014,0.4799633026123047,0.0037097707390785217,-0.000005144286616595117,-0.0000029286579321457713,0.9999999999824797,-0.9999999999863618,9.016014542224792e-7,-0.000005144283976132837,9.015863883586118e-7,0.9999999999953052,0.0000029286625702021266,0.0002002936671487987,0.0003696751082316041,0.0006883404566906393,0.0007596502546221018,-5.734744970564698e-11,-0.0008023810223676264,0,0,0,0,1.0469183351455358e-10,16,0.016,0.0008065914846209572,0.000716889208606875,-0.000005144286616639867,-0.0002947459117390981,0.0000029286579321499577,0.0001677997391497036,9.016014542264678e-7,0.00005165795813003408,-5.734744970564698e-11,4.507969606472931e-7,0.9999999999955185,0.0000014643301255935372,0.0000025721426481935174,0.006012083464246446,1.5956362041930714,-3.2604250222285485,-0.0017788706100943968,-0.240848158558016,0.9705611779473593,1.7453292519943295,0,web_chase,1,tarmac,1.6,0,2457.64111328125,0,0.005145549774169922,0.9997199349384934,0.0439453125,1.6980279418302544,2457.64111328125,1,tarmac,1.6,0,2458.5185546875,0,0.005145996809005737,0.9997199349384934,0.0439453125,5.934719623337358,2458.5185546875,1,tarmac,1.6,0,2679.705078125,0,0.009926319122314453,0.9997808186475167,0.0439453125,1.9272759887052544,2679.705078125,1,tarmac,1.6,0,2680.591552734375,0,0.009926766157150269,0.9997808186475167,0.0439453125,5.722805560837358,2680.591552734375,0,1000.0000000000006,0.25,0.0019138358794296255,0.0008135609847259526,0.0466136005170799,tarmac,1.6,4,0,10276.456298828125,100,1,10.000000000007
2026-04-26T20:45:18.227Z,33,0.553,WebPort,true,false,webtest,webtest,car_1,car_1,0,0,0,-0.000022974547391640954,0.4804460406303406,0.003757879137992859,-0.00000520617334784568,-0.0002744496683242297,0.999999962325137,-0.9999999999864134,2.641020256385685e-7,-0.00000520610106120075,2.6267320297905196e-7,0.9999999623386543,0.0002744496696954619,-0.0004068843845743686,-0.06948252767324448,-0.014159636572003365,-0.03775855153799057,-1.4336862426411745e-11,0.0013276690151542425,0,0,0,0,1.0159772223320253e-10,18,0.018,0.07091179390353068,0.014165481380935336,-0.000005206173543940518,-0.0002982917714804583,0.00027444967176960784,0.015724807881149265,2.641020355850004e-7,0.000015131931999834404,-1.4336862426411745e-11,1.3169380839479282e-7,0.9999999905812756,0.00013722483579740584,0.0000026030686267791945,0.005613386319126286,1.5957541057744562,-3.2604476120083605,-0.0016606001897651152,-0.24070536255418648,0.9705968116806625,1.7453292519943295,0,web_chase,1,tarmac,1.6,0,2446.701416015625,0,0.00495949387550354,0.9995364875251992,0,1.6980279418302544,2446.701416015625,1,tarmac,1.6,0,2446.09375,0,0.0049607157707214355,0.9995364875251992,0,5.934719623337358,2446.09375,1,tarmac,1.6,0,2639.495361328125,0,0.009123176336288452,0.9996372511066777,0,1.9272759887052544,2639.495361328125,1,tarmac,1.6,0,2638.659423828125,0,0.00912448763847351,0.9996372511066777,0,5.722805560837358,2638.659423828125,0,1000.0000000000006,0.25,0.00137667668731722,0.0004005937497304667,0.022952329931114675,tarmac,1.6,4,0,10170.949951171875,100,1,11.333333333340333
2026-04-26T20:45:18.243Z,34,0.57,WebPort,true,false,webtest,webtest,car_1,car_1,0,0,0,-0.00002210670027125161,0.4799633324146271,0.0035997480154037476,-0.000005055780519549183,-0.0000029408972522640624,0.9999999999828951,-0.9999999999868069,9.084671310637137e-7,-0.00000505577784786047,9.084522625249936e-7,0.9999999999952629,0.000002940901845235687,0.00020002856035716832,0.00036986713530495763,0.0006882438319735229,0.0007603050908073783,0,-0.0008020380628295243,0,0,0,0,9.859505575991335e-11,16,0.016,0.00080653127340907,0.0007167223989859394,-0.000005055780519592585,-0.00028967488591711356,0.0000029408972522683018,0.00016850100053659425,9.084671310677672e-7,0.000052051332436541254,0,4.5422984839916607e-7,0.9999999999956206,0.0000014704497743813769,0.000002527889591863484,0.00528395937929253,1.5944517211661222,-3.260883244295607,-0.001562107211474488,-0.2404311066703899,0.9706649487677566,1.7453292519943295,0,web_chase,1,tarmac,1.6,0,2457.640869140625,0,0.005145549774169922,0.9997202927854089,0.0439453125,1.6987603637052544,2457.640869140625,1,tarmac,1.6,0,2458.519287109375,0,0.00514596700668335,0.9997202927854089,0.0439453125,5.935452045212358,2458.519287109375,1,tarmac,1.6,0,2679.7041015625,0,0.009926378726959229,0.9997810987016243,0.0439453125,1.9280084105802544,2679.7041015625,1,tarmac,1.6,0,2680.592041015625,0,0.009926766157150269,0.9997810987016243,0.0439453125,5.723537982712358,2680.592041015625,0,1000.0000000000006,0.25,0.0019139414271122125,0.0008138795011830383,0.04663185015369254,tarmac,1.6,4,0,10276.456298828125,100,1,10.666666666673667
2026-04-26T20:45:18.260Z,35,0.587,WebPort,true,false,webtest,webtest,car_1,car_1,0,0,0,-0.000023773673092364334,0.48044607043266296,0.0036478564143180847,-0.0000051178389226924154,-0.0002744704193613306,0.9999999623198977,-0.999999999986869,2.6586335797505385e-7,-0.000005117766143835808,2.644586725376034e-7,0.9999999623329584,0.0002744704207183724,-0.00040688511217013,-0.06948217749595642,-0.014159565791487694,-0.03775835782289505,0,0.0013276690151542425,0,0,0,0,9.568113149217403e-11,17,0.017,0.0709114366550105,0.01416541065052384,-0.000005117839115488434,-0.00029323058154445355,0.0002744704228074903,0.015725996828040448,2.658633679893341e-7,0.000015232848912922357,0,1.325805088770773e-7,0.9999999905799656,0.00013723521131268616,0.000002558901290736994,0.004951889463036476,1.594621441331391,-3.2608902681293466,-0.0014637019083677547,-0.2403065573223475,0.9706959441991116,1.7453292519943295,0,web_chase,1,tarmac,1.6,0,2446.701416015625,0,0.00495949387550354,0.9995363823530656,0,1.6987603637052544,2446.701416015625,1,tarmac,1.6,0,2446.093017578125,0,0.004960775375366211,0.9995363823530656,0,5.935452045212358,2446.093017578125,1,tarmac,1.6,0,2639.493408203125,0,0.009123235940933228,0.9996371687980514,0,1.9280084105802544,2639.493408203125,1,tarmac,1.6,0,2638.658447265625,0,0.009124517440795898,0.9996371687980514,0,5.723537982712358,2638.658447265625,0,1000.0000000000006,0.25,0.0013764834658400195,0.00040006340790062726,0.022921943587435437,tarmac,1.6,4,0,10170.9462890625,100,1,11.000000000007
