timestamp_utc,sample_index,race_time_seconds,game_state,is_racing,is_paused,level_id,level_name,car_id,car_name,player_steer,player_throttle,player_brake,position_x,position_y,position_z,forward_x,forward_y,forward_z,right_x,right_y,right_z,up_x,up_y,up_z,velocity_x,velocity_y,velocity_z,angular_velocity_x,angular_velocity_y,angular_velocity_z,vehicle_applied_throttle,vehicle_applied_brake,vehicle_applied_handbrake,vehicle_control_candidate_1dfc,vehicle_applied_steer,vehicle_frame_delta_ms,vehicle_frame_delta_seconds,speed_magnitude,planar_speed_magnitude,yaw_radians,yaw_degrees,pitch_radians,pitch_degrees,roll_radians,roll_degrees,yaw_rate,quat_x,quat_y,quat_z,quat_w,camera_position_x,camera_position_y,camera_position_z,camera_forward_x,camera_forward_y,camera_forward_z,camera_fov,camera_mode_index,camera_family,wheel_0_contact_flag,wheel_0_contact_ptr,wheel_0_contact_surface_44_candidate,wheel_0_contact_surface_48_candidate,wheel_0_contact_surface_4c_candidate,wheel_0_contact_surface_50_candidate,wheel_0_suspension_length_candidate,wheel_0_tire_force_multiplier_candidate,wheel_0_load_or_spin_candidate,wheel_0_rotation_or_phase_candidate,wheel_0_vertical_load_candidate,wheel_1_contact_flag,wheel_1_contact_ptr,wheel_1_contact_surface_44_candidate,wheel_1_contact_surface_48_candidate,wheel_1_contact_surface_4c_candidate,wheel_1_contact_surface_50_candidate,wheel_1_suspension_length_candidate,wheel_1_tire_force_multiplier_candidate,wheel_1_load_or_spin_candidate,wheel_1_rotation_or_phase_candidate,wheel_1_vertical_load_candidate,wheel_2_contact_flag,wheel_2_contact_ptr,wheel_2_contact_surface_44_candidate,wheel_2_contact_surface_48_candidate,wheel_2_contact_surface_4c_candidate,wheel_2_contact_surface_50_candidate,wheel_2_suspension_length_candidate,wheel_2_tire_force_multiplier_candidate,wheel_2_load_or_spin_candidate,wheel_2_rotation_or_phase_candidate,wheel_2_vertical_load_candidate,wheel_3_contact_flag,wheel_3_contact_ptr,wheel_3_contact_surface_44_candidate,wheel_3_contact_surface_48_candidate,wheel_3_contact_surface_4c_candidate,wheel_3_contact_surface_50_candidate,wheel_3_suspension_length_candidate,wheel_3_tire_force_multiplier_candidate,wheel_3_load_or_spin_candidate,wheel_3_rotation_or_phase_candidate,wheel_3_vertical_load_candidate,web_gear,web_engine_rpm,web_clutch,web_slip_long_avg,web_slip_lat_avg,web_slip_angle_deg,web_surface_type,web_surface_grip,web_wheel_contacts,web_forward_impulse,web_suspension_force,web_sim_steps,web_sim_backlog_ms
2026-04-26T20:18:41.322Z,0,0.012,WebPort,true,false,webtest,webtest,car_1,car_1,0,0,0,0.0008025317220017314,0.4799598455429077,0.7367366552352905,-0.0005037170671398374,-0.000015564516113441937,0.999999873013423,-0.9999998730369298,0.000013980687203947298,-0.0005037168495490194,0.00001397284531956627,0.9999999997811432,0.00001557155644807816,0.0002077863464364782,0.0008320404449477792,0.000639776757452637,0.0006323829293251038,0,-0.001469641225412488,0,0,0,0,1.064271680747071e-33,17,0.017,0.0010699442822740485,0.0006726733718098483,-0.0005037170885022831,-0.028860863239798584,0.000015564516114070368,0.0008917810834995927,0.00001398068720609618,0.0008010343716018576,0,0.000006988383352906764,0.9999999682289366,0.000007784018387686568,0.00025185848717402626,0.002453758942401463,1.5739848918272044,-2.5336404791006246,-0.00047053474509577674,-0.23322682541051856,0.9724222470233728,100,0,web_chase,1,tarmac,1.6,0,2457.357177734375,0,0.005138665437698364,0.9987408801801574,0.03662109375,4.471935175553213,2457.357177734375,1,tarmac,1.6,0,2459.234130859375,0,0.0051430463790893555,0.9987408801801574,0.03662109375,5.548714747685317,2459.234130859375,1,tarmac,1.6,0,2680.712890625,0,0.009900033473968506,0.9990146018801231,0.03662109375,4.720470331803213,2680.712890625,1,tarmac,1.6,0,2682.601806640625,0,0.009904474020004272,0.9990146018801231,0.03662109375,5.321297755497817,2682.601806640625,-1,1000.0000000000009,1,0.0024872175022088334,0.0032741516700919527,0.18759440184224122,tarmac,1.6,4,0,10279.906005859375,1,2.333333333339967
2026-04-26T20:18:41.338Z,1,0.029,WebPort,true,false,webtest,webtest,car_1,car_1,0,0,0,0.0007955892360769212,0.48045408725738525,0.736784040927887,-0.0005040433552905275,-0.00027857111729810127,0.9999998341692006,-0.9999998729696129,0.0000011671780651498962,-0.0005040430497054692,0.000001026766036073029,0.9999999611983844,0.0002785716702194524,-0.0007303600432351232,-0.0692327544093132,-0.013429456390440464,-0.03771841526031494,-2.867372485282349e-11,0.002129209227859974,0,0,0,0,1.0328176990631589e-33,16,0.016,0.07052700197680158,0.013449302016666017,-0.0005040433961907373,-0.02887955929316968,0.0002785711209010412,0.015960949521858257,0.0000011671781104377625,0.00006687437966813808,-2.867372485282349e-11,5.48486048044784e-7,0.9999999585421487,0.00013928570265387433,0.0002520216116972735,0.002430095660374624,1.5747374077936134,-2.5334837699993047,-0.0004678499241009755,-0.2333038429712017,0.9724037731165576,100,0,web_chase,1,tarmac,1.6,0,2447.095947265625,0,0.004932910203933716,0.9982676351258892,0.00732421875,4.472057245865713,2447.095947265625,1,tarmac,1.6,0,2445.42919921875,0,0.004952788352966309,0.9982676351258892,0.00732421875,5.548836817997817,2445.42919921875,1,tarmac,1.6,0,2639.58544921875,0,0.009125202894210815,0.9986442361854786,0.00732421875,4.720592402115713,2639.58544921875,1,tarmac,1.6,0,2637.722412109375,0,0.009145289659500122,0.9986442361854786,0.00732421875,5.321419825810317,2637.722412109375,-1,1000.0000000000009,1,0.003115213129252709,0.0004161939077815252,0.02384615299808249,tarmac,1.6,4,0,10169.8330078125,1,1.6666666666733005
2026-04-26T20:18:41.355Z,2,0.046,WebPort,true,false,webtest,webtest,car_1,car_1,0,0,0,0.0008012179168872535,0.4799594283103943,0.736635148525238,-0.0005039308246907109,-0.000016431085975618937,0.9999998728918635,-0.9999998729058593,0.000015564281099558874,-0.0005039305689596903,0.000015555998994707788,0.9999999997438863,0.000016438927208334404,0.0008068266324698925,-0.00027891417266801,0.000356371485395357,-0.0003450304502621293,0,-0.0033328451681882143,0,0,0,0,1.0022933230256898e-33,16,0.016,0.0009250745733078391,0.0008820259919444552,-0.0005039308460872985,-0.02887311064725888,0.00001643108597635828,0.0009414318792619231,0.0000155642811022883,0.0008917676183163443,0,0.000007780070271029689,0.9999999681927007,0.00000821750355736493,0.0002519653564269378,0.0024562473506935124,1.5739851856446476,-2.533741663327478,-0.0004713847643538696,-0.23322702995700387,0.972422197553017,100,0,web_chase,1,tarmac,1.6,0,2457.220458984375,0,0.005148470401763916,0.9993190262365484,0.0439453125,4.472789667740713,2457.220458984375,1,tarmac,1.6,0,2458.62451171875,0,0.005150139331817627,0.9993190262365484,0.0439453125,5.549569239872817,2458.62451171875,1,tarmac,1.6,0,2679.05615234375,0,0.009938627481460571,0.9994670640112118,0.0439453125,4.721324823990713,2679.05615234375,1,tarmac,1.6,0,2680.4736328125,0,0.009940266609191895,0.9994670640112118,0.0439453125,5.322152247685317,2680.4736328125,-1,1000.0000000000009,1,0.0004524120690935704,0.0014740963353195838,0.0844594374338891,tarmac,1.6,4,0,10275.374755859375,1,1.0000000000066345
2026-04-26T20:18:41.372Z,3,0.062,WebPort,true,false,webtest,webtest,car_1,car_1,0,0,0,0.0007958387723192573,0.48043185472488403,0.7366822957992554,-0.0005043476217010211,-0.0002659501684616707,0.999999837451979,-0.9999998728124102,0.000003073548323570535,-0.0005043468221241462,0.0000029394167016643107,0.99999996463053,0.0002659516847728968,-0.0016287809703499079,-0.07062328606843948,-0.012252160347998142,-0.0386231355369091,0,0.0029049713630229235,0,0,0,0,9.726710786357727e-34,17,0.017,0.07169670073125452,0.012359949864074366,-0.0005043476609186776,-0.028896992377935356,0.00026595017159675757,0.01523782239327423,0.000003073548432270636,0.0001761013532981582,0,0.0000015032413173976361,0.9999999593618639,0.00013297546871251703,0.0002521736212041576,0.002434685076952911,1.574702936292243,-2.533590716115861,-0.0004688020932345048,-0.2333002016187092,0.9724046463017684,100,0,web_chase,1,tarmac,1.6,0,2447.823974609375,0,0.004930406808853149,0.9993299124313353,0.00732421875,4.472911738053213,2447.823974609375,1,tarmac,1.6,0,2444.543212890625,0,0.004952549934387207,0.9993299124313353,0.00732421875,5.549691310185317,2444.543212890625,1,tarmac,1.6,0,2641.466552734375,0,0.009124666452407837,0.9994755836419146,0.00732421875,4.721446894303213,2641.466552734375,1,tarmac,1.6,0,2638.408203125,0,0.009147047996520996,0.9994755836419146,0.00732421875,5.322274317997817,2638.408203125,-1,1000.0000000000009,1,0.003682592373699781,0.0016140209150218748,0.09247650617426179,tarmac,1.6,4,0,10172.241943359375,1,1.3333333333399693
2026-04-26T20:18:41.388Z,4,0.079,WebPort,true,false,webtest,webtest,car_1,car_1,0,0,0,0.0008014647755771875,0.4799599051475525,0.7365610599517822,-0.0005050013025725862,-0.000015566557628517326,0.9999998723656752,-0.9999998723891407,0.000013985945498112049,-0.0005050010848713819,0.000013978082584535224,0.9999999997810378,0.000015573618562749786,0.0002079376281471923,0.0008327644318342209,0.0006404205341823399,0.0006331972545012832,0,-0.0014709547394886613,0,0,0,0,9.439243038738953e-34,17,0.017,0.001070921620255211,0.0006733323977070119,-0.0005050013240985443,-0.02893444451936482,0.000015566557629146004,0.000891898053697239,0.000013985945500262528,0.0008013356496650276,0,0.000006991007243905784,0.9999999680669812,0.000007785044296416743,0.00025250060492409856,0.0024568695780879035,1.573984876928001,-2.5338160930895643,-0.0004717788330539387,-0.23322679907986796,0.9724222527357607,100,0,web_chase,1,tarmac,1.6,0,2457.35595703125,0,0.00513872504234314,0.9987416410399382,0.03662109375,4.473522089615713,2457.35595703125,1,tarmac,1.6,0,2459.232666015625,0,0.005143076181411743,0.9987416410399382,0.03662109375,5.550301661747817,2459.232666015625,1,tarmac,1.6,0,2680.70849609375,0,0.009900152683258057,0.9990151973356038,0.03662109375,4.722057245865713,2680.70849609375,1,tarmac,1.6,0,2682.597412109375,0,0.009904563426971436,0.9990151973356038,0.03662109375,5.322884669560317,2682.597412109375,-1,1000.0000000000009,1,0.0024924529695956738,0.0032694860744846995,0.1873270857665961,tarmac,1.6,4,0,10279.89453125,1,1.666666666673304
2026-04-26T20:18:41.405Z,5,0.096,WebPort,true,false,webtest,webtest,car_1,car_1,0,0,0,0.0007945020915940404,0.48045414686203003,0.7366084456443787,-0.0005053280513151819,-0.00027859635859224416,0.999999833513801,-0.9999998723212815,0.0000011314613077656037,-0.0005053277557046409,9.906786467580068e-7,0.9999999611913937,0.00027859689478055584,-0.0007326093618758023,-0.06923245638608932,-0.013424467295408249,-0.03771861270070076,-2.867372485282349e-11,0.0021318509243428707,0,0,0,0,9.160271247023064e-34,17,0.017,0.07052578291585535,0.013444442667607822,-0.0005053280924324035,-0.028953166965773474,0.00027859636219616356,0.01596239574153821,0.000001131461351675559,0.00006482796013317692,-2.867372485282349e-11,5.30535010712667e-7,0.9999999583783086,0.00013929831914103163,0.0002526639622712571,0.002433175276128328,1.574737593603424,-2.5336593239624507,-0.00046909813208104444,-0.233303886058182,0.9724037621775707,100,0,web_chase,1,tarmac,1.6,0,2447.095947265625,0,0.0049329400062561035,0.9982686584432394,0.00732421875,4.473644159928213,2447.095947265625,1,tarmac,1.6,0,2445.427490234375,0,0.004952847957611084,0.9982686584432394,0.00732421875,5.550423732060317,2445.427490234375,1,tarmac,1.6,0,2639.583740234375,0,0.00912526249885559,0.9986450370425352,0.00732421875,4.722179316178213,2639.583740234375,1,tarmac,1.6,0,2637.71875,0,0.009145379066467285,0.9986450370425352,0.00732421875,5.323006739872817,2637.71875,-1,1000.0000000000009,1,0.00311392628921178,0.00041649873535734496,0.023863618328628648,tarmac,1.6,4,0,10169.825927734375,1,2.0000000000066387
2026-04-26T20:18:41.421Z,6,0.113,WebPort,true,false,webtest,webtest,car_1,car_1,0,0,0,0.0008001456735655665,0.4799594283103943,0.7364595532417297,-0.0005052169227204468,-0.00001643038434958472,0.9999998722429437,-0.9999998722569036,0.000015565870371119816,-0.0005052166669742339,0.00001555756747845183,0.9999999997438732,0.000016438246391844906,0.0008110399357974529,-0.0002910153998527676,0.0003507579385768622,-0.00035808869870379567,0,-0.003345383098348975,0,0,0,0,8.889544317766355e-34,17,0.017,0.0009303262179926419,0.0008836384492160956,-0.0005052169442809191,-0.02894679864579274,0.000016430384350323968,0.0009413916790513604,0.000015565870373849468,0.0008918586768692994,0,0.00000778085971114338,0.9999999680304644,0.000008217157948056128,0.00025260840549944346,0.002459434349560189,1.5739852267131806,-2.533917244911751,-0.0004726538451099356,-0.23322704444889883,0.9724221934612425,100,0,web_chase,1,tarmac,1.6,0,2457.2177734375,0,0.005148559808731079,0.9993191149023194,0.0439453125,4.474376581803213,2457.2177734375,1,tarmac,1.6,0,2458.62451171875,0,0.005150169134140015,0.9993191149023194,0.0439453125,5.551156153935317,2458.62451171875,1,tarmac,1.6,0,2679.052978515625,0,0.009938746690750122,0.9994671334018151,0.0439453125,4.722911738053213,2679.052978515625,1,tarmac,1.6,0,2680.47216796875,0,0.009940385818481445,0.9994671334018151,0.0439453125,5.323739161747817,2680.47216796875,-1,1000.0000000000009,1,0.000442426384225883,0.0014786293808429088,0.08471916124460956,tarmac,1.6,4,0,10275.367431640625,1,2.3333333333399735
2026-04-26T20:18:41.438Z,7,0.129,WebPort,true,false,webtest,webtest,car_1,car_1,0,0,0,0.000794778810814023,0.48043155670166016,0.7365067005157471,-0.0005056341870537366,-0.0002657946319451162,0.9999998368436279,-0.9999998721626643,0.0000030880951183385633,-0.0005056333841130124,0.0000029536999752666847,0.999999964671838,0.0002657961594131032,-0.0016361796297132969,-0.07063919305801392,-0.012245472520589828,-0.038632944226264954,0,0.0029095797799527645,0,0,0,0,8.626818578457879e-34,16,0.016,0.07171139572564858,0.012354298079341025,-0.00050563422646003,-0.028970707153521815,0.00026579463507470574,0.015228910807000517,0.0000030880952274254755,0.00017693482326597184,0,0.000001510448835012874,0.9999999592097654,0.00013289770326048333,0.00025281690310414794,0.0024378574403611675,1.5747023486336218,-2.5337664127221626,-0.00047006084786717665,-0.2333001078881679,0.972404668182012,100,0,web_chase,1,tarmac,1.6,0,2447.827880859375,0,0.004930406808853149,0.9993297246257683,0.00732421875,4.474498652115713,2447.827880859375,1,tarmac,1.6,0,2444.535888671875,0,0.004952549934387207,0.9993297246257683,0.00732421875,5.551278224247817,2444.535888671875,1,tarmac,1.6,0,2641.484130859375,0,0.009124666452407837,0.9994754366636448,0.00732421875,4.723033808365713,2641.484130859375,1,tarmac,1.6,0,2638.421630859375,0,0.009147077798843384,0.9994754366636448,0.00732421875,5.323861232060317,2638.421630859375,-1,1000.0000000000009,1,0.0036938254016812702,0.0016224431417146657,0.09295906295419895,tarmac,1.6,4,0,10172.26953125,1,1.6666666666733074
2026-04-26T20:18:41.454Z,8,0.146,WebPort,true,false,webtest,webtest,car_1,car_1,0,0,0,0.0008003959082998335,0.4799599051475525,0.7363856434822083,-0.000506295258604804,-0.000015562801310934403,0.999999871711447,-0.999999871734846,0.000013986541242514906,-0.0005062950409468605,0.000013978660079074801,0.9999999997810881,0.00001556988063428466,0.00020703967311419547,0.0008293436258099973,0.0006377564277499914,0.0006305879214778543,0,-0.0014647339703515172,0,0,0,0,8.371857558197739e-34,17,0.017,0.0010664940398573898,0.0006705212057643389,-0.0005062952802963089,-0.029008582748371526,0.000015562801311562624,0.0008916828325532005,0.000013986541244664695,0.0008013697833049404,0,0.000006991300554794248,0.999999967903422,0.000007783170736117911,0.0002531475830130872,0.002460021251219487,1.5739846197889367,-2.533991580765328,-0.0004730365572374115,-0.2332267087734891,0.9724222737839265,100,0,web_chase,1,tarmac,1.6,0,2457.3603515625,0,0.0051385462284088135,0.9987363888897789,0.03662109375,4.475109003678213,2457.3603515625,1,tarmac,1.6,0,2459.239013671875,0,0.005142956972122192,0.9987363888897789,0.03662109375,5.551888575810317,2459.239013671875,1,tarmac,1.6,0,2680.7294921875,0,0.009899646043777466,0.9990110869572183,0.03662109375,4.723644159928213,2680.7294921875,1,tarmac,1.6,0,2682.62060546875,0,0.00990411639213562,0.9990110869572183,0.03662109375,5.324471583622817,2682.62060546875,-1,1000.0000000000009,1,0.002479079141972519,0.0032843059994237104,0.18817619580050257,tarmac,1.6,4,0,10279.949462890625,1,2.0000000000066422
2026-04-26T20:18:41.472Z,9,0.163,WebPort,true,false,webtest,webtest,car_1,car_1,0,0,0,0.0007934152381494641,0.4804540276527405,0.7364329695701599,-0.0005066201425332807,-0.0002785671705915558,0.9999998328681674,-0.999999871667532,0.0000011161814720806146,-0.0005066198512582571,9.750536270006321e-7,0.999999961199542,0.0002785677003223598,-0.0007314486429095268,-0.06923594325780869,-0.013427560217678547,-0.03772042691707611,0,0.0021301223896443844,0,0,0,0,8.124431774857315e-34,17,0.017,0.07052978256960035,0.013447467810580463,-0.0005066201838619204,-0.02902719835142982,0.0002785671741943426,0.01596072339222145,0.000001116181515388505,0.00006395249000227789,0,5.228087966148817e-7,0.9999999582169043,0.00013928372354818407,0.0002533100090319608,0.0024362849526922375,1.5747370826857123,-2.5338349129286337,-0.0004703515567567196,-0.23330374972960619,0.9724037942807084,100,0,web_chase,1,tarmac,1.6,0,2447.094482421875,0,0.0049329400062561035,0.9982648719237537,0.00732421875,4.475231073990713,2447.094482421875,1,tarmac,1.6,0,2445.431640625,0,0.004952847957611084,0.9982648719237537,0.00732421875,5.552010646122817,2445.431640625,1,tarmac,1.6,0,2639.585205078125,0,0.00912526249885559,0.9986420736794595,0.00732421875,4.723766230240713,2639.585205078125,1,tarmac,1.6,0,2637.726806640625,0,0.009145379066467285,0.9986420736794595,0.00732421875,5.324593653935317,2637.726806640625,-1,1000.0000000000009,1,0.0031192540183635313,0.0004147018796521902,0.023760666098111588,tarmac,1.6,4,0,10169.838134765625,1,2.333333333339977
2026-04-26T20:18:41.488Z,10,0.179,WebPort,true,false,webtest,webtest,car_1,car_1,0,0,0,0.0007990801823325455,0.4799594283103943,0.7362841367721558,-0.0005065085505223408,-0.00001643659323618721,0.9999998715894552,-0.999999871603506,0.000015566602874321628,-0.0005065082946675053,0.000015558275604595463,0.9999999997437596,0.000016444475743244692,0.0008057978702709079,-0.00027689686976373196,0.00035748217487707734,-0.0003418169217184186,-5.734744970564698e-11,-0.003329716855660081,0,0,0,0,7.884318528529861e-34,16,0.016,0.0009239997779074027,0.000881534862094504,-0.0005065085722483012,-0.029020803477024792,0.000016436593236927298,0.0009417474220492065,0.00001556660287705306,0.000891900646211345,-5.734744970564698e-11,0.000007781219869762514,0.9999999678670896,0.000008220267508999094,0.00025325421943525665,0.002462546388101064,1.5739849442084384,-2.53409273841896,-0.00047389872691837705,-0.2332269446884331,0.9724222167820393,100,0,web_chase,1,tarmac,1.6,0,2457.220458984375,0,0.005148470401763916,0.9993189639072215,0.0439453125,4.475963495865713,2457.220458984375,1,tarmac,1.6,0,2458.627197265625,0,0.005150049924850464,0.9993189639072215,0.0439453125,5.552743067997817,2458.627197265625,1,tarmac,1.6,0,2679.05859375,0,0.009938627481460571,0.9994670152317385,0.0439453125,4.724498652115713,2679.05859375,1,tarmac,1.6,0,2680.47705078125,0,0.009940236806869507,0.9994670152317385,0.0439453125,5.325326075810317,2680.47705078125,-1,1000.0000000000009,1,0.00044861359214701593,0.001476347875448185,0.08458844089991455,tarmac,1.6,4,0,10275.38330078125,1,1.666666666673311
2026-04-26T20:18:41.505Z,11,0.196,WebPort,true,false,webtest,webtest,car_1,car_1,0,0,0,0.000793685088865459,0.4804319143295288,0.7363312840461731,-0.0005069253426574595,-0.0002659692947662883,0.9999998361435022,-0.9999998715091265,0.000003037841301653625,-0.0005069245526125526,0.0000029030144381255113,0.9999999646255523,0.0002659708005504041,-0.0016271801432594657,-0.07062003761529922,-0.012253859080374241,-0.0386211983859539,-5.734744970564698e-11,0.002904113382101059,0,0,0,0,7.65130170108555e-34,17,0.017,0.07169375489097056,0.012361422959363867,-0.0005069253822983764,-0.02904468493375274,0.00026596929790205157,0.015238918249845256,0.000003037841409106242,0.00017405549157186256,-5.734744970564698e-11,0.0000014852139957869144,0.9999999590347718,0.00013298502927693517,0.0002534624842006515,0.002440913897150306,1.5747027828086604,-2.533941781394671,-0.0004713067170288156,-0.23330012560769156,0.9724046633276775,100,0,web_chase,1,tarmac,1.6,0,2447.823486328125,0,0.004930406808853149,0.9993296279725216,0.00732421875,4.476085566178213,2447.823486328125,1,tarmac,1.6,0,2444.5458984375,0,0.004952549934387207,0.9993296279725216,0.00732421875,5.552865138310317,2444.5458984375,1,tarmac,1.6,0,2641.46240234375,0,0.009124666452407837,0.9994753610219734,0.00732421875,4.724620722428213,2641.46240234375,1,tarmac,1.6,0,2638.405029296875,0,0.009147077798843384,0.9994753610219734,0.00732421875,5.325448146122817,2638.405029296875,-1,1000.0000000000009,1,0.0036803741765949432,0.0016119662896793324,0.09235878511993409,tarmac,1.6,4,0,10172.23681640625,1,2.000000000006646
2026-04-26T20:18:41.521Z,12,0.213,WebPort,true,false,webtest,webtest,car_1,car_1,0,0,0,0.0007992907776497304,0.4799598455429077,0.7362095713615417,-0.0005075776310226362,-0.000015587921197973373,0.9999998710609743,-0.9999998710856381,0.00001392394070510081,-0.0005075774139898365,0.000013916026833030313,0.9999999997815705,0.000015594986669304043,0.00020841849618591368,0.0008328933618031442,0.0006405937019735575,0.0006327323499135673,0,-0.0014723585918545723,0,0,0,0,7.425171561650574e-34,17,0.017,0.001071218891121851,0.000673645723329841,-0.00050757765287927,-0.02908205728513849,0.000015587921198604643,0.0008931220960625535,0.000013923940707242368,0.0007977830367153903,0,0.000006959992109055009,0.9999999677410222,0.000007795727218301542,0.0002537887694400843,0.002463039094651365,1.5739846209021886,-2.5341676301338554,-0.0004742765050120985,-0.2332267288164558,0.9724222683728363,100,0,web_chase,1,tarmac,1.6,0,2457.354736328125,0,0.005138784646987915,0.9987428363661037,0.03662109375,4.476695917740713,2457.354736328125,1,tarmac,1.6,0,2459.23193359375,0,0.005143076181411743,0.9987428363661037,0.03662109375,5.553475489872817,2459.23193359375,1,tarmac,1.6,0,2680.703857421875,0,0.009900271892547607,0.9990161328082551,0.03662109375,4.725231073990713,2680.703857421875,1,tarmac,1.6,0,2682.5927734375,0,0.009904652833938599,0.9990161328082551,0.03662109375,5.326058497685317,2682.5927734375,-1,1000.0000000000009,1,0.002495842654094419,0.003266354367493543,0.1871476540895365,tarmac,1.6,4,0,10279.88330078125,1,2.3333333333399806
2026-04-26T20:18:41.538Z,13,0.229,WebPort,true,false,webtest,webtest,car_1,car_1,0,0,0,0.0007923668599687517,0.48045411705970764,0.7362568974494934,-0.0005079043810910187,-0.00027858823516925416,0.9999998322108534,-0.9999998710160638,0.0000011393260014015553,-0.000507904083397485,9.978297080060541e-7,0.9999999611936479,0.0002785887779045144,-0.0007299338467419147,-0.06923182308673859,-0.013430141843855381,-0.03771783038973808,0,0.002128790831193328,0,0,0,0,7.205724577835201e-34,16,0.016,0.07052621385896286,0.013449963322131948,-0.0005079044226376943,-0.02910077981316871,0.0002785882387728583,0.01596193030366762,0.00000113932604561415,0.00006527857390302032,0,5.342889497639507e-7,0.9999999580525696,0.00013929425911147832,0.0002539521267747649,0.0024394342490739814,1.574737179862939,-2.534010977835032,-0.0004715984534472385,-0.2333037513527989,0.9724037932873413,100,0,web_chase,1,tarmac,1.6,0,2447.0966796875,0,0.004932910203933716,0.9982693658298305,0.00732421875,4.476817988053213,2447.0966796875,1,tarmac,1.6,0,2445.428955078125,0,0.0049526989459991455,0.9982693658298305,0.00732421875,5.553597560185317,2445.428955078125,1,tarmac,1.6,0,2639.584716796875,0,0.00912526249885559,0.9986455906494326,0.00732421875,4.725353144303213,2639.584716796875,1,tarmac,1.6,0,2637.720703125,0,0.009145259857177734,0.9986455906494326,0.00732421875,5.326180567997817,2637.720703125,-1,1000.0000000000009,1,0.0031135815545332316,0.0004174640461093175,0.02391892655101864,tarmac,1.6,4,0,10169.8310546875,1,1.6666666666733145
2026-04-26T20:18:41.555Z,14,0.246,WebPort,true,false,webtest,webtest,car_1,car_1,0,0,0,0.0007980184745974839,0.47995948791503906,0.7361080050468445,-0.0005077913890176426,-0.000016430799713962824,0.9999998709389587,-0.9999998709526321,0.00001558475272743778,-0.000507791132954602,0.00001557640730165126,0.9999999997435721,0.000016438711396846326,0.0008118759724311531,-0.0002932189963757992,0.00035086547723039985,-0.00035759940510615706,0,-0.0033468096517026424,0,0,0,0,6.99276323254088e-34,17,0.017,0.0009317867554106882,0.0008844485161518146,-0.0005077914109087019,-0.02909430471806197,0.00001643079971470213,0.0009414154776771893,0.00001558475273017238,0.0008929405561938645,0,0.000007790290258864397,0.9999999677043948,0.000008217378043087484,0.0002538956386927744,0.0024657162011767625,1.5739848111098702,-2.5342689233634306,-0.0004751565846824478,-0.2332268771693867,0.9724222323620721,100,0,web_chase,1,tarmac,1.6,0,2457.220458984375,0,0.005148470401763916,0.9993187816132961,0.0439453125,4.477550409928213,2457.220458984375,1,tarmac,1.6,0,2458.624267578125,0,0.005150139331817627,0.9993187816132961,0.0439453125,5.554329982060317,2458.624267578125,1,tarmac,1.6,0,2679.05419921875,0,0.009938687086105347,0.9994668725669275,0.0439453125,4.726085566178213,2679.05419921875,1,tarmac,1.6,0,2680.47119140625,0,0.009940356016159058,0.9994668725669275,0.0439453125,5.326912989872817,2680.47119140625,-1,1000.0000000000009,1,0.0004537758648267831,0.0014733521977182168,0.08441680158255303,tarmac,1.6,4,0,10275.3701171875,1,2.0000000000066493
2026-04-26T20:18:41.571Z,15,0.262,WebPort,true,false,webtest,webtest,car_1,car_1,0,0,0,0.0007926406688056886,0.48043158650398254,0.7361551523208618,-0.0005082081862849409,-0.0002657927384252637,0.9999998355393163,-0.9999998708578768,0.0000030794238500475215,-0.000508207385745493,0.0000029443455108581295,0.9999999646723681,0.0002657942690886346,-0.0016377302818000317,-0.07064071297645569,-0.012243790552020073,-0.03863402083516121,-5.734744970564698e-11,0.002910556271672249,0,0,0,0,6.786095846181525e-34,17,0.017,0.07171264112678918,0.012352836417505933,-0.0005082082261126209,-0.029118186470083414,0.0002657927415547863,0.015228802316300711,0.0000030794239588265436,0.00017643799617222874,-5.734744970564698e-11,0.0000015059424021452009,0.9999999588836942,0.00013289675734269826,0.00025410390345542217,0.002444132032824323,1.574701987763817,-2.5341180676235755,-0.00047256964626856795,-0.2332999704834151,0.9724046999322695,100,0,web_chase,1,tarmac,1.6,0,2447.828857421875,0,0.004930436611175537,0.9993299886023647,0.00732421875,4.477672480240713,2447.828857421875,1,tarmac,1.6,0,2444.535888671875,0,0.00495263934135437,0.9993299886023647,0.00732421875,5.554452052372817,2444.535888671875,1,tarmac,1.6,0,2641.484375,0,0.009124726057052612,0.9994756432540245,0.00732421875,4.726207636490713,2641.484375,1,tarmac,1.6,0,2638.421630859375,0,0.009147107601165771,0.9994756432540245,0.00732421875,5.327035060185317,2638.421630859375,-1,1000.0000000000009,1,0.0036936152777156265,0.0016241172075688935,0.09305497960952906,tarmac,1.6,4,0,10172.270751953125,1,2.333333333339984
2026-04-26T20:18:41.588Z,16,0.279,WebPort,true,false,webtest,webtest,car_1,car_1,0,0,0,0.0007982494425959885,0.4799599051475525,0.7360341548919678,-0.0005088707141198108,-0.000015575385814332487,0.9999998704039936,-0.9999998704280189,0.000013955760809063996,-0.0005088704967656495,0.000013947833146136459,0.999999999781322,0.000015582485474167866,0.00020734294957946986,0.0008288584649562836,0.0006378449033945799,0.0006306622526608407,0,-0.001465416164137423,0,0,0,0,6.585536404158945e-34,16,0.016,0.0010662286689338465,0.0006706990528745031,-0.0005088707361434987,-0.029156145498737795,0.000015575385814962232,0.0008924038714852661,0.00001395576081120979,0.000799606194376391,0,0.000006975898714982004,0.9999999675766661,0.000007789468074685609,0.0002544353109710059,0.0024662128296712963,1.5739844539590222,-2.534343110344011,-0.0004755270154660651,-0.23322664974147767,0.9724222867275429,100,0,web_chase,1,tarmac,1.6,0,2457.35986328125,0,0.005138576030731201,0.9987357470668012,0.03662109375,4.478282831803213,2457.35986328125,1,tarmac,1.6,0,2459.2392578125,0,0.00514298677444458,0.9987357470668012,0.03662109375,5.555062403935317,2459.2392578125,1,tarmac,1.6,0,2680.7294921875,0,0.009899705648422241,0.9990105846609749,0.03662109375,4.726817988053213,2680.7294921875,1,tarmac,1.6,0,2682.622314453125,0,0.00990411639213562,0.9990105846609749,0.03662109375,5.327645411747817,2682.622314453125,-1,1000.0000000000009,1,0.002475704633830886,0.003287469844783599,0.1883574688294404,tarmac,1.6,4,0,10279.950927734375,1,1.6666666666733179
2026-04-26T20:18:41.604Z,17,0.296,WebPort,true,false,webtest,webtest,car_1,car_1,0,0,0,0.000791281636338681,0.4804540276527405,0.7360814213752747,-0.0005091955971699779,-0.0002785738065318813,0.9999998315582248,-0.9999998703594455,0.0000011094857932103818,-0.0005091953078536593,9.676371311496584e-7,0.9999999611977011,0.00027857433536269965,-0.0007306551560759544,-0.06923604756593704,-0.013429241254925728,-0.03772035986185074,-2.867372485282349e-11,0.0021291603334248066,0,0,0,0,6.3909043894371514e-34,17,0.017,0.07053019679678199,0.01344910322810036,-0.0005091956389316826,-0.029174761057252762,0.0002785738101349257,0.015961103603609958,0.0000011094858362605276,0.00006356885584727095,-2.867372485282349e-11,5.192807529572234e-7,0.9999999578894205,0.00013928704133910327,0.00025459773697716757,0.002442523817172671,1.5747370561365734,-2.5341864635072517,-0.0004728480034670913,-0.23330374003463775,0.972403795396036,100,0,web_chase,1,tarmac,1.6,0,2447.0947265625,0,0.0049329400062561035,0.9982641490532898,0.00732421875,4.478404902115713,2447.0947265625,1,tarmac,1.6,0,2445.43212890625,0,0.004952818155288696,0.9982641490532898,0.00732421875,5.555184474247817,2445.43212890625,1,tarmac,1.6,0,2639.58544921875,0,0.009125292301177979,0.9986415079547485,0.00732421875,4.726940058365713,2639.58544921875,1,tarmac,1.6,0,2637.727294921875,0,0.009145349264144897,0.9986415079547485,0.00732421875,5.327767482060317,2637.727294921875,-1,1000.0000000000009,1,0.0031190784496255394,0.00041531187163200287,0.023795616058072226,tarmac,1.6,4,0,10169.839599609375,1,2.000000000006653
2026-04-26T20:18:41.622Z,18,0.312,WebPort,true,false,webtest,webtest,car_1,car_1,0,0,0,0.000796943437308073,0.47995948791503906,0.7359325885772705,-0.000509083540460218,-0.00001643366418995186,0.9999998702819334,-0.9999998702960209,0.00001556118633146743,-0.000509083284740046,0.00001555281820915428,0.9999999997438921,0.0000164415840022716,0.0008055935031734407,-0.0002787996199913323,0.00035546746221370995,-0.00034525900264270604,-5.734744970564698e-11,-0.003328807884827256,0,0,0,0,6.202024620064839e-34,17,0.017,0.0009236163906921655,0.0008805327983941948,-0.000509083562518492,-0.029168339551793977,0.000016433664190691555,0.0009415796000618998,0.000015561186334196725,0.0008915903011661253,-5.734744970564698e-11,0.00000777850138764379,0.9999999675402301,0.00000821881231483662,0.0002545417145624313,0.002468825604591029,1.573984926659465,-2.534444304568637,-0.0004764078708843922,-0.23322691768735945,0.9724222220319703,100,0,web_chase,1,tarmac,1.6,0,2457.220947265625,0,0.005148470401763916,0.9993187463388868,0.0439453125,4.479137323990713,2457.220947265625,1,tarmac,1.6,0,2458.626953125,0,0.005150049924850464,0.9993187463388868,0.0439453125,5.555916896122817,2458.626953125,1,tarmac,1.6,0,2679.058837890625,0,0.009938627481460571,0.9994668449608679,0.0439453125,4.727672480240713,2679.058837890625,1,tarmac,1.6,0,2680.476806640625,0,0.009940236806869507,0.9994668449608679,0.0439453125,5.328499903935317,2680.476806640625,-1,1000.0000000000009,1,0.00045197169434460505,0.0014748327031546106,0.08450162811128087,tarmac,1.6,4,0,10275.383544921875,1,2.3333333333399873
2026-04-26T20:18:41.639Z,19,0.329,WebPort,true,false,webtest,webtest,car_1,car_1,0,0,0,0.0007915567839518189,0.4804319143295288,0.7359797358512878,-0.0005095003371724915,-0.00026598281535714655,0.9999998348312605,-0.9999998702003825,0.0000030723000521459565,-0.0005094995380139215,0.000002936781423153921,0.999999964621851,0.00026598434617059125,-0.0016284063458442688,-0.07062353193759918,-0.012252324260771275,-0.038623180240392685,0,0.0029041427187621593,0,0,0,0,6.018727091499806e-34,17,0.017,0.07169696242072854,0.012360062986015493,-0.0005095003772388538,-0.029192221276109636,0.00026598281849338803,0.015239692922665356,0.000003072300160828583,0.00017602983261284184,0,0.0000015022704308586937,0.9999999587066858,0.0001329917958736064,0.00025474997931607406,0.002447255070816366,1.574702739439699,-2.5342933357319155,-0.00047382471510489996,-0.23330010962998643,0.972404665937374,100,0,web_chase,1,tarmac,1.6,0,2447.822021484375,0,0.004930436611175537,0.9993296873912709,0.00732421875,4.479259394303213,2447.822021484375,1,tarmac,1.6,0,2444.544677734375,0,0.004952579736709595,0.9993296873912709,0.00732421875,5.556038966435317,2444.544677734375,1,tarmac,1.6,0,2641.464111328125,0,0.009124726057052612,0.9994754075236033,0.00732421875,4.727794550553213,2641.464111328125,1,tarmac,1.6,0,2638.409423828125,0,0.009147107601165771,0.9994754075236033,0.00732421875,5.328621974247817,2638.409423828125,-1,1000.0000000000009,1,0.003684407483180556,0.0016115573993617511,0.09233535749131265,tarmac,1.6,4,0,10172.240234375,1,2.666666666673322
2026-04-26T20:18:41.655Z,20,0.345,WebPort,true,false,webtest,webtest,car_1,car_1,0,0,0,0.0007971865125000477,0.4799599051475525,0.7358585000038147,-0.0005101540183988095,-0.000015571197462473138,0.9999998697501992,-0.9999998697736968,0.000013988905355154968,-0.000510153800586761,0.000013980959827537664,0.9999999997809244,0.00001557833193097359,0.00020803515508305281,0.0008333666482940316,0.0006407496402971447,0.0006334030767902732,0,-0.00147175882011652,0,0,0,0,5.8408468235933905e-34,16,0.016,0.0010716056633763085,0.0006736755356188542,-0.0005101540405891947,-0.029229673427306552,0.000015571197463102378,0.0008921638966005806,0.000013988905357307103,0.0008015052369816438,0,0.00000699246652353595,0.9999999674131019,0.000007787382602128324,0.00025507696305855957,0.0024694027604724787,1.5739847992627198,-2.534518665825419,-0.00047678855191702653,-0.23322677149924614,0.9724222569073147,100,0,web_chase,1,tarmac,1.6,0,2457.3564453125,0,0.00513872504234314,0.9987423376391837,0.03662109375,4.479869745865713,2457.3564453125,1,tarmac,1.6,0,2459.23193359375,0,0.005143105983734131,0.9987423376391837,0.03662109375,5.556649317997817,2459.23193359375,1,tarmac,1.6,0,2680.70703125,0,0.00990024209022522,0.9990157425002307,0.03662109375,4.728404902115713,2680.70703125,1,tarmac,1.6,0,2682.59521484375,0,0.009904682636260986,0.9990157425002307,0.03662109375,5.329232325810317,2682.59521484375,-1,1000.0000000000009,1,0.002492759585265663,0.003268863422694706,0.18729141082819922,tarmac,1.6,4,0,10279.890625,1,2.000000000006656
2026-04-26T20:18:41.672Z,21,0.362,WebPort,true,false,webtest,webtest,car_1,car_1,0,0,0,0.0007902285433374345,0.48045414686203003,0.7359058260917664,-0.0005104807686070916,-0.00027860421056229796,0.999999830894525,-0.9999998697041823,0.0000011437973694472504,-0.0005104804697518615,0.0000010015751677421646,0.9999999611891921,0.0002786047581478949,-0.0007325350889004767,-0.06923193484544754,-0.013424369506537914,-0.03771832585334778,-2.867372485282349e-11,0.0021316627971827984,0,0,0,0,5.6682237120971966e-34,17,0.017,0.07052525155395639,0.013444340976951434,-0.0005104808105900176,-0.02924839596922519,0.00027860421416652214,0.01596284562630062,0.0000011437974138384531,0.00006553476443092179,-2.867372485282349e-11,5.363431569720725e-7,0.9999999577234866,0.00013930224806676158,0.00025524032038040916,0.002445725887034781,1.5747376664299153,-2.534361913307297,-0.00047411003623663796,-0.2333039112765456,0.9724037536963437,100,0,web_chase,1,tarmac,1.6,0,2447.09619140625,0,0.0049329400062561035,0.998268859554598,0.00732421875,4.479991816178213,2447.09619140625,1,tarmac,1.6,0,2445.427001953125,0,0.004952847957611084,0.998268859554598,0.00732421875,5.556771388310317,2445.427001953125,1,tarmac,1.6,0,2639.58349609375,0,0.00912526249885559,0.9986451944340332,0.00732421875,4.728526972428213,2639.58349609375,1,tarmac,1.6,0,2637.7177734375,0,0.009145379066467285,0.9986451944340332,0.00732421875,5.329354396122817,2637.7177734375,-1,1000.0000000000009,1,0.003113270349294683,0.00041670070193691337,0.02387519015923226,tarmac,1.6,4,0,10169.824462890625,1,2.333333333339991
2026-04-26T20:18:41.689Z,22,0.379,WebPort,true,false,webtest,webtest,car_1,car_1,0,0,0,0.0007958754431456327,0.4799594581127167,0.7357569336891174,-0.0005103696386277979,-0.000016427321531241194,0.9999998696264791,-0.9999998696400842,0.000015585509711922976,-0.0005103693826065288,0.000015577123678037423,0.9999999997436175,0.000016435273760736442,0.0008142861188389361,-0.0002986136241815984,0.00034900670289061964,-0.0003626813122536987,0,-0.0033538751304149628,0,0,0,0,5.500702384558469e-34,16,0.016,0.00093489981203508,0.0008859275150915898,-0.0005103696608532702,-0.02924202755841557,0.00001642732153198003,0.0009412161924868376,0.000015585509714656876,0.0008929839282099829,0,0.000007790658601650426,0.9999999673762721,0.00000821564909101951,0.00025518476363366,0.002471958562323406,1.5739856242365677,-2.5346197521460128,-0.00047765551445609985,-0.23322717403713866,0.97242215993665,100,0,web_chase,1,tarmac,1.6,0,2457.21826171875,0,0.005148500204086304,0.9993191412741744,0.0439453125,4.480724238053213,2457.21826171875,1,tarmac,1.6,0,2458.62451171875,0,0.005150169134140015,0.9993191412741744,0.0439453125,5.557503810185317,2458.62451171875,1,tarmac,1.6,0,2679.052490234375,0,0.009938746690750122,0.9994671540406582,0.0439453125,4.729259394303213,2679.052490234375,1,tarmac,1.6,0,2680.471435546875,0,0.009940415620803833,0.9994671540406582,0.0439453125,5.330086817997817,2680.471435546875,-1,1000.0000000000009,1,0.0004422224655500073,0.0014786173692021608,0.08471847302979432,tarmac,1.6,4,0,10275.36669921875,1,1.6666666666733247
2026-04-26T20:18:41.705Z,23,0.396,WebPort,true,false,webtest,webtest,car_1,car_1,0,0,0,0.0007905035163275898,0.480431467294693,0.7358040809631348,-0.0005107869015508713,-0.0002657301027204372,0.9999998342421131,-0.9999998695440262,0.0000030805770585968683,-0.0005107861009804353,0.0000029448453048852203,0.9999999646890109,0.00026573164157276844,-0.0016419034218415618,-0.07064744830131531,-0.012239528819918633,-0.03863827511668205,0,0.002913170261308551,0,0,0,0,5.338132060474395e-34,17,0.017,0.07171864376901792,0.012349166473097438,-0.0005107869417958386,-0.029265935995295984,0.0002657301058477479,0.01522521355464059,0.0000030805771673653504,0.0001765040701544008,0,0.0000015063556532948143,0.9999999585593927,0.00013286544157932594,0.0002553932612164783,0.0024503827781834804,1.574702994751131,-2.5344688242388695,-0.00047506928492538494,-0.23330037017694633,0.9724046028194615,100,0,web_chase,1,tarmac,1.6,0,2447.83203125,0,0.004930406808853149,0.9993297630470763,0.00732421875,4.480846308365713,2447.83203125,1,tarmac,1.6,0,2444.533203125,0,0.004952579736709595,0.9993297630470763,0.00732421875,5.557625880497817,2444.533203125,1,tarmac,1.6,0,2641.4931640625,0,0.009124666452407837,0.9994754667324945,0.00732421875,4.729381464615713,2641.4931640625,1,tarmac,1.6,0,2638.4267578125,0,0.009147077798843384,0.9994754667324945,0.00732421875,5.330208888310317,2638.4267578125,-1,1000.0000000000009,1,0.0036973392982016127,0.0016289375781393717,0.09333116576823029,tarmac,1.6,4,0,10172.28515625,1,2.0000000000066596
2026-04-26T20:18:41.722Z,24,0.413,WebPort,true,false,webtest,webtest,car_1,car_1,0,0,0,0.0007961054216139019,0.4799599051475525,0.735683023929596,-0.0005114531545215438,-0.00001556273422515785,0.9999998690867276,-0.9999998691107173,0.000013944224373782118,-0.000511452937523527,0.000013936262942162716,0.99999999978168,0.00001556986400570605,0.00020699102606158704,0.0008281813352368772,0.0006368724280036986,0.0006293262704275548,0,-0.0014632755191996694,0,0,0,0,5.180366415579472e-34,17,0.017,0.001065052157622382,0.0006696654197592667,-0.0005114531768815048,-0.029304108453868192,0.00001556273422578606,0.000891678988821338,0.000013944224375922644,0.0007989452053238118,0,0.0000069701220572758975,0.99999996724739,0.000007783149812634445,0.000255726531386979,0.0024724896483705886,1.5739857702173654,-2.534693865905045,-0.0004780387071679843,-0.2332271136901186,0.9724221742220664,100,0,web_chase,1,tarmac,1.6,0,2457.360595703125,0,0.0051385462284088135,0.9987331863508938,0.03662109375,4.481456659928213,2457.360595703125,1,tarmac,1.6,0,2459.24169921875,0,0.005142956972122192,0.9987331863508938,0.03662109375,5.558236232060317,2459.24169921875,1,tarmac,1.6,0,2680.738037109375,0,0.009899497032165527,0.9990085806224386,0.03662109375,4.729991816178213,2680.738037109375,1,tarmac,1.6,0,2682.63232421875,0,0.009903937578201294,0.9990085806224386,0.03662109375,5.330819239872817,2682.63232421875,-1,1000.0000000000009,1,0.00246717369932933,0.0032958747078814608,0.18883902679459855,tarmac,1.6,4,0,10279.97265625,1,2.3333333333399944
2026-04-26T20:18:41.739Z,25,0.429,WebPort,true,false,webtest,webtest,car_1,car_1,0,0,0,0.0007891402929089963,0.4804540276527405,0.7357303500175476,-0.0005117775735165832,-0.00027855893022333135,0.9999998302443045,-0.999999869041371,0.0000011205051060046079,-0.0005117772812452986,9.779447838161892e-7,0.9999999612018327,0.0002785594671930201,-0.0007298226119019091,-0.06923700124025345,-0.013431012630462646,-0.037720758467912674,-2.867372485282349e-11,0.002127795945852995,0,0,0,0,5.027263450143793e-34,16,0.016,0.07053146164703628,0.013450826789624884,-0.00051177761571278,-0.029322697429610415,0.0002785589338257984,0.015960251253882236,0.0000011205051494776851,0.0000642002159877468,-2.867372485282349e-11,5.246124947192617e-7,0.9999999575609377,0.00013927960526498374,0.0002558887245501481,0.002448788662624744,1.5747383735753444,-2.5345371593538095,-0.00047535133239323137,-0.23330420451821948,0.9724036827343014,100,0,web_chase,1,tarmac,1.6,0,2447.093994140625,0,0.0049329400062561035,0.9982621573527682,0.00732421875,4.481578730240713,2447.093994140625,1,tarmac,1.6,0,2445.4326171875,0,0.004952818155288696,0.9982621573527682,0.00732421875,5.558358302372817,2445.4326171875,1,tarmac,1.6,0,2639.586669921875,0,0.00912526249885559,0.9986399492326012,0.00732421875,4.730113886490713,2639.586669921875,1,tarmac,1.6,0,2637.730224609375,0,0.009145349264144897,0.9986399492326012,0.00732421875,5.330941310185317,2637.730224609375,-1,1000.0000000000009,1,0.0031210240707012053,0.0004146103617928992,0.023755422511925722,tarmac,1.6,4,0,10169.843505859375,1,1.6666666666733283
2026-04-26T20:18:41.755Z,26,0.446,WebPort,true,false,webtest,webtest,car_1,car_1,0,0,0,0.0007948028505779803,0.4799594581127167,0.7355815172195435,-0.0005116650496960969,-0.00001641846706681912,0.9999998689646469,-0.9999998689783013,0.000015573021629535854,-0.0005116647940179071,0.000015564618837349625,0.9999999997439575,0.000016426433086529667,0.0008080925908870995,-0.0002866039576474577,0.0003522475599311292,-0.0003522605402395129,-5.734744970564698e-11,-0.0033362177200615406,0,0,0,0,4.878685361163707e-34,17,0.017,0.0009269486541676649,0.00088152820653911,-0.0005116650720908107,-0.02931624915506046,0.000016418467067556765,0.0009407088690455357,0.000015573021632264293,0.0008922684137946764,-5.734744970564698e-11,0.000007784410371965471,0.9999999672108626,0.000008211225307576191,0.0002558324693170269,0.0024750941857847914,1.5739862784332674,-2.5347949823694895,-0.00047891190508685447,-0.23322740476072024,0.9724221039815819,100,0,web_chase,1,tarmac,1.6,0,2457.2216796875,0,0.005148470401763916,0.9993187095091545,0.0439453125,4.482311152115713,2457.2216796875,1,tarmac,1.6,0,2458.626708984375,0,0.005150049924850464,0.9993187095091545,0.0439453125,5.559090724247817,2458.626708984375,1,tarmac,1.6,0,2679.060302734375,0,0.009938597679138184,0.9994668161375991,0.0439453125,4.730846308365713,2679.060302734375,1,tarmac,1.6,0,2680.477783203125,0,0.00994020700454712,0.9994668161375991,0.0439453125,5.331673732060317,2680.477783203125,-1,1000.0000000000009,1,0.00045551301725796703,0.0014732372460806314,0.08441021535316731,tarmac,1.6,4,0,10275.386474609375,1,2.000000000006663
2026-04-26T20:18:41.772Z,27,0.462,WebPort,true,false,webtest,webtest,car_1,car_1,0,0,0,0.0007894110167399049,0.4804317057132721,0.7356286644935608,-0.0005120818437384639,-0.0002658485600731189,0.9999998335483503,-0.9999998688818267,0.0000030541610331627967,-0.0005120810498876505,0.000002918024515039293,0.999999964657607,0.0002658500891959543,-0.001632468425668776,-0.07063286006450653,-0.012249073013663292,-0.038628995418548584,-5.734744970564698e-11,0.00290695670992136,0,0,0,0,4.73449841832981e-34,17,0.017,0.07170568780610798,0.012357376050556194,-0.0005120818842146295,-0.029340130730605166,0.00026584856320461376,0.01523200066124128,0.0000030541611410946634,0.00017499054333758375,-5.734744970564698e-11,0.000001493046449182199,0.9999999583859722,0.00013292466784879916,0.0002560407340614149,0.0024534786382816648,1.5747038560515336,-2.534644045799083,-0.00047632226917042043,-0.23330058315741084,0.972404551107978,100,0,web_chase,1,tarmac,1.6,0,2447.824951171875,0,0.004930436611175537,0.9993297490886014,0.00732421875,4.482433222428213,2447.824951171875,1,tarmac,1.6,0,2444.541259765625,0,0.004952579736709595,0.9993297490886014,0.00732421875,5.559212794560317,2444.541259765625,1,tarmac,1.6,0,2641.475341796875,0,0.009124666452407837,0.9994754558084706,0.00732421875,4.730968378678213,2641.475341796875,1,tarmac,1.6,0,2638.41796875,0,0.009147077798843384,0.9994754558084706,0.00732421875,5.331795802372817,2638.41796875,-1,1000.0000000000009,1,0.003690853756727579,0.001616554361948525,0.09262166161204624,tarmac,1.6,4,0,10172.259521484375,1,2.333333333339998
2026-04-26T20:18:41.789Z,28,0.479,WebPort,true,false,webtest,webtest,car_1,car_1,0,0,0,0.0007950461003929377,0.4799599051475525,0.7355075478553772,-0.0005127392528905086,-0.000015567973492991912,0.9999998684280399,-0.9999998684515418,0.000013985039294865156,-0.0005127390351838091,0.000013977055147117555,0.9999999997810285,0.00001557514212364869,0.00020714441780000925,0.000830991892144084,0.0006385794258676469,0.0006312435725703835,0,-0.0014664166374132037,0,0,0,0,4.5945728436606405e-34,16,0.016,0.001068288358907071,0.000671336348611602,-0.000512739275419302,-0.029377796472121916,0.000015567973493620756,0.0008919791767560048,0.000013985039297015744,0.0008012837280436059,0,0.000006990523840605717,0.9999999670825757,0.000007785779160447946,0.00025636958045760564,0.0024756574861124164,1.5739863055151921,-2.534869187462988,-0.00047929121253602417,-0.23322730182212997,0.9724221284836656,100,0,web_chase,1,tarmac,1.6,0,2457.358154296875,0,0.005138665437698364,0.9987392574484372,0.03662109375,4.483043573990713,2457.358154296875,1,tarmac,1.6,0,2459.236083984375,0,0.005143016576766968,0.9987392574484372,0.03662109375,5.559823146122817,2459.236083984375,1,tarmac,1.6,0,2680.720703125,0,0.009899884462356567,0.9990133319161681,0.03662109375,4.731578730240713,2680.720703125,1,tarmac,1.6,0,2682.611083984375,0,0.009904295206069946,0.9990133319161681,0.03662109375,5.332406153935317,2682.611083984375,-1,1000.0000000000009,1,0.00248625849640325,0.003277050011325231,0.18776046278073572,tarmac,1.6,4,0,10279.926025390625,1,1.6666666666733319
2026-04-26T20:18:41.805Z,29,0.496,WebPort,true,false,webtest,webtest,car_1,car_1,0,0,0,0.0007880756165832281,0.48045405745506287,0.7355549335479736,-0.0005130646032303157,-0.0002785679509102905,0.9999998295822904,-0.999999868381867,0.0000011235413533331617,-0.0005130643101543427,9.806178882969207e-7,0.9999999611993164,0.00027856849069499563,-0.0007310002110898495,-0.06923437863588333,-0.013428105041384697,-0.037719495594501495,0,0.0021296306513249874,0,0,0,0,4.4587826946937365e-34,17,0.017,0.07052834572998244,0.013447987444635517,-0.0005130646456467065,-0.029396438812931407,0.00027856795451310757,0.015960768101193356,0.000001123541396926863,0.00006437418015214206,0,5.260398328192198e-7,0.9999999573954335,0.00013928411633546098,0.00025653223927560954,0.0024519457224539166,1.574739102648262,-2.534712374296793,-0.0004766089948621521,-0.23330445016376664,0.9724036231820861,100,0,web_chase,1,tarmac,1.6,0,2447.094482421875,0,0.0049329400062561035,0.9982666219067482,0.00732421875,4.483165644303213,2447.094482421875,1,tarmac,1.6,0,2445.429931640625,0,0.004952847957611084,0.9982666219067482,0.00732421875,5.559945216435317,2445.429931640625,1,tarmac,1.6,0,2639.584228515625,0,0.00912526249885559,0.9986434432313682,0.00732421875,4.731700800553213,2639.584228515625,1,tarmac,1.6,0,2637.72412109375,0,0.009145379066467285,0.9986434432313682,0.00732421875,5.332528224247817,2637.72412109375,-1,1000.0000000000009,1,0.0031176108621705457,0.00041492038738984545,0.023773185667115965,tarmac,1.6,4,0,10169.832763671875,1,2.0000000000066667
2026-04-26T20:18:41.822Z,30,0.513,WebPort,true,false,webtest,webtest,car_1,car_1,0,0,0,0.0007937279879115522,0.4799594283103943,0.7354061007499695,-0.0005129525447021565,-0.000016437036821639042,0.9999998683047467,-0.999999868318965,0.00001555641139843903,-0.0005129522890081092,0.00001554797793407132,0.999999999743911,0.000016445014358006286,0.0008079434046521783,-0.000283886882243678,0.00035385775845497847,-0.0003498400328680873,-5.734744970564698e-11,-0.0033360898960381746,0,0,0,0,4.327005751128918e-34,17,0.017,0.0009265957156439756,0.0008820362001299807,-0.0005129525672661587,-0.029390017194751362,0.00001643703682237919,0.0009417728376234534,0.000015556411401167962,0.0008913167176561196,-5.734744970564698e-11,0.000007776097589381478,0.9999999670459523,0.000008220513065810512,0.0002564762168794959,0.002478213409947174,1.573987046357538,-2.5349701681691506,-0.00048016482267818555,-0.23322768455409698,0.9724220362575491,100,0,web_chase,1,tarmac,1.6,0,2457.220458984375,0,0.005148470401763916,0.9993191461056254,0.0439453125,4.483898066178213,2457.220458984375,1,tarmac,1.6,0,2458.6259765625,0,0.0051500797271728516,0.9993191461056254,0.0439453125,5.560677638310317,2458.6259765625,1,tarmac,1.6,0,2679.05712890625,0,0.009938627481460571,0.9994671578217939,0.0439453125,4.732433222428213,2679.05712890625,1,tarmac,1.6,0,2680.475830078125,0,0.009940236806869507,0.9994671578217939,0.0439453125,5.333260646122817,2680.475830078125,-1,1000.0000000000009,1,0.0004496949473507643,0.0014756236172784698,0.08454694405391429,tarmac,1.6,4,0,10275.37939453125,1,2.3333333333400015
2026-04-26T20:18:41.838Z,31,0.529,WebPort,true,false,webtest,webtest,car_1,car_1,0,0,0,0.0007883580983616412,0.48043176531791687,0.735453188419342,-0.0005133698081503096,-0.00026589243946462533,0.9999998328763113,-0.9999998682213725,0.0000030822720330265517,-0.000513369006742433,0.0000029457705803576044,0.9999999646458545,0.000265893986771087,-0.0016299926210194826,-0.07062937319278717,-0.012251629494130611,-0.03862674906849861,0,0.0029054495971649885,0,0,0,0,4.199123404821766e-34,17,0.017,0.07170263355562356,0.012359583375099221,-0.0005133698488472734,-0.029413925668217773,0.0002658924425976711,0.01523451476527106,0.0000030822721419878888,0.00017660118504665405,0,0.0000015070107163120493,0.9999999582179415,0.00013294661211371122,0.0002566847144480015,0.002456680988021335,1.5747048216746347,-2.5348192569537913,-0.0004775854415848815,-0.23330089973185072,0.9724044745353937,100,0,web_chase,1,tarmac,1.6,0,2447.8251953125,0,0.004930406808853149,0.9993297426049865,0.00732421875,4.484020136490713,2447.8251953125,1,tarmac,1.6,0,2444.542724609375,0,0.004952490329742432,0.9993297426049865,0.00732421875,5.560799708622817,2444.542724609375,1,tarmac,1.6,0,2641.47265625,0,0.009124666452407837,0.9994754507343373,0.00732421875,4.732555292740713,2641.47265625,1,tarmac,1.6,0,2638.413818359375,0,0.009147077798843384,0.9994754507343373,0.00732421875,5.333382716435317,2638.413818359375,-1,1000.0000000000009,1,0.0036876353670253275,0.0016162584533393363,0.09260470734191575,tarmac,1.6,4,0,10172.25439453125,1,2.6666666666733363
2026-04-26T20:18:41.855Z,32,0.546,WebPort,true,false,webtest,webtest,car_1,car_1,0,0,0,0.0007939781644381583,0.4799599051475525,0.7353320121765137,-0.0005140248851717625,-0.000015561877286198943,0.999999867768114,-0.9999998677915725,0.00001398137974328073,-0.0005140246676072761,0.000013973378705697127,0.9999999997811745,0.00001556906200590469,0.00020754730212502182,0.0008317394531331956,0.0006394475931301713,0.0006321800174191594,0,-0.0014686067588627338,0,0,0,0,4.0750205530282875e-34,16,0.016,0.0010694669816678078,0.0006722864768678187,-0.0005140249078700845,-0.029451457785556818,0.00001556187728682705,0.0008916298898356865,0.000013981379745429193,0.0008010740511827861,0,0.000006988689843447047,0.999999966917607,0.000007782735080497407,0.00025701239669734466,0.0024787976070141412,1.5739872366504222,-2.535044458068546,-0.0004805459770997749,-0.23322762987379225,0.9724220491839011,100,0,web_chase,1,tarmac,1.6,0,2457.35791015625,0,0.005138665437698364,0.9987399068048415,0.03662109375,4.484630488053213,2457.35791015625,1,tarmac,1.6,0,2459.234130859375,0,0.005143076181411743,0.9987399068048415,0.03662109375,5.561410060185317,2459.234130859375,1,tarmac,1.6,0,2680.716064453125,0,0.009900003671646118,0.9990138401081368,0.03662109375,4.733165644303213,2680.716064453125,1,tarmac,1.6,0,2682.60546875,0,0.009904414415359497,0.9990138401081368,0.03662109375,5.333993067997817,2682.60546875,-1,1000.0000000000009,1,0.0024913654325157443,0.0032721286282879364,0.1874784913268937,tarmac,1.6,4,0,10279.91357421875,1,2.00000000000667
2026-04-26T20:18:41.871Z,33,0.562,WebPort,true,false,webtest,webtest,car_1,car_1,0,0,0,0.000787004129961133,0.48045408725738525,0.7353793382644653,-0.0005143510503954606,-0.0002786004592709991,0.999999828912376,-0.9999998677210097,0.0000011231265823508529,-0.0005143507574530903,9.79828032944977e-7,0.9999999611902606,0.0002786010000993488,-0.0007328311912715435,-0.06923380494117737,-0.013423852622509003,-0.037719447165727615,-2.867372485282349e-11,0.00213161064311862,0,0,0,0,3.954585494804673e-34,17,0.017,0.07052699204856774,0.013443840998231952,-0.0005143510930361679,-0.029470146818913166,0.0002786004628750776,0.015962630693133126,0.0000011231266259386324,0.00006435041552505197,-2.867372485282349e-11,5.257386763108758e-7,0.9999999572279548,0.0001393003708007487,0.0002571754629620581,0.002455086372369884,1.5747401749739196,-2.534887667563715,-0.0004778644141545894,-0.23330481538358522,0.9724035349403215,100,0,web_chase,1,tarmac,1.6,0,2447.09521484375,0,0.0049329400062561035,0.9982677697340482,0.00732421875,4.484752558365713,2447.09521484375,1,tarmac,1.6,0,2445.428955078125,0,0.004952847957611084,0.9982677697340482,0.00732421875,5.561532130497817,2445.428955078125,1,tarmac,1.6,0,2639.583984375,0,0.00912526249885559,0.9986443415309942,0.00732421875,4.733287714615713,2639.583984375,1,tarmac,1.6,0,2637.722412109375,0,0.009145349264144897,0.9986443415309942,0.00732421875,5.334115138310317,2637.722412109375,-1,1000.0000000000009,1,0.0031158754886612726,0.00041572867531377726,0.023819497145800173,tarmac,1.6,4,0,10169.83056640625,1,2.333333333340005
2026-04-26T20:18:41.889Z,34,0.579,WebPort,true,false,webtest,webtest,car_1,car_1,0,0,0,0.0007926690741442144,0.4799594283103943,0.735230565071106,-0.0005142403891249302,-0.000016442937962024835,0.9999998676432172,-0.9999998676572792,0.000015572730739912803,-0.0005142401330706822,0.000015564273060150597,0.9999999997435601,0.000016450943913037112,0.0008093587821349502,-0.0002869958116207272,0.00035319439484737813,-0.0003517618461046368,0,-0.0033402724657207727,0,0,0,0,3.837709830468912e-34,16,0.016,0.0009285335290975849,0.0008830673353547708,-0.000514240411859011,-0.02946380525459054,0.000016442937962765782,0.0009421109480619192,0.000015572730742647425,0.0008922517470473256,0,0.000007784251207826305,0.9999999668805064,0.000008223470741122671,0.0002571201390645918,0.0024813497966472524,1.5739882909663037,-2.535145348335467,-0.0004814122135204775,-0.23322812230541373,0.9724219306495363,100,0,web_chase,1,tarmac,1.6,0,2457.219482421875,0,0.005148470401763916,0.9993191051814954,0.0439453125,4.485484980240713,2457.219482421875,1,tarmac,1.6,0,2458.62646484375,0,0.0051500797271728516,0.9993191051814954,0.0439453125,5.562264552372817,2458.62646484375,1,tarmac,1.6,0,2679.05517578125,0,0.009938687086105347,0.9994671257942137,0.0439453125,4.734020136490713,2679.05517578125,1,tarmac,1.6,0,2680.47509765625,0,0.009940296411514282,0.9994671257942137,0.0439453125,5.334847560185317,2680.47509765625,-1,1000.0000000000009,1,0.00044118214701453773,0.0014793158095419458,0.08475849062597351,tarmac,1.6,4,0,10275.376220703125,1,1.6666666666733387
2026-04-26T20:18:41.904Z,35,0.595,WebPort,true,false,webtest,webtest,car_1,car_1,0,0,0,0.0007873003487475216,0.4804317057132721,0.7352777123451233,-0.0005146576531833472,-0.00026584482186779046,0.9999998322270014,-0.9999998675593833,0.0000030890648479688925,-0.0005146568501553989,0.0000029522454710546202,0.9999999646584936,0.0002658463764700035,-0.001631230697967112,-0.07063251733779907,-0.012250910513103008,-0.038628749549388885,0,0.0029065089765936136,0,0,0,0,3.7242883640337583e-34,17,0.017,0.07170563595328149,0.012359034023338883,-0.0005146576940894507,-0.029487713765260538,0.0002658448249991532,0.015231786477845437,0.0000030890649571312757,0.00017699038468538267,0,0.0000015103276431056517,0.9999999580556089,0.0001329228051598146,0.0002573286366281795,0.0024598070232142743,1.5747061332750467,-2.534994348912338,-0.0004788311198898058,-0.2333013848680275,0.9724043575279882,100,0,web_chase,1,tarmac,1.6,0,2447.82763671875,0,0.004930377006530762,0.9993296520911713,0.00732421875,4.485607050553213,2447.82763671875,1,tarmac,1.6,0,2444.541259765625,0,0.004952490329742432,0.9993296520911713,0.00732421875,5.562386622685317,2444.541259765625,1,tarmac,1.6,0,2641.476806640625,0,0.009124666452407837,0.9994753798974384,0.00732421875,4.734142206803213,2641.476806640625,1,tarmac,1.6,0,2638.415771484375,0,0.009147077798843384,0.9994753798974384,0.00732421875,5.334969630497817,2638.415771484375,-1,1000.0000000000009,1,0.003688965525642073,0.0016190895421266218,0.09276691635637413,tarmac,1.6,4,0,10172.261474609375,1,2.0000000000066733
2026-04-26T20:18:41.921Z,36,0.612,WebPort,true,false,webtest,webtest,car_1,car_1,0,0,0,0.000792922917753458,0.4799599051475525,0.7351565957069397,-0.0005153136608044384,-0.000015558563773261645,0.9999998671048723,-0.9999998671281146,0.000013993169602287179,-0.0005153134431027649,0.000013985150205595379,0.9999999997810611,0.000015565772577419947,0.00020745396614074707,0.000830886303447187,0.0006391589995473623,0.0006322420667856932,0,-0.001467794761992991,0,0,0,0,3.614219008523241e-34,17,0.017,0.0010686128503934631,0.0006719831655405598,-0.0005153136836735782,-0.02952529919983559,0.00001555856377388935,0.0008914400395289943,0.000013993169604437499,0.0008017495603450163,0,0.000006994580184528151,0.9999999667517554,0.000007781084346377793,0.00025765678454343655,0.002481980283129012,1.5739886521428101,-2.5352194718677836,-0.0004818068800625963,-0.2332281282571276,0.9724219290265967,100,0,web_chase,1,tarmac,1.6,0,2457.358154296875,0,0.005138665437698364,0.9987385439297544,0.03662109375,4.486217402115713,2457.358154296875,1,tarmac,1.6,0,2459.23486328125,0,0.005143076181411743,0.9987385439297544,0.03662109375,5.562996974247817,2459.23486328125,1,tarmac,1.6,0,2680.720458984375,0,0.009899884462356567,0.9990127735102425,0.03662109375,4.734752558365713,2680.720458984375,1,tarmac,1.6,0,2682.610595703125,0,0.009904295206069946,0.9990127735102425,0.03662109375,5.335579982060317,2682.610595703125,-1,1000.0000000000009,1,0.0024899270367569164,0.0032746346170313798,0.18762207236692546,tarmac,1.6,4,0,10279.924072265625,1,2.333333333340008
