timestamp_utc,sample_index,race_time_seconds,game_state,is_racing,is_paused,level_id,level_name,car_id,car_name,player_steer,player_throttle,player_brake,position_x,position_y,position_z,forward_x,forward_y,forward_z,right_x,right_y,right_z,up_x,up_y,up_z,velocity_x,velocity_y,velocity_z,angular_velocity_x,angular_velocity_y,angular_velocity_z,vehicle_applied_throttle,vehicle_applied_brake,vehicle_applied_handbrake,vehicle_control_candidate_1dfc,vehicle_applied_steer,vehicle_frame_delta_ms,vehicle_frame_delta_seconds,speed_magnitude,planar_speed_magnitude,yaw_radians,yaw_degrees,pitch_radians,pitch_degrees,roll_radians,roll_degrees,yaw_rate,quat_x,quat_y,quat_z,quat_w,camera_position_x,camera_position_y,camera_position_z,camera_forward_x,camera_forward_y,camera_forward_z,camera_fov,camera_mode_index,camera_family,wheel_0_contact_flag,wheel_0_contact_ptr,wheel_0_contact_surface_44_candidate,wheel_0_contact_surface_48_candidate,wheel_0_contact_surface_4c_candidate,wheel_0_contact_surface_50_candidate,wheel_0_suspension_length_candidate,wheel_0_tire_force_multiplier_candidate,wheel_0_load_or_spin_candidate,wheel_0_rotation_or_phase_candidate,wheel_0_vertical_load_candidate,wheel_1_contact_flag,wheel_1_contact_ptr,wheel_1_contact_surface_44_candidate,wheel_1_contact_surface_48_candidate,wheel_1_contact_surface_4c_candidate,wheel_1_contact_surface_50_candidate,wheel_1_suspension_length_candidate,wheel_1_tire_force_multiplier_candidate,wheel_1_load_or_spin_candidate,wheel_1_rotation_or_phase_candidate,wheel_1_vertical_load_candidate,wheel_2_contact_flag,wheel_2_contact_ptr,wheel_2_contact_surface_44_candidate,wheel_2_contact_surface_48_candidate,wheel_2_contact_surface_4c_candidate,wheel_2_contact_surface_50_candidate,wheel_2_suspension_length_candidate,wheel_2_tire_force_multiplier_candidate,wheel_2_load_or_spin_candidate,wheel_2_rotation_or_phase_candidate,wheel_2_vertical_load_candidate,wheel_3_contact_flag,wheel_3_contact_ptr,wheel_3_contact_surface_44_candidate,wheel_3_contact_surface_48_candidate,wheel_3_contact_surface_4c_candidate,wheel_3_contact_surface_50_candidate,wheel_3_suspension_length_candidate,wheel_3_tire_force_multiplier_candidate,wheel_3_load_or_spin_candidate,wheel_3_rotation_or_phase_candidate,wheel_3_vertical_load_candidate,web_gear,web_engine_rpm,web_clutch,web_steer_state,web_steer_raw,web_steer_limit,web_steer_target,web_steer_speed_kph,web_speed_forward,web_speed_right,web_front_grip_scale,web_rear_grip_scale,web_inertia_roll_torque,web_inertia_pitch_torque,web_aero_drag_force,web_rolling_resistance_drag,web_brake_distance_scale,web_slip_long_avg,web_slip_lat_avg,web_slip_angle_deg,web_surface_type,web_surface_grip,web_wheel_contacts,web_forward_impulse,web_suspension_force,web_camera_fov_degrees,web_sim_steps,web_sim_backlog_ms,web_wheel_0_forward_impulse,web_wheel_0_suspension_force,web_wheel_0_angular_velocity,web_wheel_1_forward_impulse,web_wheel_1_suspension_force,web_wheel_1_angular_velocity,web_wheel_2_forward_impulse,web_wheel_2_suspension_force,web_wheel_2_angular_velocity,web_wheel_3_forward_impulse,web_wheel_3_suspension_force,web_wheel_3_angular_velocity,web_input_throttle_raw,web_input_brake_raw,web_input_steer_raw,web_input_handbrake_raw,web_input_reset_raw,web_input_version_raw
2026-04-28T08:58:06.816Z,0,0.013,WebPort,true,false,webtest,webtest,car_1,car_1,0,0,0,0.0008443628903478384,0.4952113926410675,0.12040258944034576,-0.00019095666243345387,-0.0450854375436704,0.9989831164023989,-0.9999999771509654,-0.000087384660353429,-0.00019509482244183584,-0.00009609173575792855,0.9989831308312553,0.04508541982682861,-0.0000030891428650647867,-0.13561303913593292,0.015321980230510235,-0.000976738054305315,-1.915901881588411e-9,-0.000003111914111286751,0,0,0,0,0,17,0.017,0.13647585673448262,0.015321980541919184,-0.00019115103846336102,-0.010952147753493452,0.04510072570194524,2.5840812356986596,-0.00008747360934697433,-0.005011868634357738,-1.915901881588411e-9,-0.0000458807644083094,0.9997457457254595,0.02254844738175582,0.0000965374162695621,0.0015082359217351287,2.1425086898107595,-3.8565831979175123,-0.00014231410516121298,-0.3194847715999475,0.9475913995295784,1.7453292519943295,0,web_chase,1,tarmac,1.6,0,4767.732421875,0,-0.02864992618560791,0.9996142885333081,-0.05003392696380615,5.926703367625372,4767.732421875,1,tarmac,1.6,0,4769.8330078125,0,-0.02877447009086609,0.9996142885333081,-0.05003392696380615,5.927576009427206,4769.8330078125,1,tarmac,1.6,0,3663.7158203125,0,0.07811617851257324,0.9996981388521542,-0.049681663513183594,5.92095131078829,3663.7158203125,1,tarmac,1.6,0,3666.076416015625,0,0.07799023389816284,0.9996981388521542,-0.049681663513183594,5.921833459530966,3666.076416015625,0,1000,0.25,0,0,1,0,0.055369751954261304,0.02143103148237735,0.000011986513433413928,0.9996142885333081,0.9996981388521542,-1.5671764902854486e-14,4.3053037904669366e-9,0.000137786776222546,84.33,0.08559043993604634,0.003210426696617752,0.000023973026866827857,0.0013735532613598379,tarmac,1.6,4,0,16867.357666015625,100,1,1.333333333333863,0,4767.732421875,-0.05003392696380615,0,4769.8330078125,-0.05003392696380615,0,3663.7158203125,-0.049681663513183594,0,3666.076416015625,-0.049681663513183594,0,0,0,0,0,0
2026-04-28T08:58:06.833Z,1,0.03,WebPort,true,false,webtest,webtest,car_1,car_1,0,0,0,0.0008443338447250426,0.4952411651611328,0.12064836919307709,-0.00019095847951037053,-0.045067314089975,0.998983934172905,-0.9999999771546065,-0.0000873466492027922,-0.00019509318153703708,-0.00009605022494656813,0.9989839486054212,0.04506729638081114,-0.0000030655173759441823,-0.1355801224708557,0.015316874720156193,-0.001073368126526475,-1.8385333255821479e-9,-0.000002458603830746142,0,0,0,0,0,16,0.016,0.13644257498963655,0.015316875026922321,-0.0001911527009116906,-0.010952243004766394,0.045082583807804805,2.5830417817320392,-0.00008743548792965145,-0.005009684438036081,-1.8385333255821479e-9,-0.0000458608694810978,0.9997459502209713,0.022539378741885347,0.00009653744057729852,0.0015082478676703569,2.1425173392152823,-3.8563358211819634,-0.00014232449549823718,-0.31947985483705155,0.9475930572228959,1.7453292519943295,0,web_chase,1,tarmac,1.6,0,4766.8466796875,0,-0.028602927923202515,0.999612518309966,-0.04991769790649414,5.925871405993597,4766.8466796875,1,tarmac,1.6,0,4768.94775390625,0,-0.028727442026138306,0.999612518309966,-0.04991769790649414,5.926744047795431,4768.94775390625,1,tarmac,1.6,0,3663.577392578125,0,0.07812553644180298,0.9996967534599733,-0.04953145980834961,5.920125786458151,3663.577392578125,1,tarmac,1.6,0,3665.93701171875,0,0.07799965143203735,0.9996967534599733,-0.04953145980834961,5.9210079352008265,3665.93701171875,0,1000,0.25,0,0,1,0,0.055351303411919364,0.021420573356093906,0.000011950403146341914,0.999612518309966,0.9996967534599733,-1.556297249430309e-14,4.279402750881622e-9,0.00013765233171478066,84.33,0.08559043993604634,0.003222631992072832,0.00002390080629268383,0.0013694153272697442,tarmac,1.6,4,0,16865.308837890625,100,1,0.666666666667197,0,4766.8466796875,-0.04991769790649414,0,4768.94775390625,-0.04991769790649414,0,3663.577392578125,-0.04953145980834961,0,3665.93701171875,-0.04953145980834961,0,0,0,0,0,0
2026-04-28T08:58:06.849Z,2,0.046,WebPort,true,false,webtest,webtest,car_1,car_1,0,0,0,0.0008442985126748681,0.4952707588672638,0.1208934634923935,-0.00019095991747424543,-0.04504794154975183,0.9989848079407614,-0.9999999771571814,-0.00008732072552873203,-0.00019509158748231924,-0.00009602055265132014,0.9989848223758062,0.04504792384597134,-0.0000030403527944145026,-0.1355830430984497,0.0153117710724473,-0.00114592129830271,-1.9757238067796834e-9,-0.0000017539011878398014,0,0,0,0,0,18,0.018,0.13644490433304884,0.015311771374298242,-0.00019115397314399142,-0.010952315898307792,0.045063191572620856,2.581930688500674,-0.00008740946143573559,-0.0050081932297791785,-1.9757238067796834e-9,-0.00004584695693681956,0.9997461687190591,0.022529685087755814,0.0000965373804460785,0.0015082419743834533,2.1425238021952597,-3.8560879238049264,-0.00014233212312699182,-0.31947455502877936,0.9475948440292032,1.7453292519943295,0,web_chase,1,tarmac,1.6,0,4765.9501953125,0,-0.02855360507965088,0.9996110927193175,-0.04982650279998779,5.925040964280264,4765.9501953125,1,tarmac,1.6,0,4768.04931640625,0,-0.02867799997329712,0.9996110927193175,-0.04982650279998779,5.925913606082098,4768.04931640625,1,tarmac,1.6,0,3663.468017578125,0,0.0781334638595581,0.9996956377803354,-0.049413442611694336,5.919302229081289,3663.468017578125,1,tarmac,1.6,0,3665.826416015625,0,0.07800766825675964,0.9996956377803354,-0.049413442611694336,5.920184377823965,3665.826416015625,0,1000,0.25,0,0,1,0,0.05533286088604281,0.021411544316313015,0.000011919768881885185,0.9996110927193175,0.9996956377803354,-1.5470328662755274e-14,4.257490799560159e-9,0.00013753631162709794,84.33,0.08559043993604634,0.0032317967381583386,0.00002383953776377037,0.0013659048991480282,tarmac,1.6,4,0,16863.2939453125,100,1,2.0000000000005294,0,4765.9501953125,-0.04982650279998779,0,4768.04931640625,-0.04982650279998779,0,3663.468017578125,-0.049413442611694336,0,3665.826416015625,-0.049413442611694336,0,0,0,0,0,0
2026-04-28T08:58:06.866Z,3,0.063,WebPort,true,false,webtest,webtest,car_1,car_1,0,0,0,0.0008442578837275505,0.4952996075153351,0.12113794684410095,-0.00019096078650480955,-0.04502776535178921,0.9989857175562634,-0.9999999771587661,-0.00008730641114498616,-0.00019508987096884735,-0.00009600231871743224,0.9989857319927122,0.04502774765119854,-0.0000030163182600517757,-0.13562023639678955,0.015306669287383556,-0.0011938326060771942,-1.872732635632701e-9,-0.000001078585910363472,0,0,0,0,0,16,0.016,0.13648129049101415,0.015306669584580013,-0.00019115466900370909,-0.010952355768132747,0.04504299488069188,2.580773503293018,-0.00008739505292888808,-0.005007367683147731,-1.872732635632701e-9,-0.000045838807362209176,0.9997463961810191,0.02251958930459646,0.00009653714655745468,0.0015082186567454453,2.1425283812574225,-3.855840590203439,-0.00014233680527299373,-0.3194689862532784,0.947596721481526,1.7453292519943295,0,web_chase,1,tarmac,1.6,0,4765.0625,0,-0.0285031795501709,0.9996100243157358,-0.04976034164428711,5.924211625252859,4765.0625,1,tarmac,1.6,0,4767.16162109375,0,-0.02862757444381714,0.9996100243157358,-0.04976034164428711,5.925084267054693,4767.16162109375,1,tarmac,1.6,0,3663.392578125,0,0.07813972234725952,0.9996948016384019,-0.049329400062561035,5.91848007241358,3663.392578125,1,tarmac,1.6,0,3665.750732421875,0,0.07801395654678345,0.9996948016384019,-0.0493311882019043,5.919362191353933,3665.750732421875,0,1000,0.25,0,0,1,0,0.05531442443690081,0.021403964265263635,0.00001189236469202465,0.9996100243157358,0.9996948016384019,-1.5388088300073318e-14,4.237936902425483e-9,0.0001374389483091062,84.33,0.08559043993604634,0.003237930885988751,0.0000237847293840493,0.001362764610309841,tarmac,1.6,4,0,16861.367431640625,100,1,1.333333333333863,0,4765.0625,-0.04976034164428711,0,4767.16162109375,-0.04976034164428711,0,3663.392578125,-0.049329400062561035,0,3665.750732421875,-0.0493311882019043,0,0,0,0,0,0
2026-04-28T08:58:06.883Z,4,0.081,WebPort,true,false,webtest,webtest,car_1,car_1,0,0,0,0.0008442113758064806,0.49532729387283325,0.12138228118419647,-0.00019096121452761845,-0.045007230922177524,0.9989866429029631,-0.9999999771592404,-0.0000873046166246785,-0.0001950882432627771,-0.00009599652748654763,0.9989866573396373,0.045007213222382596,-0.0000029906059353379533,-0.1356896162033081,0.015301569364964962,-0.0012169256806373596,-2.0191914806844125e-9,-3.445160245973966e-7,0,0,0,0,0,16,0.016,0.1365496612202887,0.01530156965721354,-0.00019115492039691563,-0.010952370171902481,0.045022439612118416,2.5795957731570005,-0.00008739317563550958,-0.0050072601221602345,-2.0191914806844125e-9,-0.00004583689983420611,0.9997466275764377,0.022509314275650782,0.00009653682421671374,0.0015081770218083315,2.1425312400357974,-3.8555934039684994,-0.00014233845173244119,-0.31946328377360206,0.9475986439734663,1.7453292519943295,0,web_chase,1,tarmac,1.6,0,4764.2001953125,0,-0.028452664613723755,0.999609313226567,-0.04971921443939209,5.923382971678869,4764.2001953125,1,tarmac,1.6,0,4766.29931640625,0,-0.028577059507369995,0.999609313226567,-0.04971921443939209,5.924255613480703,4766.29931640625,1,tarmac,1.6,0,3663.348388671875,0,0.07814434170722961,0.9996942451338351,-0.04928112030029297,5.917658720408575,3663.348388671875,1,tarmac,1.6,0,3665.708251953125,0,0.07801851630210876,0.9996942451338351,-0.04928112030029297,5.918540839348928,3665.708251953125,0,1000,0.25,0,0,1,0,0.055295994119651574,0.021397820758880613,0.000011870658173355193,0.999609313226567,0.9996942451338351,-1.532258625246486e-14,4.2224804468318145e-9,0.00013736006224251225,84.33,0.08559043993604634,0.003241028213531493,0.000023741316346710385,0.001360277226495882,tarmac,1.6,4,0,16859.55615234375,100,1,0.666666666667197,0,4764.2001953125,-0.04971921443939209,0,4766.29931640625,-0.04971921443939209,0,3663.348388671875,-0.04928112030029297,0,3665.708251953125,-0.04928112030029297,0,0,0,0,0,0
2026-04-28T08:58:06.900Z,5,0.097,WebPort,true,false,webtest,webtest,car_1,car_1,0,0,0,0.0008441589889116585,0.4953533411026001,0.12162640690803528,-0.0001909610467390293,-0.044986697513622616,0.9989875677808491,-0.9999999771587648,-0.0000873139173198648,-0.0001950865190418413,-0.00009600181611791078,0.9989875822166648,0.04498667981251383,-0.000002967565251310589,-0.13578873872756958,0.015296471305191517,-0.001215465017594397,-1.7967188847833881e-9,3.0873951573084923e-7,0,0,0,0,0,17,0.017,0.13664758910577654,0.015296471593050176,-0.00019115457546415722,-0.010952350408711209,0.0450018853846722,2.5784181026731803,-0.00008740240484650207,-0.00500778891699834,-1.7967188847833881e-9,-0.00004584053748562182,0.999746858854315,0.022499039764236842,0.00009653632876208071,0.0015081183364525387,2.1425323331904313,-3.855346475699311,-0.00014233736494872473,-0.3194575465700286,0.947600578133811,1.7453292519943295,0,web_chase,1,tarmac,1.6,0,4763.375,0,-0.02840280532836914,0.999608958753522,-0.049703121185302734,5.922554586325781,4763.375,1,tarmac,1.6,0,4765.47607421875,0,-0.02852723002433777,0.999608958753522,-0.049703121185302734,5.923427228127615,4765.47607421875,1,tarmac,1.6,0,3663.3359375,0,0.078147292137146,0.9996939677201476,-0.049266815185546875,5.916837606822149,3663.3359375,1,tarmac,1.6,0,3665.69482421875,0,0.07802152633666992,0.9996939677201476,-0.049266815185546875,5.9177197257625025,3665.69482421875,0,1000,0.25,0,0,1,0,0.055277569984447265,0.021393077872346844,0.000011851779503035278,0.999608958753522,0.9996939677201476,-1.526660872716917e-14,4.209060562723604e-9,0.00013729917639509204,84.33,0.08559043993604634,0.003241070758378012,0.000023703559006070555,0.0013581138902327994,tarmac,1.6,4,0,16857.8818359375,100,1,1.0000000000005318,0,4763.375,-0.049703121185302734,0,4765.47607421875,-0.049703121185302734,0,3663.3359375,-0.049266815185546875,0,3665.69482421875,-0.049266815185546875,0,0,0,0,0,0
2026-04-28T08:58:06.916Z,6,0.113,WebPort,true,false,webtest,webtest,car_1,car_1,0,0,0,0.0008441011887043715,0.4953773617744446,0.12187077105045319,-0.0001909604228782816,-0.04496661055714851,0.9989884721402539,-0.9999999771572662,-0.00008733470007559967,-0.00019508489777176024,-0.0000960186652170345,0.9989884865741205,0.04496659285251694,-0.000002943726258308743,-0.13591451942920685,0.015291375108063221,-0.001190389972180128,-1.8602328566430515e-9,9.987627436203184e-7,0,0,0,0,0,17,0.017,0.13677201012280715,0.015291375391410013,-0.00019115377792426461,-0.010952304713041369,0.044981778080375165,2.577266038999575,-0.00008742312952234994,-0.0050089763534562,-1.8602328566430515e-9,-0.00004584993746004738,0.9997470850009568,0.022488988654960518,0.00009653574550049139,0.0015080425997096242,2.1425318278845484,-3.855099414038854,-0.00014233342121123204,-0.31945190273016333,0.947602480781512,1.7453292519943295,0,web_chase,1,tarmac,1.6,0,4762.6064453125,0,-0.0283547043800354,0.9996089646953181,-0.04971206188201904,5.92172605196108,4762.6064453125,1,tarmac,1.6,0,4764.70703125,0,-0.02847912907600403,0.9996089646953181,-0.04971206188201904,5.9225986937629145,4764.70703125,1,tarmac,1.6,0,3663.35400390625,0,0.07814857363700867,0.999693972370249,-0.04928469657897949,5.916016195212499,3663.35400390625,1,tarmac,1.6,0,3665.713134765625,0,0.07802283763885498,0.999693972370249,-0.04928469657897949,5.916898314152853,3665.713134765625,0,1000,0.25,0,0,1,0,0.05525915207731563,0.021389672146385694,0.000011839676549202243,0.9996089646953181,0.999693972370249,-1.52301158703874e-14,4.200468426017255e-9,0.00013725546441234262,84.33,0.08559043993604634,0.0032380267908899904,0.000023679353098404487,0.0013567269938850287,tarmac,1.6,4,0,16856.380615234375,100,1,1.3333333333338664,0,4762.6064453125,-0.04971206188201904,0,4764.70703125,-0.04971206188201904,0,3663.35400390625,-0.04928469657897949,0,3665.713134765625,-0.04928469657897949,0,0,0,0,0,0
2026-04-28T08:58:06.933Z,7,0.13,WebPort,true,false,webtest,webtest,car_1,car_1,0,0,0,0.000844037567730993,0.49539893865585327,0.1221153736114502,-0.00019095916254236806,-0.0449473272303565,0.9989893399378422,-0.9999999771548261,-0.00008736640985820409,-0.00019508320759942932,-0.00009604658088610537,0.9989893543686829,0.0449473095201105,-0.000002921113036791212,-0.1360638439655304,0.0152862798422575,-0.0011429630685597658,-1.7639616434195204e-9,0.0000016520366443728562,0,0,0,0,0,16,0.016,0.13691983053825663,0.015286280121360768,-0.00019115235026273317,-0.010952222914061043,0.04496247523694762,2.576160067538575,-0.00008745479544241966,-0.005010790677030594,-1.7639616434195204e-9,-0.00004586483763861117,0.9997473020045303,0.022479339671691263,0.00009653498673308945,0.0015079494907086046,2.142529780722722,-3.8548522524035675,-0.00014232663631799682,-0.31944646293567375,0.9476043146065851,1.7453292519943295,0,web_chase,1,tarmac,1.6,0,4761.9013671875,0,-0.02830904722213745,0.999609332515612,-0.049744248390197754,5.920896981154577,4761.9013671875,1,tarmac,1.6,0,4764.001953125,0,-0.02843344211578369,0.999609332515612,-0.049744248390197754,5.921769622956411,4764.001953125,1,tarmac,1.6,0,3663.3955078125,0,0.07814851403236389,0.9996942602296094,-0.04933297634124756,5.915193978940145,3663.3955078125,1,tarmac,1.6,0,3665.755859375,0,0.07802271842956543,0.9996942602296094,-0.04933297634124756,5.916076097880499,3665.755859375,0,1000,0.25,0,0,1,0,0.05524074044003842,0.021387523282497937,0.00001183066363158888,0.999609332515612,0.9996942602296094,-1.5203764897315325e-14,4.19407567264693e-9,0.00013722788763719798,84.33,0.08559043993604634,0.0032321243827193053,0.00002366132726317776,0.0013556941896049174,tarmac,1.6,4,0,16855.0546875,100,1,0.6666666666672004,0,4761.9013671875,-0.049744248390197754,0,4764.001953125,-0.049744248390197754,0,3663.3955078125,-0.04933297634124756,0,3665.755859375,-0.04933297634124756,0,0,0,0,0,0
2026-04-28T08:58:06.950Z,8,0.148,WebPort,true,false,webtest,webtest,car_1,car_1,0,0,0,0.000843968999106437,0.4954177439212799,0.12236058712005615,-0.0001909574337196885,-0.04492915902058626,0.9989901572112516,-0.9999999771514585,-0.00008740848655038202,-0.00019508162091666056,-0.00009608507088872215,0.9989901716380694,0.044929141302720264,-0.0000028994841159146745,-0.13623295724391937,0.015281186439096928,-0.0010748287895694375,-1.7165165955290718e-9,0.0000022759184048481984,0,0,0,0,0,18,0.018,0.13708732000742085,0.015281186714174,-0.00019115046331086286,-0.01095211479968273,0.04494428865448897,2.5751180531199274,-0.00008749684312108744,-0.005013199831556579,-1.7165165955290718e-9,-0.000045884975023517846,0.9997475063735819,0.022470248675401205,0.00009653413791364229,0.0015078409713857525,2.1425261828361695,-3.8546046837759262,-0.0001423172661267215,-0.31944129793037584,0.9476060557649222,1.7453292519943295,0,web_chase,1,tarmac,1.6,0,4761.27392578125,0,-0.028266698122024536,0.999610037327269,-0.049797892570495605,5.920067016278402,4761.27392578125,1,tarmac,1.6,0,4763.3759765625,0,-0.028391152620315552,0.999610037327269,-0.049797892570495605,5.920939658080236,4763.3759765625,1,tarmac,1.6,0,3663.463134765625,0,0.07814693450927734,0.999694811821341,-0.049411654472351074,5.914370451365606,3663.463134765625,1,tarmac,1.6,0,3665.82568359375,0,0.07802104949951172,0.999694811821341,-0.049411654472351074,5.9152525703059595,3665.82568359375,0,1000,0.25,0,0,1,0,0.055222334817189814,0.021386537286474126,0.000011826426024943044,0.999610037327269,0.999694811821341,-1.5191873878378307e-14,4.191071672101847e-9,0.0001372152350910302,84.33,0.08559043993604634,0.0032235847576627223,0.000023652852049886087,0.0013552085956531033,tarmac,1.6,4,0,16853.938720703125,100,1,2.0000000000005325,0,4761.27392578125,-0.049797892570495605,0,4763.3759765625,-0.049797892570495605,0,3663.463134765625,-0.049411654472351074,0,3665.82568359375,-0.049411654472351074,0,0,0,0,0,0
2026-04-28T08:58:06.966Z,9,0.164,WebPort,true,false,webtest,webtest,car_1,car_1,0,0,0,0.0008438961231149733,0.49543365836143494,0.12260638177394867,-0.00019095544915963264,-0.04491246415039724,0.9989909079165615,-0.9999999771473448,-0.0000874585358307227,-0.00019508027711420814,-0.00009613181806692826,0.9989909223386085,0.044912446423344216,-0.0000028825286335631972,-0.1364179253578186,0.015276094898581505,-0.0009880131110548973,-1.3021398403978424e-9,0.000002767678324744338,0,0,0,0,0,16,0.016,0.13727057019838887,0.01527609517054143,-0.00019114833310363995,-0.01095199274779937,0.04492757691464816,2.5741605409587285,-0.00008754687720539456,-0.00501606657341918,-1.3021398403978424e-9,-0.00004590917162945435,0.9997476940961799,0.02246189491213269,0.00009653328748680832,0.0015077196913547094,2.1425214713166816,-3.854356740205163,-0.00014230579678339777,-0.3194365409041155,0.9476076593634486,1.7453292519943295,0,web_chase,1,tarmac,1.6,0,4760.73291015625,0,-0.028228342533111572,0.9996110519297574,-0.049869418144226074,5.919235859309332,4760.73291015625,1,tarmac,1.6,0,4762.8369140625,0,-0.028352856636047363,0.9996110519297574,-0.049869418144226074,5.920108501111166,4762.8369140625,1,tarmac,1.6,0,3663.55517578125,0,0.0781438946723938,0.999695605858071,-0.049515366554260254,5.9135451952563685,3663.55517578125,1,tarmac,1.6,0,3665.918701171875,0,0.07801797986030579,0.999695605858071,-0.049515366554260254,5.914427314196722,3665.918701171875,0,1000,0.25,0,0,1,0,0.0552039352693718,0.021386587596702714,0.000011826322040570865,0.9996110519297574,0.999695605858071,-1.519277961206541e-14,4.1909979720455705e-9,0.00013721588066799943,84.33,0.08559043993604634,0.0032128810767174457,0.00002365264408114173,0.0013551966799217876,tarmac,1.6,4,0,16853.043701171875,100,1,1.3333333333338664,0,4760.73291015625,-0.049869418144226074,0,4762.8369140625,-0.049869418144226074,0,3663.55517578125,-0.049515366554260254,0,3665.918701171875,-0.049515366554260254,0,0,0,0,0,0
2026-04-28T08:58:06.982Z,10,0.181,WebPort,true,false,webtest,webtest,car_1,car_1,0,0,0,0.0008438199292868376,0.4954463839530945,0.1228531152009964,-0.00019095306796817295,-0.044897510506648516,0.9989915800882565,-0.9999999771427098,-0.00008751444026055001,-0.00019507896561787616,-0.00009618474886488085,0.9989915945049429,0.0448974927692622,-0.000002869899162760703,-0.1366148740053177,0.015271005220711231,-0.0008847546414472163,-9.533641653902691e-10,0.0000031272713840735378,0,0,0,0,0,17,0.017,0.13746573175950483,0.015271005490383103,-0.0001911458208944095,-0.010951848808813211,0.04491260817136334,2.573302895143893,-0.00008760277916056866,-0.005019269519517185,-9.533641653902691e-10,-0.00004593637957995227,0.9997478621802485,0.022454412425570457,0.00009653234785223519,0.0015075887458223512,2.1425156051490912,-3.854108127087381,-0.00014229273709447836,-0.3194322479726988,0.9476091064926959,1.7453292519943295,0,web_chase,1,tarmac,1.6,0,4760.283203125,0,-0.028194397687911987,0.9996123206162567,-0.04995882511138916,5.918403212224142,4760.283203125,1,tarmac,1.6,0,4762.388671875,0,-0.028318971395492554,0.9996123206162567,-0.04995882511138916,5.919275854025976,4762.388671875,1,tarmac,1.6,0,3663.665283203125,0,0.07813972234725952,0.9996965987431574,-0.049640536308288574,5.912717852984564,3663.665283203125,1,tarmac,1.6,0,3666.029541015625,0,0.07801377773284912,0.9996965987431574,-0.049640536308288574,5.913599971924917,3666.029541015625,0,1000,0.25,0,0,1,0,0.055185541852096294,0.021387545644692637,0.000011833375754511177,0.9996123206162567,0.9996965987431574,-1.521396252373059e-14,4.195998836498094e-9,0.00013722817461977782,84.33,0.08559043993604634,0.0031999490556379444,0.000023666751509022354,0.0013560049759986802,tarmac,1.6,4,0,16852.36669921875,100,1,1.6666666666672012,0,4760.283203125,-0.04995882511138916,0,4762.388671875,-0.04995882511138916,0,3663.665283203125,-0.049640536308288574,0,3666.029541015625,-0.049640536308288574,0,0,0,0,0,0
2026-04-28T08:58:07.000Z,11,0.197,WebPort,true,false,webtest,webtest,car_1,car_1,0,0,0,0.0008437428623437881,0.49545589089393616,0.12310069799423218,-0.0001909506983435866,-0.044884565976443816,0.9989921617685182,-0.9999999771377822,-0.00008757293587072206,-0.00019507797423642598,-0.00009624066672307429,0.9989921761796171,0.04488454822816983,-0.000002863299641830963,-0.13681963086128235,0.015265917405486107,-0.0007677621324546635,-4.3340825373050507e-10,0.0000033106985029007774,0,0,0,0,0,16,0.016,0.13766865885686244,0.015265917674008611,-0.00019114333758138354,-0.010951706525457613,0.044899650578469195,2.57256047975841,-0.00008766128277531025,-0.005022621529728137,-4.3340825373050507e-10,-0.0000459649834733112,0.9997480076356638,0.0224479352594339,0.00009653149334424386,0.0015074540398352443,2.142508957093474,-3.8538589407077186,-0.00014227892664408833,-0.31942851506572767,0.947610364822806,1.7453292519943295,0,web_chase,1,tarmac,1.6,0,4759.93359375,0,-0.028165549039840698,0.9996138492463701,-0.05006253719329834,5.917568836604254,4759.93359375,1,tarmac,1.6,0,4762.041015625,0,-0.028290241956710815,0.9996138492463701,-0.05006253719329834,5.918441478406088,4762.041015625,1,tarmac,1.6,0,3663.791748046875,0,0.07813441753387451,0.9996977950623765,-0.049787163734436035,5.911888066922323,3663.791748046875,1,tarmac,1.6,0,3666.157958984375,0,0.07800841331481934,0.9996977950623765,-0.049787163734436035,5.912770185862676,3666.157958984375,0,1000,0.25,0,0,1,0,0.055167154615987674,0.021389273924008592,0.000011846621424601992,0.9996138492463701,0.9996977950623765,-1.5252707651897357e-14,4.20539766289403e-9,0.00013725035380161393,84.33,0.08559043993604634,0.003185256383009545,0.000023693242849203984,0.001357522817983882,tarmac,1.6,4,0,16851.92431640625,100,1,1.0000000000005351,0,4759.93359375,-0.05006253719329834,0,4762.041015625,-0.05006253719329834,0,3663.791748046875,-0.049787163734436035,0,3666.157958984375,-0.049787163734436035,0,0,0,0,0,0
2026-04-28T08:58:07.016Z,12,0.214,WebPort,true,false,webtest,webtest,car_1,car_1,0,0,0,0.0008436647476628423,0.495462030172348,0.12334944307804108,-0.0001909481774597727,-0.0448737634575357,0.9989926470660087,-0.9999999771326845,-0.00008763305157173532,-0.00019507710941912048,-0.00009629861822417332,0.998992661471347,0.044873745698021696,-0.0000028590179681486916,-0.137028306722641,0.015260830521583557,-0.000639729609247297,-2.537120791235026e-10,0.0000034280885756743373,0,0,0,0,0,17,0.017,0.13787548657994525,0.015260830789392823,-0.000191140721300764,-0.010951556623620093,0.04488883716421007,2.5719409167592358,-0.0000877214165095933,-0.005026066938908918,-2.537120791235026e-10,-0.000045994502130717675,0.9997481289892519,0.022442529911581917,0.00009653063498832593,0.00150731619646676,2.1425014902408206,-3.853608905355461,-0.0001422645584403377,-0.31942536581770015,0.9476114263942916,1.7453292519943295,0,web_chase,1,tarmac,1.6,0,4759.68408203125,0,-0.028142064809799194,0.9996155829504269,-0.05017697811126709,5.9167325536357325,4759.68408203125,1,tarmac,1.6,0,4761.79296875,0,-0.028266847133636475,0.9996155829504269,-0.05017697811126709,5.917605195437567,4761.79296875,1,tarmac,1.6,0,3663.927490234375,0,0.07812842726707458,0.9996991518742471,-0.04994809627532959,5.9110555986510676,3663.927490234375,1,tarmac,1.6,0,3666.2958984375,0,0.07800230383872986,0.9996991518742471,-0.04994809627532959,5.911937717591421,3666.2958984375,0,1000,0.25,0,0,1,0,0.0551487736073337,0.0213916221253012,0.000011866952093317702,0.9996155829504269,0.9996991518742471,-1.5310919164175237e-14,4.219844298435925e-9,0.00013728049139286833,84.33,0.08559043993604634,0.003169264345960536,0.000023733904186635403,0.0013598525410067493,tarmac,1.6,4,0,16851.700439453125,100,1,1.33333333333387,0,4759.68408203125,-0.05017697811126709,0,4761.79296875,-0.05017697811126709,0,3663.927490234375,-0.04994809627532959,0,3666.2958984375,-0.04994809627532959,0,0,0,0,0,0
2026-04-28T08:58:07.033Z,13,0.23,WebPort,true,false,webtest,webtest,car_1,car_1,0,0,0,0.0008435865747742355,0.49546492099761963,0.12359921634197235,-0.00019094571805479123,-0.04486523689340329,0.9989930300348606,-0.9999999771275677,-0.00008769276258838984,-0.0001950765064376503,-0.00009635661228396593,0.9989930444344838,0.044865219122668686,-0.000002858384050341556,-0.1372367888689041,0.015255745500326157,-0.0005035491194576025,3.9889300196271904e-11,0.0000034353524824837223,0,0,0,0,0,16,0.016,0.13808212772835318,0.015255745768105903,-0.0001911381861421029,-0.010951411369728416,0.04488030200394909,2.5714518880988138,-0.0000877811540848032,-0.00502948964984679,3.9889300196271904e-11,-0.000046023931404729815,0.9997482247542268,0.022438263403301083,0.00009652985995232433,0.0015071783912497918,2.1424935650243855,-3.8533581431796087,-0.00014225016337260707,-0.3194228591241897,0.9476122713609292,1.7453292519943295,0,web_chase,1,tarmac,1.6,0,4759.5390625,0,-0.02812427282333374,0.9996174665359622,-0.05030035972595215,5.915894214306967,4759.5390625,1,tarmac,1.6,0,4761.64892578125,0,-0.028249114751815796,0.9996174665359622,-0.05030035972595215,5.916766856108801,4761.64892578125,1,tarmac,1.6,0,3664.07373046875,0,0.07812163233757019,0.999700625984666,-0.050119757652282715,5.910220269356863,3664.07373046875,1,tarmac,1.6,0,3666.444580078125,0,0.07799538969993591,0.999700625984666,-0.050119757652282715,5.911102388297216,3666.444580078125,0,1000,0.25,0,0,1,0,0.05513039857447532,0.021394433847965206,0.00001189018786709778,0.9996174665359622,0.999700625984666,-1.537778583610921e-14,4.2363855872241395e-9,0.00013731658231545802,84.33,0.08559043993604634,0.0031521629650897807,0.00002378037573419556,0.001362515164547885,tarmac,1.6,4,0,16851.706298828125,100,1,0.6666666666672039,0,4759.5390625,-0.05030035972595215,0,4761.64892578125,-0.05030035972595215,0,3664.07373046875,-0.050119757652282715,0,3666.444580078125,-0.050119757652282715,0,0,0,0,0,0
2026-04-28T08:58:07.049Z,14,0.247,WebPort,true,false,webtest,webtest,car_1,car_1,0,0,0,0.0008435085765086114,0.49546465277671814,0.1238502711057663,-0.00019094314938458207,-0.04485912127654378,0.9989933046717632,-0.999999977122497,-0.00008775171209467046,-0.000195075991800956,-0.00009641431043040109,0.998993319065715,0.04485910349469083,-0.000002858862217181013,-0.13744139671325684,0.015250662341713905,-0.0003621275827754289,1.1328459004200653e-10,0.00000341328768627136,0,0,0,0,0,18,0.018,0.13828492412596866,0.015250662609672533,-0.00019113556233701717,-0.010951261036770738,0.044874180223593,2.5711011359213036,-0.00008784013886203363,-0.005032869228637613,1.1328459004200653e-10,-0.00004605309749850483,0.999748293429398,0.02243520328088724,0.00009652908230065374,0.0015070409158654584,2.1424853562961994,-3.853106449621923,-0.00014223575448950564,-0.3194210112142823,0.947612894257901,1.7453292519943295,0,web_chase,1,tarmac,1.6,0,4759.49365234375,0,-0.028112143278121948,0.9996194799132959,-0.05042910575866699,5.915053729210989,4759.49365234375,1,tarmac,1.6,0,4761.60400390625,0,-0.02823704481124878,0.9996194799132959,-0.05042910575866699,5.915926371012823,4761.60400390625,1,tarmac,1.6,0,3664.2255859375,0,0.07811430096626282,0.999702201671275,-0.05029857158660889,5.909381959830419,3664.2255859375,1,tarmac,1.6,0,3666.597412109375,0,0.07798799872398376,0.999702201671275,-0.05029857158660889,5.910264078770773,3666.597412109375,0,1000,0.25,0,0,1,0,0.05511202958154546,0.021397545011701068,0.00001191701959433162,0.9996194799132959,0.999702201671275,-1.5454856240829846e-14,4.25552705052012e-9,0.00013735652236293878,84.33,0.08559043993604634,0.003134406642050485,0.00002383403918866324,0.0013655898540012327,tarmac,1.6,4,0,16851.920654296875,100,1,2.000000000000536,0,4759.49365234375,-0.05042910575866699,0,4761.60400390625,-0.05042910575866699,0,3664.2255859375,-0.05029857158660889,0,3666.597412109375,-0.05029857158660889,0,0,0,0,0,0
2026-04-28T08:58:07.066Z,15,0.264,WebPort,true,false,webtest,webtest,car_1,car_1,0,0,0,0.0008434324408881366,0.49546122550964355,0.124102383852005,-0.00019094071828832087,-0.04485541660921059,0.9989934710209354,-0.9999999771177364,-0.00008780666645895055,-0.00019507566783703563,-0.00009646848685575471,0.9989934854095914,0.04485539881694914,-0.0000028652527817030204,-0.13763859868049622,0.015245581045746803,-0.00021855525847058743,6.040571376431103e-10,0.0000032076475235953694,0,0,0,0,0,16,0.016,0.1384803653821104,0.015245581314994443,-0.0001911330969641337,-0.010951119781309589,0.044870471823406775,2.5708886602418874,-0.00008789513396759645,-0.005036020216080239,6.040571376431103e-10,-0.000046080385147610845,0.9997483350259032,0.02243334954487204,0.00009652838934594343,0.0015069090277869718,2.14247699558254,-3.8528539974760077,-0.00014222220307854284,-0.3194198580707722,0.9476132829603503,1.7453292519943295,0,web_chase,1,tarmac,1.6,0,4759.5458984375,0,-0.02810579538345337,0.9996215688236901,-0.0505596399307251,5.914211068545477,4759.5458984375,1,tarmac,1.6,0,4761.6591796875,0,-0.02823081612586975,0.9996215688236901,-0.0505596399307251,5.915083710347311,4761.6591796875,1,tarmac,1.6,0,3664.377685546875,0,0.07810670137405396,0.999703836470714,-0.05048096179962158,5.908540610467092,3664.377685546875,1,tarmac,1.6,0,3666.7509765625,0,0.07798030972480774,0.999703836470714,-0.05048096179962158,5.909422729407446,3666.7509765625,0,1000,0.25,0,0,1,0,0.05509366668690972,0.021400810400639694,0.000011944541944117154,0.9996215688236901,0.999703836470714,-1.5534644033999026e-14,4.27520602304537e-9,0.00013739844854286312,84.33,0.08559043993604634,0.0031164592107110825,0.00002388908388823431,0.001368743682969425,tarmac,1.6,4,0,16852.333740234375,100,1,1.33333333333387,0,4759.5458984375,-0.0505596399307251,0,4761.6591796875,-0.0505596399307251,0,3664.377685546875,-0.05048096179962158,0,3666.7509765625,-0.05048096179962158,0,0,0,0,0,0
2026-04-28T08:58:07.082Z,16,0.281,WebPort,true,false,webtest,webtest,car_1,car_1,0,0,0,0.000843358226120472,0.49545496702194214,0.12435580790042877,-0.00019093862947786692,-0.0448541218435363,0.998993529156263,-0.9999999771133903,-0.00008785613623394354,-0.00019507567292438943,-0.00009651765959644106,0.9989935435401696,0.04485410404184727,-0.000002874682877518353,-0.13782499730587006,0.01524050161242485,-0.00007559953519375995,8.442342380732271e-10,0.0000029139591788407415,0,0,0,0,0,17,0.017,0.13866507411754847,0.015240501883538026,-0.0001911309949265316,-0.01095099934342661,0.04486917575326165,2.570814400892619,-0.0000879446484669999,-0.00503885718792076,8.442342380732271e-10,-0.00004610505131394149,0.9997483495622564,0.022432701670541053,0.00009652786688051901,0.001506784316535985,2.1424687362134485,-3.852600561528543,-0.00014220988381333046,-0.31941937937739184,0.947613444319207,1.7453292519943295,0,web_chase,1,tarmac,1.6,0,4759.6943359375,0,-0.028105199337005615,0.9996236799828696,-0.0506901741027832,5.91336623231043,4759.6943359375,1,tarmac,1.6,0,4761.80810546875,0,-0.028230279684066772,0.9996236799828696,-0.0506901741027832,5.9142388741122645,4761.80810546875,1,tarmac,1.6,0,3664.529541015625,0,0.07809889316558838,0.9997054886822458,-0.05066335201263428,5.907696221266882,3664.529541015625,1,tarmac,1.6,0,3666.90576171875,0,0.07797235250473022,0.9997054886822458,-0.05066335201263428,5.908578340207235,3666.90576171875,0,1000,0.25,0,0,1,0,0.05507530994410576,0.021404073159036606,0.000011976797338292522,0.9996236799828696,0.9997054886822458,-1.5627148233632133e-14,4.29832698465433e-9,0.00013744034737231972,84.33,0.08559043993604634,0.0030985104641008225,0.000023953594676585043,0.0013724398788728686,tarmac,1.6,4,0,16852.937744140625,100,1,1.6666666666672048,0,4759.6943359375,-0.0506901741027832,0,4761.80810546875,-0.0506901741027832,0,3664.529541015625,-0.05066335201263428,0,3666.90576171875,-0.05066335201263428,0,0,0,0,0,0
2026-04-28T08:58:07.099Z,17,0.297,WebPort,true,false,webtest,webtest,car_1,car_1,0,0,0,0.0008432860486209393,0.49544596672058105,0.12461046874523163,-0.00019093651334647875,-0.044855193381806116,0.9989934810447607,-0.9999999771094218,-0.00008790127003021567,-0.0001950756848160168,-0.00009656295330225135,0.9989934954242933,0.04485517557148278,-0.000002882559783756733,-0.13799765706062317,0.015235424041748047,0.00006388414476532489,7.238958321664768e-10,0.0000026791019536176464,0,0,0,0,0,16,0.016,0.1388361318542921,0.01523542431443986,-0.0001911288858680124,-0.010950878503274714,0.04487024837109629,2.5708758573675743,-0.00008798983197186098,-0.005041446012052908,7.238958321664768e-10,-0.00004612766443506951,0.9997483375303102,0.022433237842360773,0.00009652734184986644,0.0015066655795517602,2.142460672750558,-3.8523461879111185,-0.00014219847562775442,-0.3194195788553711,0.9476133770813131,1.7453292519943295,0,web_chase,1,tarmac,1.6,0,4759.9306640625,0,-0.02811005711555481,0.9996257885440767,-0.050817131996154785,5.912519280110494,4759.9306640625,1,tarmac,1.6,0,4762.044921875,0,-0.02823522686958313,0.9996257885440767,-0.050817131996154785,5.9133919219123285,4762.044921875,1,tarmac,1.6,0,3664.677978515625,0,0.07809105515480042,0.9997071388605817,-0.050838589668273926,5.906848911439077,3664.677978515625,1,tarmac,1.6,0,3667.05322265625,0,0.07796454429626465,0.9997071388605817,-0.050838589668273926,5.907731030379431,3667.05322265625,0,1000,0.25,0,0,1,0,0.05505695940181357,0.021407182263038584,0.000012010403443725009,0.9996257885440767,0.9997071388605817,-1.5723368620907573e-14,4.322482472014064e-9,0.00013748027900782337,84.33,0.08559043993604634,0.0030810213320960744,0.000024020806887450017,0.0013762908548849591,tarmac,1.6,4,0,16853.706787109375,100,1,1.0000000000005387,0,4759.9306640625,-0.050817131996154785,0,4762.044921875,-0.050817131996154785,0,3664.677978515625,-0.050838589668273926,0,3667.05322265625,-0.050838589668273926,0,0,0,0,0,0
2026-04-28T08:58:07.116Z,18,0.314,WebPort,true,false,webtest,webtest,car_1,car_1,0,0,0,0.0008432172471657395,0.49543458223342896,0.12486612796783447,-0.0001909347762949436,-0.04485854192881943,0.9989933306884143,-0.9999999771059812,-0.00008793971199875217,-0.0001950759962003855,-0.00009660201054427454,0.9989933450642339,0.04485852411107788,-0.000002894261569963419,-0.13815392553806305,0.015230347402393818,0.00019731193606276065,1.0196642419302293e-9,0.0000023119825982576003,0,0,0,0,0,18,0.018,0.13899090125598518,0.01523034767739575,-0.00019112717583254078,-0.010950780525459372,0.04487360029207242,2.571067908292768,-0.00008802832592037927,-0.0050436515528398005,1.0196642419302293e-9,-0.00004614704585038754,0.9997482999308662,0.022434913379222887,0.00009652698897363018,0.0015065566004629188,2.142453008222898,-3.8520911206256283,-0.00014218857869079888,-0.3194204189478842,0.9476130939057177,1.7453292519943295,0,web_chase,1,tarmac,1.6,0,4760.2470703125,0,-0.028120189905166626,0.9996278418447615,-0.05093693733215332,5.9116703311549585,4760.2470703125,1,tarmac,1.6,0,4762.36328125,0,-0.02824541926383972,0.9996278418447615,-0.05093693733215332,5.912542972956793,4762.36328125,1,tarmac,1.6,0,3664.8193359375,0,0.07808336615562439,0.9997087457915526,-0.05100667476654053,5.905998800192968,3664.8193359375,1,tarmac,1.6,0,3667.19580078125,0,0.07795676589012146,0.9997087457915526,-0.05100667476654053,5.906880919133322,3667.19580078125,0,1000,0.25,0,0,1,0,0.05503861510417697,0.02141000144273525,0.000012040668256189801,0.9996278418447615,0.9997087457915526,-1.5811206503862438e-14,4.3442942198631064e-9,0.00013751649202668525,84.33,0.08559043993604634,0.0030644601215446265,0.000024081336512379603,0.0013797589469269282,tarmac,1.6,4,0,16854.62548828125,100,1,2.333333333333871,0,4760.2470703125,-0.05093693733215332,0,4762.36328125,-0.05093693733215332,0,3664.8193359375,-0.05100667476654053,0,3667.19580078125,-0.05100667476654053,0,0,0,0,0,0
2026-04-28T08:58:07.132Z,19,0.33,WebPort,true,false,webtest,webtest,car_1,car_1,0,0,0,0.0008431518799625337,0.4954211115837097,0.12512293457984924,-0.00019093325932158716,-0.04486399156617359,0.9989930859646833,-0.9999999771031441,-0.00008797104525236609,-0.00019507641235964965,-0.00009663437249106264,0.9989931003374577,0.04486397374233081,-0.0000029072045890643494,-0.1382916122674942,0.015225272625684738,0.0003222614759579301,1.1245235853607483e-9,0.000001915576376632089,0,0,0,0,0,15,0.015,0.13912720423598401,0.015225272903244248,-0.0001911257041507371,-0.010950696204303235,0.04487905542150592,2.571380464186005,-0.0000880597123195934,-0.005045449861048883,1.1245235853607483e-9,-0.000046162976485268976,0.9997482387337928,0.022437640255847602,0.00009652671960946082,0.0015064582805047267,2.1424459092727037,-3.851835154854036,-0.00014218040018149544,-0.31942187303557273,0.947612603763363,1.7453292519943295,0,web_chase,1,tarmac,1.6,0,4760.63525390625,0,-0.02813515067100525,0.9996297871100538,-0.05104780197143555,5.910819534455435,4760.63525390625,1,tarmac,1.6,0,4762.75244140625,0,-0.02826043963432312,0.9996297871100538,-0.05104780197143555,5.911692176257269,4762.75244140625,1,tarmac,1.6,0,3664.95068359375,0,0.07807600498199463,0.9997102681730856,-0.05116403102874756,5.905146066342489,3664.95068359375,1,tarmac,1.6,0,3667.328857421875,0,0.07794931530952454,0.9997102681730856,-0.05116403102874756,5.9060281852828425,3667.328857421875,0,1000,0.25,0,0,1,0,0.05502027679812337,0.021412399693054425,0.00001207240273501653,0.9996297871100538,0.9997102681730856,-1.590279893710598e-14,4.367224108389462e-9,0.00013754730190740748,84.33,0.08559043993604634,0.0030490295508118805,0.00002414480547003306,0.0013833954503284515,tarmac,1.6,4,0,16855.667236328125,100,1,0.6666666666672039,0,4760.63525390625,-0.05104780197143555,0,4762.75244140625,-0.05104780197143555,0,3664.95068359375,-0.05116403102874756,0,3667.328857421875,-0.05116403102874756,0,0,0,0,0,0
2026-04-28T08:58:07.149Z,20,0.348,WebPort,true,false,webtest,webtest,car_1,car_1,0,0,0,0.0008430893067270517,0.49540579319000244,0.12538056075572968,-0.0001909321432394508,-0.04487136103157853,0.998992754980781,-0.9999999771008523,-0.00008799554732031013,-0.00019507710928694133,-0.00009666028964336932,0.9989927693511887,0.044871343202884155,-0.000002919630105679971,-0.13840900361537933,0.015220199711620808,0.00043647922575473785,1.0694582996961799e-9,0.0000015338661114583374,0,0,0,0,0,18,0.018,0.13924333653567753,0.015220199991651294,-0.00019112465026665187,-0.010950635821193056,0.04488643231589554,2.571803129100444,-0.0000880842682674061,-0.005046856813220493,1.0694582996961799e-9,-0.000046175588287328266,0.9997481559663941,0.022441327773121526,0.00009652662278563071,0.001506369252591119,2.1424393292869723,-3.8515786186462004,-0.00014217376979343494,-0.3194238727534715,0.9476119296957977,1.7453292519943295,0,web_chase,1,tarmac,1.6,0,4761.08544921875,0,-0.028154462575912476,0.99963159751409,-0.051149725914001465,5.909967039023535,4761.08544921875,1,tarmac,1.6,0,4763.20263671875,0,-0.028279811143875122,0.99963159751409,-0.0511479377746582,5.910839710627691,4763.20263671875,1,tarmac,1.6,0,3665.070068359375,0,0.07806912064552307,0.999711685011027,-0.051305294036865234,5.904290978108541,3665.070068359375,1,tarmac,1.6,0,3667.448486328125,0,0.07794240117073059,0.999711685011027,-0.051305294036865234,5.905173097048895,3667.448486328125,0,1000,0.25,0,0,1,0,0.055001944546265315,0.02141425636650987,0.000012102770642288741,0.99963159751409,0.999711685011027,-1.5990543105914264e-14,4.38922308664368e-9,0.0001375711566622997,84.33,0.08559043993604634,0.0030348034066054602,0.000024205541284577482,0.0013868753561651023,tarmac,1.6,4,0,16856.806640625,100,1,2.000000000000536,0,4761.08544921875,-0.051149725914001465,0,4763.20263671875,-0.0511479377746582,0,3665.070068359375,-0.051305294036865234,0,3667.448486328125,-0.051305294036865234,0,0,0,0,0,0
2026-04-28T08:58:07.166Z,21,0.363,WebPort,true,false,webtest,webtest,car_1,car_1,0,0,0,0.0008430298184975982,0.49538904428482056,0.12563911080360413,-0.0001909310710568274,-0.044880474406892946,0.9989923455974719,-0.999999977099118,-0.00008801385271167594,-0.00019507774109306356,-0.00009668034673198925,0.998992359966068,0.04488045657451131,-0.000002930957862190553,-0.13850460946559906,0.015215128660202026,0.0005382108502089977,9.922540566975613e-10,0.000001188900000670401,0,0,0,0,0,16,0.016,0.13933781608721707,0.015215128942503745,-0.00019112365532474992,-0.010950578815221214,0.04489555488156959,2.572325813611898,-0.00008810262821924094,-0.005047908760972694,9.922540566975613e-10,-0.00004618518605253713,0.9997480535943365,0.022445887906130935,0.00009652652254787983,0.0015062894536972257,2.1424335182256415,-3.8513213657285537,-0.000142168602550599,-0.3194263816622293,0.9476110839823817,1.7453292519943295,0,web_chase,1,tarmac,1.6,0,4761.58837890625,0,-0.028177738189697266,0.9996332659617212,-0.05123734474182129,5.909113083277838,4761.58837890625,1,tarmac,1.6,0,4763.70556640625,0,-0.028303086757659912,0.9996332659617212,-0.05123734474182129,5.909985754881994,4763.70556640625,1,tarmac,1.6,0,3665.178955078125,0,0.07806265354156494,0.9997129907526514,-0.051430463790893555,5.903433803712026,3665.178955078125,1,tarmac,1.6,0,3667.556884765625,0,0.07793593406677246,0.9997129907526514,-0.05142867565155029,5.904315952454702,3667.556884765625,0,1000,0.25,0,0,1,0,0.05498361840562572,0.021415470169967737,0.000012129893503504093,0.9996332659617212,0.9997129907526514,-1.606940739202766e-14,4.408918028968965e-9,0.0001375867529205283,84.33,0.08559043993604634,0.003022133373710675,0.000024259787007008187,0.0013899834071151949,tarmac,1.6,4,0,16858.02978515625,100,1,1.33333333333387,0,4761.58837890625,-0.05123734474182129,0,4763.70556640625,-0.05123734474182129,0,3665.178955078125,-0.051430463790893555,0,3667.556884765625,-0.05142867565155029,0,0,0,0,0,0
2026-04-28T08:58:07.183Z,22,0.381,WebPort,true,false,webtest,webtest,car_1,car_1,0,0,0,0.0008429738227277994,0.4953712224960327,0.12589827179908752,-0.0001909304262775877,-0.044891061134440906,0.998991869924774,-0.999999977097946,-0.00008802519636481609,-0.00019507863101122922,-0.00009669374226773121,0.9989918842922543,0.04489104329965514,-0.000002943520030385116,-0.1385776251554489,0.015210059471428394,0.000625885499175638,1.067711807856142e-9,7.924589340291277e-7,0,0,0,0,0,17,0.017,0.13940984223329714,0.015210059756250099,-0.00019112310089890294,-0.010950547048960129,0.044906152289969775,2.572933000387005,-0.00008811402526995184,-0.005048561763877324,1.067711807856142e-9,-0.00004619137790416459,0.9997479346459005,0.02245118527449018,0.0000965265953326368,0.001506220127178809,2.1424284940719134,-3.851063676264352,-0.000142165109285461,-0.31942932118860823,0.947610093104789,1.7453292519943295,0,web_chase,1,tarmac,1.6,0,4762.12890625,0,-0.028204232454299927,0.9996347518633876,-0.05131065845489502,5.908257905636923,4762.12890625,1,tarmac,1.6,0,4764.2470703125,0,-0.02832961082458496,0.9996347518633876,-0.05130887031555176,5.9091306070434015,4764.2470703125,1,tarmac,1.6,0,3665.271240234375,0,0.0780569314956665,0.9997141536322163,-0.051534175872802734,5.902574900780813,3665.271240234375,1,tarmac,1.6,0,3667.650390625,0,0.07793015241622925,0.9997141536322163,-0.051534175872802734,5.903457049523489,3667.650390625,0,1000,0.25,0,0,1,0,0.054965298428197154,0.021415950208790988,0.000012153149162989925,0.9996347518633876,0.9997141536322163,-1.6137716193253765e-14,4.425839955732998e-9,0.00013759292131333478,84.33,0.08559043993604634,0.0030115104466119855,0.00002430629832597985,0.0013926483093902864,tarmac,1.6,4,0,16859.297607421875,100,1,1.6666666666672048,0,4762.12890625,-0.05131065845489502,0,4764.2470703125,-0.05130887031555176,0,3665.271240234375,-0.051534175872802734,0,3667.650390625,-0.051534175872802734,0,0,0,0,0,0
2026-04-28T08:58:07.199Z,23,0.397,WebPort,true,false,webtest,webtest,car_1,car_1,0,0,0,0.0008429205045104027,0.4953526258468628,0.12615807354450226,-0.00019093004028440937,-0.044902849608257966,0.9989913401240162,-0.9999999770973377,-0.00008802995814018916,-0.00019507960084899257,-0.00009670079583208994,0.9989913544910111,0.044902831772299714,-0.0000029556488243542844,-0.13862745463848114,0.015204991213977337,0.0006982258637435734,1.0502613223550838e-9,4.181246140433359e-7,0,0,0,0,0,16,0.016,0.1394588216861778,0.015204991501246818,-0.00019112281587540814,-0.010950530718316816,0.04491795266300829,2.573609111958792,-0.00008811883858313454,-0.005048837546408168,1.0502613223550838e-9,-0.00004619433860538599,0.9997478021621709,0.022457083973161394,0.0000965267541220327,0.0015061602028822757,2.1424242210589233,-3.850805484798025,-0.00014216323274203105,-0.3194326144169417,0.9476089829863228,1.7453292519943295,0,web_chase,1,tarmac,1.6,0,4762.70166015625,0,-0.02823352813720703,0.9996359973872356,-0.051367878913879395,5.907401774321691,4762.70166015625,1,tarmac,1.6,0,4764.818359375,0,-0.028358906507492065,0.9996359973872356,-0.051367878913879395,5.90827447572817,4764.818359375,1,tarmac,1.6,0,3665.35009765625,0,0.07805183529853821,0.9997151283900105,-0.051618218421936035,5.901714597140447,3665.35009765625,1,tarmac,1.6,0,3667.72998046875,0,0.07792499661445618,0.9997151283900105,-0.051618218421936035,5.902596745883123,3667.72998046875,0,1000,0.25,0,0,1,0,0.05494698466155954,0.021415622957755696,0.000012174685049765096,0.9996359973872356,0.9997151283900105,-1.6200868239740163e-14,4.441539399128163e-9,0.0001375887164675127,84.33,0.08559043993604634,0.003002629641795939,0.000024349370099530192,0.0013951161402294037,tarmac,1.6,4,0,16860.60009765625,100,1,1.0000000000005387,0,4762.70166015625,-0.051367878913879395,0,4764.818359375,-0.051367878913879395,0,3665.35009765625,-0.051618218421936035,0,3667.72998046875,-0.051618218421936035,0,0,0,0,0,0
2026-04-28T08:58:07.216Z,24,0.414,WebPort,true,false,webtest,webtest,car_1,car_1,0,0,0,0.0008428708533756435,0.4953337013721466,0.12641817331314087,-0.00019092994025859006,-0.044915575663870534,0.9989907680296856,-0.9999999770973494,-0.00008802755306253139,-0.00019508062571012947,-0.00009670087144635072,0.9989907823968813,0.04491555782808937,-0.0000029688269478356233,-0.13865411281585693,0.015199924819171429,0.0007543584215454757,1.1574737834862958e-9,7.063010176722173e-9,0,0,0,0,0,18,0.018,0.1394847687888351,0.015199925109104881,-0.00019112282519927922,-0.010950531252535277,0.0449306915712578,2.5743389976370934,-0.00008811648153899503,-0.005048702497726848,1.1574737834862958e-9,-0.00004619376270275868,0.9997476591025254,0.022463451820582764,0.00009652699920178903,0.0015061108100437948,2.142420607470757,-3.8505463562671784,-0.00014216304230761653,-0.31943619534952944,0.9476077758705268,1.7453292519943295,0,web_chase,1,tarmac,1.6,0,4763.2890625,0,-0.028264790773391724,0.9996370374311907,-0.051409006118774414,5.906544957553045,4763.2890625,1,tarmac,1.6,0,4765.40576171875,0,-0.028390169143676758,0.9996370374311907,-0.05140721797943115,5.907417688761846,4765.40576171875,1,tarmac,1.6,0,3665.415283203125,0,0.07804739475250244,0.9997159423374535,-0.051679015159606934,5.900853280221121,3665.415283203125,1,tarmac,1.6,0,3667.79345703125,0,0.07792064547538757,0.9997159423374535,-0.051679015159606934,5.901735428963796,3667.79345703125,0,1000,0.25,0,0,1,0,0.054928676855353104,0.02141442286095458,0.000012192834168633385,0.9996370374311907,0.9997159423374535,-1.6254352663845715e-14,4.454791505429198e-9,0.00013757329653989376,84.33,0.08559043993604634,0.002995994623111873,0.00002438566833726677,0.0013971958760542371,tarmac,1.6,4,0,16861.903564453125,100,1,2.333333333333871,0,4763.2890625,-0.051409006118774414,0,4765.40576171875,-0.05140721797943115,0,3665.415283203125,-0.051679015159606934,0,3667.79345703125,-0.051679015159606934,0,0,0,0,0,0
2026-04-28T08:58:07.233Z,25,0.43,WebPort,true,false,webtest,webtest,car_1,car_1,0,0,0,0.0008428244036622345,0.4953147768974304,0.12667866051197052,-0.00019093028678549717,-0.044928973048239666,0.9989901655804507,-0.9999999770978604,-0.00008801896025120086,-0.00019508188430704913,-0.00009669490439779744,0.9989901799484785,0.044928955213784705,-0.000002980210638270364,-0.13865795731544495,0.01519486028701067,0.0007938795606605709,9.999917560676863e-10,-3.5259881769889034e-7,0,0,0,0,0,15,0.015,0.13948803860874662,0.01519486057926921,-0.00019112328733465086,-0.010950557730941635,0.04494410249415388,2.575107386918414,-0.00008810793318106125,-0.005048212712895475,9.999917560676863e-10,-0.00004619012877935085,0.9997475084523577,0.022470155589866734,0.00009652741512957249,0.0015060714665815296,2.1424177495908676,-3.8502866665396485,-0.0001421645169220753,-0.3194399709327629,0.9476065031223275,1.7453292519943295,0,web_chase,1,tarmac,1.6,0,4763.88134765625,0,-0.028297394514083862,0.9996378132697221,-0.051432251930236816,5.905687753354208,4763.88134765625,1,tarmac,1.6,0,4765.998046875,0,-0.028422802686691284,0.9996378132697221,-0.051432251930236816,5.906560484563009,4765.998046875,1,tarmac,1.6,0,3665.4638671875,0,0.07804378867149353,0.9997165495154348,-0.05171656608581543,5.899991337453024,3665.4638671875,1,tarmac,1.6,0,3667.8427734375,0,0.07791697978973389,0.9997165495154348,-0.05171656608581543,5.9008734861956995,3667.8427734375,0,1000,0.25,0,0,1,0,0.054910375074909125,0.02141231443122296,0.000012208998308606789,0.9996378132697221,0.9997165495154348,-1.63016518145264e-14,4.466610841798191e-9,0.0001375462075083596,84.33,0.08559043993604634,0.0029913194260759567,0.000024417996617213577,0.0013990481500530036,tarmac,1.6,4,0,16863.18603515625,100,1,0.6666666666672039,0,4763.88134765625,-0.051432251930236816,0,4765.998046875,-0.051432251930236816,0,3665.4638671875,-0.05171656608581543,0,3667.8427734375,-0.05171656608581543,0,0,0,0,0,0
2026-04-28T08:58:07.249Z,26,0.447,WebPort,true,false,webtest,webtest,car_1,car_1,0,0,0,0.0008427807479165494,0.4952962100505829,0.12693917751312256,-0.00019093073574520122,-0.04494277329350933,0.9989895448272432,-0.9999999770988626,-0.0000880050047308994,-0.0001950830430189208,-0.00009668365259444781,0.9989895591965952,0.04494275546140838,-0.0000029900113531766692,-0.13863980770111084,0.01518979761749506,0.0008165616309270263,8.59236737316138e-10,-6.682223556708777e-7,0,0,0,0,0,17,0.017,0.13946944554274823,0.015189797911777051,-0.0001911238555088438,-0.010950590284924918,0.044957916693512866,2.575898882239036,-0.00008809401829386348,-0.005047415448586642,8.59236737316138e-10,-0.000046183832527675537,0.9997473532251411,0.02247706094568566,0.00009652783213650387,0.0015060400821079204,2.142415866248599,-3.8500270554636176,-0.0001421672439813087,-0.31944388550619807,0.9476051835026957,1.7453292519943295,0,web_chase,1,tarmac,1.6,0,4764.46728515625,0,-0.028330743312835693,0.9996383579804152,-0.0514376163482666,5.904830459748403,4764.46728515625,1,tarmac,1.6,0,4766.58349609375,0,-0.028456121683120728,0.9996383579804152,-0.0514376163482666,5.905703190957205,4766.58349609375,1,tarmac,1.6,0,3665.49658203125,0,0.07804101705551147,0.9997169758107597,-0.05173087120056152,5.899129156266348,3665.49658203125,1,tarmac,1.6,0,3667.874267578125,0,0.07791423797607422,0.9997169758107597,-0.05173087120056152,5.9000113050090235,3667.874267578125,0,1000,0.25,0,0,1,0,0.05489207937966146,0.021409276190254668,0.000012220497826905626,0.9996383579804152,0.9997169758107597,-1.633565180984153e-14,4.4750289054850235e-9,0.00013750717689935176,84.33,0.08559043993604634,0.0029889956428873436,0.000024440995653811252,0.001400365897782131,tarmac,1.6,4,0,16864.421630859375,100,1,1.0000000000005387,0,4764.46728515625,-0.0514376163482666,0,4766.58349609375,-0.0514376163482666,0,3665.49658203125,-0.05173087120056152,0,3667.874267578125,-0.05173087120056152,0,0,0,0,0,0
2026-04-28T08:58:07.266Z,27,0.463,WebPort,true,false,webtest,webtest,car_1,car_1,0,0,0,0.0008427390130236745,0.4952782392501831,0.1271996945142746,-0.00019093146799781068,-0.0449566601468013,0.9989889199854118,-0.9999999771002818,-0.00008798615021822026,-0.0001950842728879973,-0.00009666752653638559,0.9989889343565735,0.04495664231798161,-0.0000029987375000928296,-0.13860079646110535,0.0151847368106246,0.0008225367637351155,7.672961155336111e-10,-9.544852446197183e-7,0,0,0,0,0,17,0.017,0.13943011518554058,0.015184737106725434,-0.00019112470804558636,-0.010950639131682148,0.04497181759713389,2.576695345347939,-0.00008807519979926531,-0.005046337228269378,7.672961155336111e-10,-0.000046175092391660075,0.9997471969755988,0.02248400964183385,0.00009652833787720775,0.0015060158085355903,2.142414777164463,-3.8497675158093494,-0.00014217123412167438,-0.3194478418836294,0.9476038497722727,1.7453292519943295,0,web_chase,1,tarmac,1.6,0,4765.037109375,0,-0.028364211320877075,0.9996386267099369,-0.05142688751220703,5.903973344956533,4765.037109375,1,tarmac,1.6,0,4767.15283203125,0,-0.02848955988883972,0.9996386267099369,-0.05142688751220703,5.9048460761653345,4767.15283203125,1,tarmac,1.6,0,3665.513427734375,0,0.07803905010223389,0.9997171861208202,-0.05172371864318848,5.898267094288961,3665.513427734375,1,tarmac,1.6,0,3667.89208984375,0,0.07791221141815186,0.9997171861208202,-0.05172371864318848,5.899149243031637,3667.89208984375,0,1000,0.25,0,0,1,0,0.05487378982384984,0.021405307025771154,0.00001222773627526676,0.9996386267099369,0.9997171861208202,-1.6357439065870655e-14,4.4803317760287585e-9,0.0001374561955155187,84.33,0.08559043993604634,0.0029886203860545225,0.00002445547255053352,0.0014011953628642678,tarmac,1.6,4,0,16865.595458984375,100,1,1.3333333333338735,0,4765.037109375,-0.05142688751220703,0,4767.15283203125,-0.05142688751220703,0,3665.513427734375,-0.05172371864318848,0,3667.89208984375,-0.05172371864318848,0,0,0,0,0,0
